[
  {
    "name": "Australian Meat Emporium",
    "address": "Unit 4/31 O'Riordan St, Alexandria NSW 2015, Australia",
    "suburb": "Alexandria NSW 2015",
    "state": "NSW",
    "rating": 4.6,
    "reviews": 1414,
    "lat": -33.9104928,
    "lng": 151.1977261,
    "place_id": "ChIJHeIMXbexEmsRYtRk3JaB54w",
    "maps_url": "https://www.google.com/maps/place/?q=place_id:ChIJHeIMXbexEmsRYtRk3JaB54w"
  },
  {
    "name": "Feather and Bone Providore Marrickville",
    "address": "8/10-14 Lilian Fowler Pl, Marrickville NSW 2204, Australia",
    "suburb": "Marrickville NSW 2204",
    "state": "NSW",
    "rating": 4.8,
    "reviews": 399,
    "lat": -33.9093431,
    "lng": 151.1684951,
    "place_id": "ChIJWZw6TUOwEmsRqW3klsVcJKg",
    "maps_url": "https://www.google.com/maps/place/?q=place_id:ChIJWZw6TUOwEmsRqW3klsVcJKg"
  },
  {
    "name": "Victor Churchill",
    "address": "132 Queen St, Woollahra NSW 2025, Australia",
    "suburb": "Woollahra NSW 2025",
    "state": "NSW",
    "rating": 4.4,
    "reviews": 197,
    "lat": -33.888181,
    "lng": 151.2379972,
    "place_id": "ChIJByW6kvytEmsRt0xfUpOf3Ls",
    "maps_url": "https://www.google.com/maps/place/?q=place_id:ChIJByW6kvytEmsRt0xfUpOf3Ls"
  },
  {
    "name": "The Colins Butchery Sydney",
    "address": "27/ 2/4 Defries Ave, Zetland NSW 2017, Australia",
    "suburb": "Zetland NSW 2017",
    "state": "NSW",
    "rating": 4.2,
    "reviews": 167,
    "lat": -33.9050429,
    "lng": 151.2129467,
    "place_id": "ChIJ_9P8f-mxEmsRZ7mDS7lce5U",
    "maps_url": "https://www.google.com/maps/place/?q=place_id:ChIJ_9P8f-mxEmsRZ7mDS7lce5U"
  },
  {
    "name": "Whole Beast Butchery",
    "address": "368 Illawarra Rd, Marrickville NSW 2204, Australia",
    "suburb": "Marrickville NSW 2204",
    "state": "NSW",
    "rating": 4.8,
    "reviews": 120,
    "lat": -33.9147861,
    "lng": 151.1520776,
    "place_id": "ChIJ90r7h-exEmsRlICUNkLDPvY",
    "maps_url": "https://www.google.com/maps/place/?q=place_id:ChIJ90r7h-exEmsRlICUNkLDPvY"
  },
  {
    "name": "Sydney Meat Market",
    "address": "1 Madeline St, Strathfield South NSW 2136, Australia",
    "suburb": "Strathfield South NSW 2136",
    "state": "NSW",
    "rating": 4.4,
    "reviews": 106,
    "lat": -33.8958072,
    "lng": 151.0765818,
    "place_id": "ChIJweub7wm7EmsRc3gGmChzRis",
    "maps_url": "https://www.google.com/maps/place/?q=place_id:ChIJweub7wm7EmsRc3gGmChzRis"
  },
  {
    "name": "Great Meats Co",
    "address": "174 Marion St, Leichhardt NSW 2040, Australia",
    "suburb": "Leichhardt NSW 2040",
    "state": "NSW",
    "rating": 4.8,
    "reviews": 119,
    "lat": -33.8843128,
    "lng": 151.1487583,
    "place_id": "ChIJf7cnDaixEmsRl-luLtmkcok",
    "maps_url": "https://www.google.com/maps/place/?q=place_id:ChIJf7cnDaixEmsRl-luLtmkcok"
  },
  {
    "name": "Feather and Bone Butcher Waverley",
    "address": "270 Bronte Rd, Waverley NSW 2024, Australia",
    "suburb": "Waverley NSW 2024",
    "state": "NSW",
    "rating": 4.9,
    "reviews": 26,
    "lat": -33.9008273,
    "lng": 151.2542507,
    "place_id": "ChIJVUyZDi-zEmsRCfDgMU_PI1E",
    "maps_url": "https://www.google.com/maps/place/?q=place_id:ChIJVUyZDi-zEmsRCfDgMU_PI1E"
  },
  {
    "name": "McKenzie's Meats",
    "address": "101 Eastern Rd, Turramurra NSW 2074, Australia",
    "suburb": "Turramurra NSW 2074",
    "state": "NSW",
    "rating": 4.9,
    "reviews": 231,
    "lat": -33.7207218,
    "lng": 151.131183,
    "place_id": "ChIJ4yfpyBKtEmsR8YZhfV3spoc",
    "maps_url": "https://www.google.com/maps/place/?q=place_id:ChIJ4yfpyBKtEmsR8YZhfV3spoc"
  },
  {
    "name": "Butcher and the Farmer Tramsheds",
    "address": "Shop 7/1 Dalgal Wy, Forest Lodge NSW 2037, Australia",
    "suburb": "Forest Lodge NSW 2037",
    "state": "NSW",
    "rating": 4.1,
    "reviews": 1472,
    "lat": -33.8767184,
    "lng": 151.1780648,
    "place_id": "ChIJi1naKdevEmsRsxboJxPc-nE",
    "maps_url": "https://www.google.com/maps/place/?q=place_id:ChIJi1naKdevEmsRsxboJxPc-nE"
  },
  {
    "name": "Meaty's Butcher",
    "address": "98 Percival Rd, Stanmore NSW 2048, Australia",
    "suburb": "Stanmore NSW 2048",
    "state": "NSW",
    "rating": 5,
    "reviews": 67,
    "lat": -33.8927003,
    "lng": 151.1642389,
    "place_id": "ChIJAyTbNC-xEmsRaYSoEEU0QaE",
    "maps_url": "https://www.google.com/maps/place/?q=place_id:ChIJAyTbNC-xEmsRaYSoEEU0QaE"
  },
  {
    "name": "Emilio's Butcher",
    "address": "1 National St, Rozelle NSW 2039, Australia",
    "suburb": "Rozelle NSW 2039",
    "state": "NSW",
    "rating": 4.9,
    "reviews": 86,
    "lat": -33.8630826,
    "lng": 151.1711065,
    "place_id": "ChIJY2tUlMavEmsRUE3gkuqxkm4",
    "maps_url": "https://www.google.com/maps/place/?q=place_id:ChIJY2tUlMavEmsRUE3gkuqxkm4"
  },
  {
    "name": "Field to Fork Butcher",
    "address": "LG07/75 Hall St, Bondi Beach NSW 2026, Australia",
    "suburb": "Bondi Beach NSW 2026",
    "state": "NSW",
    "rating": 4,
    "reviews": 58,
    "lat": -33.889499,
    "lng": 151.271898,
    "place_id": "ChIJtwkLfJmtEmsRlbm1aHExphw",
    "maps_url": "https://www.google.com/maps/place/?q=place_id:ChIJtwkLfJmtEmsRlbm1aHExphw"
  },
  {
    "name": "Butchers Buffet Chinatown",
    "address": "shop 8/363 Sussex St, Haymarket NSW 2000, Australia",
    "suburb": "Haymarket NSW 2000",
    "state": "NSW",
    "rating": 4.6,
    "reviews": 5088,
    "lat": -33.876754,
    "lng": 151.204359,
    "place_id": "ChIJmeGK8KCvEmsRh4jgnachMrU",
    "maps_url": "https://www.google.com/maps/place/?q=place_id:ChIJmeGK8KCvEmsRh4jgnachMrU"
  },
  {
    "name": "The Butcher Boys",
    "address": "108 &, 109 Railway St, Rockdale NSW 2216, Australia",
    "suburb": "109 Railway St",
    "state": "NSW",
    "rating": 4.7,
    "reviews": 337,
    "lat": -33.9527724,
    "lng": 151.1360076,
    "place_id": "ChIJt_2d5wG6EmsRaLSVy84u_Ag",
    "maps_url": "https://www.google.com/maps/place/?q=place_id:ChIJt_2d5wG6EmsRaLSVy84u_Ag"
  },
  {
    "name": "Butchers Grill Paddy's Markets",
    "address": "2 Hay St, Haymarket NSW 2000, Australia",
    "suburb": "Haymarket NSW 2000",
    "state": "NSW",
    "rating": 4.5,
    "reviews": 11,
    "lat": -33.8783582,
    "lng": 151.2014408,
    "place_id": "ChIJTTl9UwCvEmsRF8LXZ1yHluI",
    "maps_url": "https://www.google.com/maps/place/?q=place_id:ChIJTTl9UwCvEmsRF8LXZ1yHluI"
  },
  {
    "name": "Hudson Meats",
    "address": "450-476 Miller St, Cammeray NSW 2062, Australia",
    "suburb": "Cammeray NSW 2062",
    "state": "NSW",
    "rating": 4.5,
    "reviews": 76,
    "lat": -33.8232572,
    "lng": 151.2093673,
    "place_id": "ChIJUZVTsMCuEmsRwWZO3F4OeNE",
    "maps_url": "https://www.google.com/maps/place/?q=place_id:ChIJUZVTsMCuEmsRwWZO3F4OeNE"
  },
  {
    "name": "The Fairlight Butcher",
    "address": "154 Sydney Rd, Fairlight NSW 2094, Australia",
    "suburb": "Fairlight NSW 2094",
    "state": "NSW",
    "rating": 4.9,
    "reviews": 75,
    "lat": -33.7957921,
    "lng": 151.2765021,
    "place_id": "ChIJSbJ4UKarEmsR4ubavA8zOcE",
    "maps_url": "https://www.google.com/maps/place/?q=place_id:ChIJSbJ4UKarEmsR4ubavA8zOcE"
  },
  {
    "name": "The Village Butchery",
    "address": "32 Clovelly Rd, Randwick NSW 2031, Australia",
    "suburb": "Randwick NSW 2031",
    "state": "NSW",
    "rating": 5,
    "reviews": 22,
    "lat": -33.903962,
    "lng": 151.2430276,
    "place_id": "ChIJD0liipuvEmsRmNH46-TZ3nM",
    "maps_url": "https://www.google.com/maps/place/?q=place_id:ChIJD0liipuvEmsRmNH46-TZ3nM"
  },
  {
    "name": "Sydney's Finest Meats (Carss Park)",
    "address": "12 Carwar Ave, Carss Park NSW 2221, Australia",
    "suburb": "Carss Park NSW 2221",
    "state": "NSW",
    "rating": 5,
    "reviews": 45,
    "lat": -33.98230210000001,
    "lng": 151.1178137,
    "place_id": "ChIJXYVkwsm5EmsRFTpITOAUmy8",
    "maps_url": "https://www.google.com/maps/place/?q=place_id:ChIJXYVkwsm5EmsRFTpITOAUmy8"
  },
  {
    "name": "The Craft Butcher",
    "address": "108 Elder St, Lambton NSW 2299, Australia",
    "suburb": "Lambton NSW 2299",
    "state": "NSW",
    "rating": 4.9,
    "reviews": 186,
    "lat": -32.9114283,
    "lng": 151.7080463,
    "place_id": "ChIJ2-COlIUVc2sRiMPVoxcT1Qg",
    "maps_url": "https://www.google.com/maps/place/?q=place_id:ChIJ2-COlIUVc2sRiMPVoxcT1Qg"
  },
  {
    "name": "Craig Cook - The Natural Butcher (Newcastle)",
    "address": "Shop G12, Marketown Shopping Centre 23 Steel Street, Newcastle West NSW 2302, Australia",
    "suburb": "Marketown Shopping Centre 23 Steel Street",
    "state": "NSW",
    "rating": 4.1,
    "reviews": 49,
    "lat": -32.9288591,
    "lng": 151.7631003,
    "place_id": "ChIJpydmZ0QUc2sRNt1yQ4RWkEo",
    "maps_url": "https://www.google.com/maps/place/?q=place_id:ChIJpydmZ0QUc2sRNt1yQ4RWkEo"
  },
  {
    "name": "The Butchery on Brunker",
    "address": "262 Brunker Rd, Adamstown NSW 2289, Australia",
    "suburb": "Adamstown NSW 2289",
    "state": "NSW",
    "rating": 4.7,
    "reviews": 66,
    "lat": -32.9348129,
    "lng": 151.7256392,
    "place_id": "ChIJ9eWs9cIVc2sRxddgocj4YOI",
    "maps_url": "https://www.google.com/maps/place/?q=place_id:ChIJ9eWs9cIVc2sRxddgocj4YOI"
  },
  {
    "name": "Darby Street Quality Meats",
    "address": "160 Darby St, Cooks Hill NSW 2300, Australia",
    "suburb": "Cooks Hill NSW 2300",
    "state": "NSW",
    "rating": 4.7,
    "reviews": 41,
    "lat": -32.9322075,
    "lng": 151.7708681,
    "place_id": "ChIJYzLT4mkUc2sRv9hpDqdVPZU",
    "maps_url": "https://www.google.com/maps/place/?q=place_id:ChIJYzLT4mkUc2sRv9hpDqdVPZU"
  },
  {
    "name": "Singo's Wholesale Meats",
    "address": "Newcastle Central, 1B/7A Griffiths Rd, Broadmeadow NSW 2292, Australia",
    "suburb": "1B/7A Griffiths Rd",
    "state": "NSW",
    "rating": 3.6,
    "reviews": 127,
    "lat": -32.9172841,
    "lng": 151.7310696,
    "place_id": "ChIJARnfX6MVc2sR76XSRanBm6I",
    "maps_url": "https://www.google.com/maps/place/?q=place_id:ChIJARnfX6MVc2sR76XSRanBm6I"
  },
  {
    "name": "Wallsend Prime Butcher and Groceries",
    "address": "47a Thomas St, Wallsend NSW 2287, Australia",
    "suburb": "Wallsend NSW 2287",
    "state": "NSW",
    "rating": 3.5,
    "reviews": 78,
    "lat": -32.9054688,
    "lng": 151.6729551,
    "place_id": "ChIJFe6pdWA_c2sRPFCDvgY3iGA",
    "maps_url": "https://www.google.com/maps/place/?q=place_id:ChIJFe6pdWA_c2sRPFCDvgY3iGA"
  },
  {
    "name": "Mayfield Butcher and Grocers",
    "address": "135A Maitland Rd, Mayfield NSW 2304, Australia",
    "suburb": "Mayfield NSW 2304",
    "state": "NSW",
    "rating": 4.6,
    "reviews": 88,
    "lat": -32.8984177,
    "lng": 151.7383625,
    "place_id": "ChIJp_l46jwVc2sR6Kd_WDD8eAo",
    "maps_url": "https://www.google.com/maps/place/?q=place_id:ChIJp_l46jwVc2sR6Kd_WDD8eAo"
  },
  {
    "name": "Al-Madina Butcher & Grocery",
    "address": "Wallsend NSW 2287, Australia",
    "suburb": "Australia",
    "state": "NSW",
    "rating": 5,
    "reviews": 3,
    "lat": -32.9054841,
    "lng": 151.672923,
    "place_id": "ChIJPU_uQkY-c2sRSuh5DSNNO74",
    "maps_url": "https://www.google.com/maps/place/?q=place_id:ChIJPU_uQkY-c2sRSuh5DSNNO74"
  },
  {
    "name": "Darby street quality meats marketown",
    "address": "Marketown west shopping centre, Newcastle West NSW 2302, Australia",
    "suburb": "Newcastle West NSW 2302",
    "state": "NSW",
    "rating": 5,
    "reviews": 3,
    "lat": -32.9283342,
    "lng": 151.7608928,
    "place_id": "ChIJ7Xiw5EUVc2sRGqejvDZy3Eo",
    "maps_url": "https://www.google.com/maps/place/?q=place_id:ChIJ7Xiw5EUVc2sRGqejvDZy3Eo"
  },
  {
    "name": "Adam's Family Meats",
    "address": "Shop 1/87 Regent St, New Lambton NSW 2305, Australia",
    "suburb": "New Lambton NSW 2305",
    "state": "NSW",
    "rating": 4.5,
    "reviews": 45,
    "lat": -32.9229432,
    "lng": 151.7136724,
    "place_id": "ChIJozFLtJIVc2sRLa7oF78HpXU",
    "maps_url": "https://www.google.com/maps/place/?q=place_id:ChIJozFLtJIVc2sRLa7oF78HpXU"
  },
  {
    "name": "Sellers Meat Co.",
    "address": "18 Mitchell St, Merewether NSW 2291, Australia",
    "suburb": "Merewether NSW 2291",
    "state": "NSW",
    "rating": 4.5,
    "reviews": 44,
    "lat": -32.941988,
    "lng": 151.7564711,
    "place_id": "ChIJARm4_jAUc2sRACSdd2ML7_M",
    "maps_url": "https://www.google.com/maps/place/?q=place_id:ChIJARm4_jAUc2sRACSdd2ML7_M"
  },
  {
    "name": "Craig Cook - The Natural Butcher",
    "address": "1059/31-89 Park Ave, Kotara NSW 2289, Australia",
    "suburb": "Kotara NSW 2289",
    "state": "NSW",
    "rating": 4.3,
    "reviews": 40,
    "lat": -32.9414856,
    "lng": 151.7110623,
    "place_id": "ChIJWQln3_wVc2sRMV8CbDNNnNY",
    "maps_url": "https://www.google.com/maps/place/?q=place_id:ChIJWQln3_wVc2sRMV8CbDNNnNY"
  },
  {
    "name": "Caves Beach Butchery",
    "address": "Shop 7/64 Caves Beach Rd, Caves Beach NSW 2281, Australia",
    "suburb": "Caves Beach NSW 2281",
    "state": "NSW",
    "rating": 4.6,
    "reviews": 27,
    "lat": -33.1045398,
    "lng": 151.6447974,
    "place_id": "ChIJf5P-Y3Ahc2sR3qKK-rtR1ek",
    "maps_url": "https://www.google.com/maps/place/?q=place_id:ChIJf5P-Y3Ahc2sR3qKK-rtR1ek"
  },
  {
    "name": "Blackbutt Butchery",
    "address": "62 Orchardtown Rd, New Lambton NSW 2305, Australia",
    "suburb": "New Lambton NSW 2305",
    "state": "NSW",
    "rating": 4.7,
    "reviews": 33,
    "lat": -32.9338603,
    "lng": 151.7076966,
    "place_id": "ChIJi7ph8Q4Vc2sRMx1Rm9czJGY",
    "maps_url": "https://www.google.com/maps/place/?q=place_id:ChIJi7ph8Q4Vc2sRMx1Rm9czJGY"
  },
  {
    "name": "Warners Bay Butchery",
    "address": "Unit 1/390 The Esplanade, Warners Bay NSW 2282, Australia",
    "suburb": "Warners Bay NSW 2282",
    "state": "NSW",
    "rating": 4.9,
    "reviews": 42,
    "lat": -32.9705031,
    "lng": 151.6383262,
    "place_id": "ChIJh2Y99_Y8c2sRNBvdEqXnM6w",
    "maps_url": "https://www.google.com/maps/place/?q=place_id:ChIJh2Y99_Y8c2sRNBvdEqXnM6w"
  },
  {
    "name": "Hunter Valley Meat Emporium",
    "address": "The Pavilion, Shop 2/17 Mitchell Dr, East Maitland NSW 2323, Australia",
    "suburb": "Shop 2/17 Mitchell Dr",
    "state": "NSW",
    "rating": 4.7,
    "reviews": 68,
    "lat": -32.7612461,
    "lng": 151.589851,
    "place_id": "ChIJHQlcYm1Hc2sRsuxgpA7FbN4",
    "maps_url": "https://www.google.com/maps/place/?q=place_id:ChIJHQlcYm1Hc2sRsuxgpA7FbN4"
  },
  {
    "name": "Lekali Mart",
    "address": "Unit 2/13 Arnott St, Edgeworth NSW 2285, Australia",
    "suburb": "Edgeworth NSW 2285",
    "state": "NSW",
    "rating": 4.9,
    "reviews": 31,
    "lat": -32.9249551,
    "lng": 151.6225359,
    "place_id": "ChIJfeufifQ9c2sR2EebuBrQbBI",
    "maps_url": "https://www.google.com/maps/place/?q=place_id:ChIJfeufifQ9c2sR2EebuBrQbBI"
  },
  {
    "name": "Farnham's Butchery",
    "address": "150 Nelson St, Wallsend NSW 2287, Australia",
    "suburb": "Wallsend NSW 2287",
    "state": "NSW",
    "rating": 4,
    "reviews": 21,
    "lat": -32.9025784,
    "lng": 151.6696405,
    "place_id": "ChIJ5xo7YU8-c2sRS79lnjj_pcI",
    "maps_url": "https://www.google.com/maps/place/?q=place_id:ChIJ5xo7YU8-c2sRS79lnjj_pcI"
  },
  {
    "name": "Sadids Halal Butcher & Grocery",
    "address": "2/24 -26 Blue Gum Rd, Jesmond NSW 2299, Australia",
    "suburb": "Jesmond NSW 2299",
    "state": "NSW",
    "rating": 5,
    "reviews": 2,
    "lat": -32.9032795,
    "lng": 151.6906549,
    "place_id": "ChIJnf4wwhE_c2sRayAP454Oz34",
    "maps_url": "https://www.google.com/maps/place/?q=place_id:ChIJnf4wwhE_c2sRayAP454Oz34"
  },
  {
    "name": "Ozzie Meats",
    "address": "328 Sandgate Rd, Shortland NSW 2307, Australia",
    "suburb": "Shortland NSW 2307",
    "state": "NSW",
    "rating": 4.9,
    "reviews": 26,
    "lat": -32.884531,
    "lng": 151.6959752,
    "place_id": "ChIJq6oGQdk_c2sRs4XdFRBEFeY",
    "maps_url": "https://www.google.com/maps/place/?q=place_id:ChIJq6oGQdk_c2sRs4XdFRBEFeY"
  },
  {
    "name": "Hastie's Toptaste Meats",
    "address": "89/91 Auburn St, Wollongong NSW 2500, Australia",
    "suburb": "Wollongong NSW 2500",
    "state": "NSW",
    "rating": 4.9,
    "reviews": 165,
    "lat": -34.435069,
    "lng": 150.887918,
    "place_id": "ChIJD1bl774ZE2sRRJ7qBPkQrEc",
    "maps_url": "https://www.google.com/maps/place/?q=place_id:ChIJD1bl774ZE2sRRJ7qBPkQrEc"
  },
  {
    "name": "Cleaver and Co Quality Meats Gwynneville",
    "address": "2/4 Murphys Ave, Gwynneville NSW 2500, Australia",
    "suburb": "Gwynneville NSW 2500",
    "state": "NSW",
    "rating": 4.8,
    "reviews": 73,
    "lat": -34.412155,
    "lng": 150.8814947,
    "place_id": "ChIJAQPxiHQZE2sR0eQQ8F2aC3o",
    "maps_url": "https://www.google.com/maps/place/?q=place_id:ChIJAQPxiHQZE2sR0eQQ8F2aC3o"
  },
  {
    "name": "Ozhart Butcher",
    "address": "9A Daisy St, Fairy Meadow NSW 2519, Australia",
    "suburb": "Fairy Meadow NSW 2519",
    "state": "NSW",
    "rating": 4.7,
    "reviews": 88,
    "lat": -34.3922793,
    "lng": 150.8941447,
    "place_id": "ChIJdUkIGTsZE2sRmepwRElvyN4",
    "maps_url": "https://www.google.com/maps/place/?q=place_id:ChIJdUkIGTsZE2sRmepwRElvyN4"
  },
  {
    "name": "Illawarra Meat Co Fernhill.",
    "address": "55 Pringle Rd, Fernhill NSW 2519, Australia",
    "suburb": "Fernhill NSW 2519",
    "state": "NSW",
    "rating": 4.5,
    "reviews": 64,
    "lat": -34.3871675,
    "lng": 150.8906469,
    "place_id": "ChIJa6TgtjAZE2sRp8P0m1R5CYc",
    "maps_url": "https://www.google.com/maps/place/?q=place_id:ChIJa6TgtjAZE2sRp8P0m1R5CYc"
  },
  {
    "name": "Figtree Fresh Meats Wollongong",
    "address": "8/34 Princes Hwy, Figtree NSW 2525, Australia",
    "suburb": "Figtree NSW 2525",
    "state": "NSW",
    "rating": 4.9,
    "reviews": 42,
    "lat": -34.4349376,
    "lng": 150.8615731,
    "place_id": "ChIJVVVFjPUZE2sRENBoFeG-QhM",
    "maps_url": "https://www.google.com/maps/place/?q=place_id:ChIJVVVFjPUZE2sRENBoFeG-QhM"
  },
  {
    "name": "B&G Family Quality Meats",
    "address": "13 Farmborough Rd, Unanderra NSW 2526, Australia",
    "suburb": "Unanderra NSW 2526",
    "state": "NSW",
    "rating": 5,
    "reviews": 43,
    "lat": -34.4592705,
    "lng": 150.8399064,
    "place_id": "ChIJ25evr70QE2sRDlBclRQ5W74",
    "maps_url": "https://www.google.com/maps/place/?q=place_id:ChIJ25evr70QE2sRDlBclRQ5W74"
  },
  {
    "name": "Superior Meats on Addison",
    "address": "Shop 3/20-26 Addison St, Shellharbour NSW 2529, Australia",
    "suburb": "Shellharbour NSW 2529",
    "state": "NSW",
    "rating": 5,
    "reviews": 42,
    "lat": -34.5790457,
    "lng": 150.8674651,
    "place_id": "ChIJ3QV_t4YUE2sRfF8R9X0T0_g",
    "maps_url": "https://www.google.com/maps/place/?q=place_id:ChIJ3QV_t4YUE2sRfF8R9X0T0_g"
  },
  {
    "name": "Bellforce Meats",
    "address": "U10/28 Glastonbury Ave, Unanderra NSW 2526, Australia",
    "suburb": "Unanderra NSW 2526",
    "state": "NSW",
    "rating": 4.9,
    "reviews": 25,
    "lat": -34.4591359,
    "lng": 150.8551345,
    "place_id": "ChIJL-344q0QE2sRfZFQDwi_aEM",
    "maps_url": "https://www.google.com/maps/place/?q=place_id:ChIJL-344q0QE2sRfZFQDwi_aEM"
  },
  {
    "name": "Herb & Cooke",
    "address": "1/330 Princes Hwy, Corrimal NSW 2518, Australia",
    "suburb": "Corrimal NSW 2518",
    "state": "NSW",
    "rating": 5,
    "reviews": 25,
    "lat": -34.3761034,
    "lng": 150.8966002,
    "place_id": "ChIJ4SAQVm4fE2sRmW1Bb3-oUi4",
    "maps_url": "https://www.google.com/maps/place/?q=place_id:ChIJ4SAQVm4fE2sRmW1Bb3-oUi4"
  },
  {
    "name": "Keiraville Butchery",
    "address": "207 Gipps Rd, Keiraville NSW 2500, Australia",
    "suburb": "Keiraville NSW 2500",
    "state": "NSW",
    "rating": 4.8,
    "reviews": 34,
    "lat": -34.4147991,
    "lng": 150.8726791,
    "place_id": "ChIJg5a3Up0ZE2sRvgnYZ0ZLZ3k",
    "maps_url": "https://www.google.com/maps/place/?q=place_id:ChIJg5a3Up0ZE2sRvgnYZ0ZLZ3k"
  },
  {
    "name": "Abdul's Halal Butchery",
    "address": "shop 3/39 Bethlehem St, Cringila NSW 2502, Australia",
    "suburb": "Cringila NSW 2502",
    "state": "NSW",
    "rating": 4.8,
    "reviews": 101,
    "lat": -34.468956,
    "lng": 150.872316,
    "place_id": "ChIJpys3WU8XE2sRQ3q9Ql-juQI",
    "maps_url": "https://www.google.com/maps/place/?q=place_id:ChIJpys3WU8XE2sRQ3q9Ql-juQI"
  },
  {
    "name": "Rumi Supermarket and Halal Butchers",
    "address": "Shop D/34 Princes Hwy, Figtree NSW 2525, Australia",
    "suburb": "Figtree NSW 2525",
    "state": "NSW",
    "rating": 4.2,
    "reviews": 402,
    "lat": -34.4351044,
    "lng": 150.8612635,
    "place_id": "ChIJa-qbzzkZE2sRcfIxwgHgdbY",
    "maps_url": "https://www.google.com/maps/place/?q=place_id:ChIJa-qbzzkZE2sRcfIxwgHgdbY"
  },
  {
    "name": "Albion Park Village Meats",
    "address": "Shop 7/60 Terry St, Albion Park NSW 2527, Australia",
    "suburb": "Albion Park NSW 2527",
    "state": "NSW",
    "rating": 4.7,
    "reviews": 33,
    "lat": -34.5724579,
    "lng": 150.7744129,
    "place_id": "ChIJdVnJG6USE2sRF1nolTLrTI0",
    "maps_url": "https://www.google.com/maps/place/?q=place_id:ChIJdVnJG6USE2sRF1nolTLrTI0"
  },
  {
    "name": "Graze Butchery",
    "address": "127 Balgownie Rd, Balgownie NSW 2519, Australia",
    "suburb": "Balgownie NSW 2519",
    "state": "NSW",
    "rating": 4.4,
    "reviews": 33,
    "lat": -34.38877799999999,
    "lng": 150.8781408,
    "place_id": "ChIJzd1GH0QZE2sRH5qw_VfDBCk",
    "maps_url": "https://www.google.com/maps/place/?q=place_id:ChIJzd1GH0QZE2sRH5qw_VfDBCk"
  },
  {
    "name": "Jamberoo Valley Meats",
    "address": "9 Allowrie St, Jamberoo NSW 2533, Australia",
    "suburb": "Jamberoo NSW 2533",
    "state": "NSW",
    "rating": 5,
    "reviews": 25,
    "lat": -34.6481545,
    "lng": 150.776275,
    "place_id": "ChIJD5PRM4xtE2sR75WJPFZSOJQ",
    "maps_url": "https://www.google.com/maps/place/?q=place_id:ChIJD5PRM4xtE2sR75WJPFZSOJQ"
  },
  {
    "name": "Asian Lee's Butchery",
    "address": "Wollongong NSW 2500, Australia",
    "suburb": "Australia",
    "state": "NSW",
    "rating": 4.9,
    "reviews": 21,
    "lat": -34.4851135,
    "lng": 150.8874,
    "place_id": "ChIJVVUAixYXE2sRAy4HaRIbwYs",
    "maps_url": "https://www.google.com/maps/place/?q=place_id:ChIJVVUAixYXE2sRAy4HaRIbwYs"
  },
  {
    "name": "Illawarra Asian Butchery",
    "address": "103 Keira St, Wollongong NSW 2500, Australia",
    "suburb": "Wollongong NSW 2500",
    "state": "NSW",
    "rating": 3.5,
    "reviews": 24,
    "lat": -34.4218007,
    "lng": 150.8940035,
    "place_id": "ChIJJ1iisacZE2sRPHjPK2q1sZo",
    "maps_url": "https://www.google.com/maps/place/?q=place_id:ChIJJ1iisacZE2sRPHjPK2q1sZo"
  },
  {
    "name": "Bush's Meats- Figtree",
    "address": "Shop 20-21/19 Princes Hwy, Figtree NSW 2525, Australia",
    "suburb": "Figtree NSW 2525",
    "state": "NSW",
    "rating": 5,
    "reviews": 2,
    "lat": -34.4366153,
    "lng": 150.8632982,
    "place_id": "ChIJOXJyduwZE2sRRrGNb4McZUU",
    "maps_url": "https://www.google.com/maps/place/?q=place_id:ChIJOXJyduwZE2sRRrGNb4McZUU"
  },
  {
    "name": "Tarrawanna Meats",
    "address": "Unit 1/104 Meadow St, Tarrawanna NSW 2518, Australia",
    "suburb": "Tarrawanna NSW 2518",
    "state": "NSW",
    "rating": 5,
    "reviews": 12,
    "lat": -34.3817251,
    "lng": 150.8876341,
    "place_id": "ChIJbeCGxHsZE2sR62ARrxBH5V4",
    "maps_url": "https://www.google.com/maps/place/?q=place_id:ChIJbeCGxHsZE2sR62ARrxBH5V4"
  },
  {
    "name": "Lakeline Butchery",
    "address": "3/58-60 Lakeside Dr, Kanahooka NSW 2530, Australia",
    "suburb": "Kanahooka NSW 2530",
    "state": "NSW",
    "rating": 5,
    "reviews": 15,
    "lat": -34.5003006,
    "lng": 150.8167029,
    "place_id": "ChIJayqrIwsRE2sRuqOywPgfIdI",
    "maps_url": "https://www.google.com/maps/place/?q=place_id:ChIJayqrIwsRE2sRuqOywPgfIdI"
  },
  {
    "name": "Tumbi Meats",
    "address": "2/11 Tumbi Creek Rd, Berkeley Vale NSW 2261, Australia",
    "suburb": "Berkeley Vale NSW 2261",
    "state": "NSW",
    "rating": 4.5,
    "reviews": 231,
    "lat": -33.3588824,
    "lng": 151.4445108,
    "place_id": "ChIJbcfKTsfOcmsR1Utv2N0ZSS8",
    "maps_url": "https://www.google.com/maps/place/?q=place_id:ChIJbcfKTsfOcmsR1Utv2N0ZSS8"
  },
  {
    "name": "Coastwide Meats",
    "address": "7/12 Grieve Cl, West Gosford NSW 2250, Australia",
    "suburb": "West Gosford NSW 2250",
    "state": "NSW",
    "rating": 4.8,
    "reviews": 125,
    "lat": -33.424897,
    "lng": 151.317204,
    "place_id": "ChIJPdnYOqhKDWsRaWaOQIvl628",
    "maps_url": "https://www.google.com/maps/place/?q=place_id:ChIJPdnYOqhKDWsRaWaOQIvl628"
  },
  {
    "name": "Free Range Butcher",
    "address": "5/21 Kangoo Rd, Somersby NSW 2250, Australia",
    "suburb": "Somersby NSW 2250",
    "state": "NSW",
    "rating": 4.8,
    "reviews": 79,
    "lat": -33.4234673,
    "lng": 151.2900395,
    "place_id": "ChIJ597Y2aNUDWsR4I3G8y_r0qo",
    "maps_url": "https://www.google.com/maps/place/?q=place_id:ChIJ597Y2aNUDWsR4I3G8y_r0qo"
  },
  {
    "name": "The Butcher's Chop",
    "address": "Shop 9, Peninsula Plaza, 48/64 Blackwall Rd, Woy Woy NSW 2256, Australia",
    "suburb": "Peninsula Plaza",
    "state": "NSW",
    "rating": 4.8,
    "reviews": 63,
    "lat": -33.4864902,
    "lng": 151.3253764,
    "place_id": "ChIJ5zx5QDVLDWsROKGbcXXDeE8",
    "maps_url": "https://www.google.com/maps/place/?q=place_id:ChIJ5zx5QDVLDWsROKGbcXXDeE8"
  },
  {
    "name": "Two Creeks Beef wholesalers",
    "address": "9 Donaldson St, Wyong NSW 2259, Australia",
    "suburb": "Wyong NSW 2259",
    "state": "NSW",
    "rating": 4.6,
    "reviews": 38,
    "lat": -33.2672894,
    "lng": 151.4445268,
    "place_id": "ChIJHWJMdwDRcmsR1EsdPkzL5mE",
    "maps_url": "https://www.google.com/maps/place/?q=place_id:ChIJHWJMdwDRcmsR1EsdPkzL5mE"
  },
  {
    "name": "Saratoga Quality Meats - Kincumber",
    "address": "43 Avoca Dr, Kincumber NSW 2251, Australia",
    "suburb": "Kincumber NSW 2251",
    "state": "NSW",
    "rating": 4.7,
    "reviews": 76,
    "lat": -33.4672823,
    "lng": 151.3822712,
    "place_id": "ChIJ6zOstuG0cmsRIFOta7i_Hg0",
    "maps_url": "https://www.google.com/maps/place/?q=place_id:ChIJ6zOstuG0cmsRIFOta7i_Hg0"
  },
  {
    "name": "Sutcliffe Meats",
    "address": "Shop 326 Erina Fair The Corner, Terrigal Dr, Erina NSW 2250, Australia",
    "suburb": "Terrigal Dr",
    "state": "NSW",
    "rating": 4.1,
    "reviews": 102,
    "lat": -33.4363889,
    "lng": 151.3916667,
    "place_id": "ChIJbV1j5nPKcmsRevSR1vGV7Uc",
    "maps_url": "https://www.google.com/maps/place/?q=place_id:ChIJbV1j5nPKcmsRevSR1vGV7Uc"
  },
  {
    "name": "Robinson Family Butcher",
    "address": "83 Victoria St, East Gosford NSW 2250, Australia",
    "suburb": "East Gosford NSW 2250",
    "state": "NSW",
    "rating": 5,
    "reviews": 16,
    "lat": -33.4375088,
    "lng": 151.3537664,
    "place_id": "ChIJ11LKxAa1cmsRtv4csrsDUB0",
    "maps_url": "https://www.google.com/maps/place/?q=place_id:ChIJ11LKxAa1cmsRtv4csrsDUB0"
  },
  {
    "name": "Singo's Wholesale Meats - ERINA",
    "address": "5/159 Central Coast Hwy, Erina NSW 2250, Australia",
    "suburb": "Erina NSW 2250",
    "state": "NSW",
    "rating": 4.1,
    "reviews": 74,
    "lat": -33.4376724,
    "lng": 151.3798173,
    "place_id": "ChIJdcbK1njKcmsRlNjG_lUq5Z8",
    "maps_url": "https://www.google.com/maps/place/?q=place_id:ChIJdcbK1njKcmsRlNjG_lUq5Z8"
  },
  {
    "name": "Singo's Wholesale Meats - WEST GOSFORD",
    "address": "Stockyard Pl &, Manns Rd, West Gosford NSW 2250, Australia",
    "suburb": "Manns Rd",
    "state": "NSW",
    "rating": 4.3,
    "reviews": 109,
    "lat": -33.4228668,
    "lng": 151.319046,
    "place_id": "ChIJ8eSQxqrKcmsRAvFvQO16iZg",
    "maps_url": "https://www.google.com/maps/place/?q=place_id:ChIJ8eSQxqrKcmsRAvFvQO16iZg"
  },
  {
    "name": "Murphy's Quality Butchery",
    "address": "1 Parsons Rd, Lisarow NSW 2250, Australia",
    "suburb": "Lisarow NSW 2250",
    "state": "NSW",
    "rating": 4.8,
    "reviews": 36,
    "lat": -33.3857159,
    "lng": 151.3673101,
    "place_id": "ChIJKf0R_AXLcmsR1ztM0D9ddZU",
    "maps_url": "https://www.google.com/maps/place/?q=place_id:ChIJKf0R_AXLcmsR1ztM0D9ddZU"
  },
  {
    "name": "Drive-in Meat Market",
    "address": "471 The Entrance Rd, Long Jetty NSW 2261, Australia",
    "suburb": "Long Jetty NSW 2261",
    "state": "NSW",
    "rating": 4.4,
    "reviews": 14,
    "lat": -33.3628524,
    "lng": 151.4798112,
    "place_id": "ChIJ-dqvQz3PcmsRCaZQf9rUGC0",
    "maps_url": "https://www.google.com/maps/place/?q=place_id:ChIJ-dqvQz3PcmsRCaZQf9rUGC0"
  },
  {
    "name": "The Food Farm",
    "address": "216 Yarramalong Rd, Wyong Creek NSW 2259, Australia",
    "suburb": "Wyong Creek NSW 2259",
    "state": "NSW",
    "rating": 5,
    "reviews": 56,
    "lat": -33.2728011,
    "lng": 151.3846249,
    "place_id": "ChIJCXV9upzTcmsRhIOpm4Ll-Pc",
    "maps_url": "https://www.google.com/maps/place/?q=place_id:ChIJCXV9upzTcmsRhIOpm4Ll-Pc"
  },
  {
    "name": "Coast & Country Meats",
    "address": "94 Pacific Hwy, Wyong NSW 2259, Australia",
    "suburb": "Wyong NSW 2259",
    "state": "NSW",
    "rating": 4.2,
    "reviews": 11,
    "lat": -33.2849017,
    "lng": 151.4245803,
    "place_id": "ChIJ-yTdav7RcmsRjJIzo8o-Qjg",
    "maps_url": "https://www.google.com/maps/place/?q=place_id:ChIJ-yTdav7RcmsRjJIzo8o-Qjg"
  },
  {
    "name": "Kanwal Meat Market",
    "address": "258 Wallarah Rd, Kanwal NSW 2259, Australia",
    "suburb": "Kanwal NSW 2259",
    "state": "NSW",
    "rating": 4.6,
    "reviews": 52,
    "lat": -33.2539818,
    "lng": 151.4931472,
    "place_id": "ChIJ6wsCBo3QcmsRxXFUYrwX4Po",
    "maps_url": "https://www.google.com/maps/place/?q=place_id:ChIJ6wsCBo3QcmsRxXFUYrwX4Po"
  },
  {
    "name": "Healthy Meat",
    "address": "23 Waratah Ave, Woy Woy NSW 2256, Australia",
    "suburb": "Woy Woy NSW 2256",
    "state": "NSW",
    "rating": 5,
    "reviews": 1,
    "lat": -33.4942376,
    "lng": 151.318401,
    "place_id": "ChIJRwIuAt0UxogR_FX8hKSWGUQ",
    "maps_url": "https://www.google.com/maps/place/?q=place_id:ChIJRwIuAt0UxogR_FX8hKSWGUQ"
  },
  {
    "name": "Mad About Meat Butchery",
    "address": "199 Pacific Hwy, Charmhaven NSW 2263, Australia",
    "suburb": "Charmhaven NSW 2263",
    "state": "NSW",
    "rating": 5,
    "reviews": 12,
    "lat": -33.2283173,
    "lng": 151.5034647,
    "place_id": "ChIJhWOW3a3QcmsRQf8krrMr4xU",
    "maps_url": "https://www.google.com/maps/place/?q=place_id:ChIJhWOW3a3QcmsRQf8krrMr4xU"
  },
  {
    "name": "Toukley butchers",
    "address": "298 Main Rd, Toukley NSW 2263, Australia",
    "suburb": "Toukley NSW 2263",
    "state": "NSW",
    "rating": 4.1,
    "reviews": 10,
    "lat": -33.2641129,
    "lng": 151.5441258,
    "place_id": "ChIJJTmW4yvbcmsR0dNiPAlMNHU",
    "maps_url": "https://www.google.com/maps/place/?q=place_id:ChIJJTmW4yvbcmsR0dNiPAlMNHU"
  },
  {
    "name": "Murphy's Quality Butchery",
    "address": "100 Chittaway Bay Road, Chittaway Bay NSW 2261, Australia",
    "suburb": "Chittaway Bay NSW 2261",
    "state": "NSW",
    "rating": 4.5,
    "reviews": 49,
    "lat": -33.3271382,
    "lng": 151.4289863,
    "place_id": "ChIJg_km0nzOcmsR_GFd2F3d1Uc",
    "maps_url": "https://www.google.com/maps/place/?q=place_id:ChIJg_km0nzOcmsR_GFd2F3d1Uc"
  },
  {
    "name": "Green Farm Meat",
    "address": "1/55 Marion St, Harris Park NSW 2150, Australia",
    "suburb": "Harris Park NSW 2150",
    "state": "NSW",
    "rating": 4,
    "reviews": 165,
    "lat": -33.822598,
    "lng": 151.008422,
    "place_id": "ChIJLQQviCOjEmsRjK-gTQspM0Q",
    "maps_url": "https://www.google.com/maps/place/?q=place_id:ChIJLQQviCOjEmsRjK-gTQspM0Q"
  },
  {
    "name": "Desi Kasai",
    "address": "53/A Wigram St, Harris Park NSW 2150, Australia",
    "suburb": "Harris Park NSW 2150",
    "state": "NSW",
    "rating": 3.9,
    "reviews": 458,
    "lat": -33.8223191,
    "lng": 151.0090944,
    "place_id": "ChIJA6cAgyOjEmsR6W2i_liHm6E",
    "maps_url": "https://www.google.com/maps/place/?q=place_id:ChIJA6cAgyOjEmsR6W2i_liHm6E"
  },
  {
    "name": "Pendle Hill Meat Market",
    "address": "142 Bungaree Rd, Pendle Hill NSW 2145, Australia",
    "suburb": "Pendle Hill NSW 2145",
    "state": "NSW",
    "rating": 4.5,
    "reviews": 1000,
    "lat": -33.79862900000001,
    "lng": 150.9582358,
    "place_id": "ChIJV-nJa5yiEmsR1U-4G7173fA",
    "maps_url": "https://www.google.com/maps/place/?q=place_id:ChIJV-nJa5yiEmsR1U-4G7173fA"
  },
  {
    "name": "Bob The Butcher",
    "address": "1/40-46 Alice St, Harris Park NSW 2150, Australia",
    "suburb": "Harris Park NSW 2150",
    "state": "NSW",
    "rating": 4.8,
    "reviews": 47,
    "lat": -33.8208312,
    "lng": 151.0153226,
    "place_id": "ChIJDYTElRe9EmsR9oU9c8KmB7s",
    "maps_url": "https://www.google.com/maps/place/?q=place_id:ChIJDYTElRe9EmsR9oU9c8KmB7s"
  },
  {
    "name": "Victoria Quality Butcher",
    "address": "654 Elizabeth St, Melbourne VIC 3000, Australia",
    "suburb": "Melbourne VIC 3000",
    "state": "VIC",
    "rating": 3.9,
    "reviews": 158,
    "lat": -37.803079,
    "lng": 144.958475,
    "place_id": "ChIJIQTu9TJd1moRRy4UlGtXCkY",
    "maps_url": "https://www.google.com/maps/place/?q=place_id:ChIJIQTu9TJd1moRRy4UlGtXCkY"
  },
  {
    "name": "Kirkpatrick’s Meats",
    "address": "322-326 Coventry St &, Cecil St, South Melbourne VIC 3205, Australia",
    "suburb": "Cecil St",
    "state": "VIC",
    "rating": 4.4,
    "reviews": 33,
    "lat": -37.8324154,
    "lng": 144.9561322,
    "place_id": "ChIJLwWmuf5n1moRvIKCbwJqBE4",
    "maps_url": "https://www.google.com/maps/place/?q=place_id:ChIJLwWmuf5n1moRvIKCbwJqBE4"
  },
  {
    "name": "Madina Halal Meats",
    "address": "755 Sydney Rd, Brunswick VIC 3056, Australia",
    "suburb": "Brunswick VIC 3056",
    "state": "VIC",
    "rating": 4.3,
    "reviews": 418,
    "lat": -37.7591667,
    "lng": 144.9633333,
    "place_id": "ChIJO1-R_FRD1moRrf_dBFGeidY",
    "maps_url": "https://www.google.com/maps/place/?q=place_id:ChIJO1-R_FRD1moRrf_dBFGeidY"
  },
  {
    "name": "Meatsmith - Specialty Butcher & Wine Merchant",
    "address": "273 Smith St, Fitzroy VIC 3065, Australia",
    "suburb": "Fitzroy VIC 3065",
    "state": "VIC",
    "rating": 4.3,
    "reviews": 179,
    "lat": -37.8007248,
    "lng": 144.9838826,
    "place_id": "ChIJ2XXU_R9D1moRP9GERwauy80",
    "maps_url": "https://www.google.com/maps/place/?q=place_id:ChIJ2XXU_R9D1moRP9GERwauy80"
  },
  {
    "name": "Meys Meats - Online Butcher Melbourne",
    "address": "28 Edols St, North Geelong VIC 3214, Australia",
    "suburb": "North Geelong VIC 3214",
    "state": "VIC",
    "rating": 4.8,
    "reviews": 446,
    "lat": -38.1096274,
    "lng": 144.3510236,
    "place_id": "ChIJKWUGAEoX1GoRK_LXht-Cha4",
    "maps_url": "https://www.google.com/maps/place/?q=place_id:ChIJKWUGAEoX1GoRK_LXht-Cha4"
  },
  {
    "name": "Sardes Quality Meats",
    "address": "Shop 10, Queen Victoria Market, Elizabeth St, Melbourne VIC 3000, Australia",
    "suburb": "Queen Victoria Market",
    "state": "VIC",
    "rating": 4.5,
    "reviews": 54,
    "lat": -37.80652449999999,
    "lng": 144.9592578,
    "place_id": "ChIJyWCwru9d1moRha9wsLeKOfU",
    "maps_url": "https://www.google.com/maps/place/?q=place_id:ChIJyWCwru9d1moRha9wsLeKOfU"
  },
  {
    "name": "Grange Meat Co",
    "address": "178 Grange Rd, Alphington VIC 3078, Australia",
    "suburb": "Alphington VIC 3078",
    "state": "VIC",
    "rating": 4.9,
    "reviews": 187,
    "lat": -37.76909850000001,
    "lng": 145.0271433,
    "place_id": "ChIJkdOqXiFD1moRndtzsZTlCpA",
    "maps_url": "https://www.google.com/maps/place/?q=place_id:ChIJkdOqXiFD1moRndtzsZTlCpA"
  },
  {
    "name": "Butchers Diner",
    "address": "10 Bourke St, Melbourne VIC 3000, Australia",
    "suburb": "Melbourne VIC 3000",
    "state": "VIC",
    "rating": 4.5,
    "reviews": 1900,
    "lat": -37.81128959999999,
    "lng": 144.9725742,
    "place_id": "ChIJVePWBsZC1moR67oZW_aUbmA",
    "maps_url": "https://www.google.com/maps/place/?q=place_id:ChIJVePWBsZC1moR67oZW_aUbmA"
  },
  {
    "name": "Hagen's Organics",
    "address": "16/513 Elizabeth St, Melbourne VIC 3000, Australia",
    "suburb": "Melbourne VIC 3000",
    "state": "VIC",
    "rating": 4.4,
    "reviews": 25,
    "lat": -37.8065319,
    "lng": 144.958794,
    "place_id": "ChIJ-5CgnjRd1moRAV60US7jl8E",
    "maps_url": "https://www.google.com/maps/place/?q=place_id:ChIJ-5CgnjRd1moRAV60US7jl8E"
  },
  {
    "name": "Mathews Artisan Butchers",
    "address": "308 Racecourse Rd, Flemington VIC 3031, Australia",
    "suburb": "Flemington VIC 3031",
    "state": "VIC",
    "rating": 4.9,
    "reviews": 115,
    "lat": -37.7880542,
    "lng": 144.9302573,
    "place_id": "ChIJQx-pcRtd1moRd2R1p9Wv820",
    "maps_url": "https://www.google.com/maps/place/?q=place_id:ChIJQx-pcRtd1moRd2R1p9Wv820"
  },
  {
    "name": "Butcher's Prime Restaurant",
    "address": "42 Newquay Promenade, Docklands VIC 3008, Australia",
    "suburb": "Docklands VIC 3008",
    "state": "VIC",
    "rating": 4.7,
    "reviews": 1617,
    "lat": -37.8147663,
    "lng": 144.941885,
    "place_id": "ChIJyVNNuN1d1moRQJGywMs4Zjc",
    "maps_url": "https://www.google.com/maps/place/?q=place_id:ChIJyVNNuN1d1moRQJGywMs4Zjc"
  },
  {
    "name": "Ralph's Meat Company",
    "address": "Coventry St, South Melbourne VIC 3205, Australia",
    "suburb": "South Melbourne VIC 3205",
    "state": "VIC",
    "rating": 4.7,
    "reviews": 35,
    "lat": -37.8324758,
    "lng": 144.9561654,
    "place_id": "ChIJl6lmsP5n1moRORvOV0fWIjo",
    "maps_url": "https://www.google.com/maps/place/?q=place_id:ChIJl6lmsP5n1moRORvOV0fWIjo"
  },
  {
    "name": "Alec Watson & Son Butchers",
    "address": "Queen Victoria Market, Shop 41, Meat & Fish Hall, 513 Elizabeth Street Melbourne VIC 3000, Australia, Oct 21, Melbourne VIC 3000, Australia",
    "suburb": "Shop 41",
    "state": "VIC",
    "rating": 4.4,
    "reviews": 11,
    "lat": -37.8069124,
    "lng": 144.958812,
    "place_id": "ChIJ9--dk3xd1moRq9ldXTfBLY4",
    "maps_url": "https://www.google.com/maps/place/?q=place_id:ChIJ9--dk3xd1moRq9ldXTfBLY4"
  },
  {
    "name": "Old Style Butchers Williamstown",
    "address": "66 Ferguson St, Williamstown VIC 3016, Australia",
    "suburb": "Williamstown VIC 3016",
    "state": "VIC",
    "rating": 4.9,
    "reviews": 112,
    "lat": -37.8588172,
    "lng": 144.8985166,
    "place_id": "ChIJxbZGBelm1moRISRnSo91rfU",
    "maps_url": "https://www.google.com/maps/place/?q=place_id:ChIJxbZGBelm1moRISRnSo91rfU"
  },
  {
    "name": "G.McBean Family Butcher",
    "address": "501/163 Commercial Rd, South Yarra VIC 3141, Australia",
    "suburb": "South Yarra VIC 3141",
    "state": "VIC",
    "rating": 4.6,
    "reviews": 95,
    "lat": -37.84600229999999,
    "lng": 144.992213,
    "place_id": "ChIJq6qqqp1C1moR4pjp4SnGbFo",
    "maps_url": "https://www.google.com/maps/place/?q=place_id:ChIJq6qqqp1C1moR4pjp4SnGbFo"
  },
  {
    "name": "Yarraville Village Old Style Butchers",
    "address": "23 Anderson St, Yarraville VIC 3013, Australia",
    "suburb": "Yarraville VIC 3013",
    "state": "VIC",
    "rating": 4.7,
    "reviews": 128,
    "lat": -37.8169127,
    "lng": 144.8913888,
    "place_id": "ChIJUWa8PkNn1moRFubFNU9KNzY",
    "maps_url": "https://www.google.com/maps/place/?q=place_id:ChIJUWa8PkNn1moRFubFNU9KNzY"
  },
  {
    "name": "Istanbul Meats",
    "address": "609 Sydney Rd, Brunswick VIC 3056, Australia",
    "suburb": "Brunswick VIC 3056",
    "state": "VIC",
    "rating": 4.4,
    "reviews": 83,
    "lat": -37.7628123,
    "lng": 144.9625895,
    "place_id": "ChIJQ1l9F1ND1moR_nTFazjfETA",
    "maps_url": "https://www.google.com/maps/place/?q=place_id:ChIJQ1l9F1ND1moR_nTFazjfETA"
  },
  {
    "name": "Neil's Meats",
    "address": "SHOP 506/163 Commercial Rd, South Yarra VIC 3141, Australia",
    "suburb": "South Yarra VIC 3141",
    "state": "VIC",
    "rating": 4.6,
    "reviews": 36,
    "lat": -37.846461,
    "lng": 144.992201,
    "place_id": "ChIJP1D9zSVo1moRavQxBGwlNKk",
    "maps_url": "https://www.google.com/maps/place/?q=place_id:ChIJP1D9zSVo1moRavQxBGwlNKk"
  },
  {
    "name": "Meatwell",
    "address": "Shop 12/90-106 Sydney Rd, Brunswick VIC 3056, Australia",
    "suburb": "Brunswick VIC 3056",
    "state": "VIC",
    "rating": 4.3,
    "reviews": 66,
    "lat": -37.775728,
    "lng": 144.9624331,
    "place_id": "ChIJzX925kdD1moRsTwmtkZgt2o",
    "maps_url": "https://www.google.com/maps/place/?q=place_id:ChIJzX925kdD1moRsTwmtkZgt2o"
  },
  {
    "name": "Peter Bouchier Toorak",
    "address": "551 Malvern Rd, Toorak VIC 3142, Australia",
    "suburb": "Toorak VIC 3142",
    "state": "VIC",
    "rating": 4.4,
    "reviews": 77,
    "lat": -37.848135,
    "lng": 145.0047402,
    "place_id": "ChIJ26WDs4lq1moRbC_9Hqw29tA",
    "maps_url": "https://www.google.com/maps/place/?q=place_id:ChIJ26WDs4lq1moRbC_9Hqw29tA"
  },
  {
    "name": "East Geelong's Quality Butcher",
    "address": "24 Boundary Rd, East Geelong VIC 3219, Australia",
    "suburb": "East Geelong VIC 3219",
    "state": "VIC",
    "rating": 4.9,
    "reviews": 73,
    "lat": -38.1593713,
    "lng": 144.3859453,
    "place_id": "ChIJNeqePSwU1GoRYtpdQ88RSSw",
    "maps_url": "https://www.google.com/maps/place/?q=place_id:ChIJNeqePSwU1GoRYtpdQ88RSSw"
  },
  {
    "name": "Siketa Meats & Deli",
    "address": "37 Hughes St, Bell Park VIC 3215, Australia",
    "suburb": "Bell Park VIC 3215",
    "state": "VIC",
    "rating": 4.7,
    "reviews": 185,
    "lat": -38.1112516,
    "lng": 144.3342872,
    "place_id": "ChIJO7dzQDoR1GoRAPjvj7zlrDE",
    "maps_url": "https://www.google.com/maps/place/?q=place_id:ChIJO7dzQDoR1GoRAPjvj7zlrDE"
  },
  {
    "name": "A Cut Above Family Butcher",
    "address": "Shop 58, Corio VIC 3214, Australia",
    "suburb": "Corio VIC 3214",
    "state": "VIC",
    "rating": 4.7,
    "reviews": 108,
    "lat": -38.0745794,
    "lng": 144.3570095,
    "place_id": "ChIJsVxjSkUX1GoRl1QWX17ltsY",
    "maps_url": "https://www.google.com/maps/place/?q=place_id:ChIJsVxjSkUX1GoRl1QWX17ltsY"
  },
  {
    "name": "Heritage Meats",
    "address": "200 Pakington St, Geelong West VIC 3218, Australia",
    "suburb": "Geelong West VIC 3218",
    "state": "VIC",
    "rating": 4.6,
    "reviews": 29,
    "lat": -38.1417807,
    "lng": 144.348308,
    "place_id": "ChIJS2euQQAU1GoRVphToMlrmdA",
    "maps_url": "https://www.google.com/maps/place/?q=place_id:ChIJS2euQQAU1GoRVphToMlrmdA"
  },
  {
    "name": "Grovedale Quality Meats",
    "address": "13 Peter St, Grovedale VIC 3216, Australia",
    "suburb": "Grovedale VIC 3216",
    "state": "VIC",
    "rating": 4.8,
    "reviews": 88,
    "lat": -38.206301,
    "lng": 144.3383813,
    "place_id": "ChIJk_RBgFET1GoRdJELPPp7EdQ",
    "maps_url": "https://www.google.com/maps/place/?q=place_id:ChIJk_RBgFET1GoRdJELPPp7EdQ"
  },
  {
    "name": "Enzo At Penny's",
    "address": "17 Stinton Ave, Newtown VIC 3220, Australia",
    "suburb": "Newtown VIC 3220",
    "state": "VIC",
    "rating": 4.9,
    "reviews": 30,
    "lat": -38.1554241,
    "lng": 144.3360832,
    "place_id": "ChIJ55GbWY0T1GoRJ_DX0mBoTEw",
    "maps_url": "https://www.google.com/maps/place/?q=place_id:ChIJ55GbWY0T1GoRJ_DX0mBoTEw"
  },
  {
    "name": "Goodall's Quality Meats",
    "address": "89 Vines Rd, Hamlyn Heights VIC 3215, Australia",
    "suburb": "Hamlyn Heights VIC 3215",
    "state": "VIC",
    "rating": 4.5,
    "reviews": 75,
    "lat": -38.1209894,
    "lng": 144.32842,
    "place_id": "ChIJoXOEsEMR1GoR1BDOXKoAdrA",
    "maps_url": "https://www.google.com/maps/place/?q=place_id:ChIJoXOEsEMR1GoR1BDOXKoAdrA"
  },
  {
    "name": "Ber's Butcher",
    "address": "shop 1/95-103 Pakington St, Geelong West VIC 3218, Australia",
    "suburb": "Geelong West VIC 3218",
    "state": "VIC",
    "rating": 2.8,
    "reviews": 30,
    "lat": -38.1373282,
    "lng": 144.3480109,
    "place_id": "ChIJIYe-O6sW1GoRESbeZsYoyto",
    "maps_url": "https://www.google.com/maps/place/?q=place_id:ChIJIYe-O6sW1GoRESbeZsYoyto"
  },
  {
    "name": "Sinclair Meats",
    "address": "828 La Trobe St, Delacombe VIC 3356, Australia",
    "suburb": "Delacombe VIC 3356",
    "state": "VIC",
    "rating": 4.7,
    "reviews": 412,
    "lat": -37.57127759999999,
    "lng": 143.8256763,
    "place_id": "ChIJP97AwqBE0WoRRN1tmU4CEaI",
    "maps_url": "https://www.google.com/maps/place/?q=place_id:ChIJP97AwqBE0WoRRN1tmU4CEaI"
  },
  {
    "name": "My Butcher Super Store",
    "address": "79-81 Curtis St, Ballarat Central VIC 3350, Australia",
    "suburb": "Ballarat Central VIC 3350",
    "state": "VIC",
    "rating": 4.4,
    "reviews": 116,
    "lat": -37.561811,
    "lng": 143.863717,
    "place_id": "ChIJJTMYkFVE0WoR2G856q8TwMQ",
    "maps_url": "https://www.google.com/maps/place/?q=place_id:ChIJJTMYkFVE0WoR2G856q8TwMQ"
  },
  {
    "name": "John Harbour Quality Butcher",
    "address": "615 Lydiard St N, Soldiers Hill VIC 3350, Australia",
    "suburb": "Soldiers Hill VIC 3350",
    "state": "VIC",
    "rating": 4.6,
    "reviews": 90,
    "lat": -37.5472471,
    "lng": 143.8602436,
    "place_id": "ChIJAe1KNUlE0WoR2hEBDsONRYo",
    "maps_url": "https://www.google.com/maps/place/?q=place_id:ChIJAe1KNUlE0WoR2hEBDsONRYo"
  },
  {
    "name": "Ballarat Meat Co.",
    "address": "11 Neerim Cres, Mitchell Park VIC 3355, Australia",
    "suburb": "Mitchell Park VIC 3355",
    "state": "VIC",
    "rating": 5,
    "reviews": 16,
    "lat": -37.51781690000001,
    "lng": 143.8062508,
    "place_id": "ChIJ1caEQelD0WoRMb1VA4a-LIo",
    "maps_url": "https://www.google.com/maps/place/?q=place_id:ChIJ1caEQelD0WoRMb1VA4a-LIo"
  },
  {
    "name": "Weightmans Meats",
    "address": "207 Humffray St N, Ballarat East VIC 3350, Australia",
    "suburb": "Ballarat East VIC 3350",
    "state": "VIC",
    "rating": 4.9,
    "reviews": 50,
    "lat": -37.5561269,
    "lng": 143.876855,
    "place_id": "ChIJw8vMZ7BF0WoRcC9cNktXsFc",
    "maps_url": "https://www.google.com/maps/place/?q=place_id:ChIJw8vMZ7BF0WoRcC9cNktXsFc"
  },
  {
    "name": "Davis Wholesale Meat & Poultry",
    "address": "1 Wiltshire Ln, Delacombe VIC 3356, Australia",
    "suburb": "Delacombe VIC 3356",
    "state": "VIC",
    "rating": 4.7,
    "reviews": 63,
    "lat": -37.5710149,
    "lng": 143.8110594,
    "place_id": "ChIJQ4CedUVD0WoROKlBYStsjHU",
    "maps_url": "https://www.google.com/maps/place/?q=place_id:ChIJQ4CedUVD0WoROKlBYStsjHU"
  },
  {
    "name": "The Butcher Club",
    "address": "315 Glenelg Hwy, Delacombe VIC 3356, Australia",
    "suburb": "Delacombe VIC 3356",
    "state": "VIC",
    "rating": 3.8,
    "reviews": 60,
    "lat": -37.5920561,
    "lng": 143.8041531,
    "place_id": "ChIJa_ezyIdd0WoR4z-1W8eVaZE",
    "maps_url": "https://www.google.com/maps/place/?q=place_id:ChIJa_ezyIdd0WoR4z-1W8eVaZE"
  },
  {
    "name": "Midvale Quality Meats PTY Ltd.",
    "address": "10/1174 Geelong Rd, Canadian VIC 3350, Australia",
    "suburb": "Canadian VIC 3350",
    "state": "VIC",
    "rating": 4.8,
    "reviews": 31,
    "lat": -37.60281810000001,
    "lng": 143.8678895,
    "place_id": "ChIJXcY1bdVa0WoR6u4NCooRVc0",
    "maps_url": "https://www.google.com/maps/place/?q=place_id:ChIJXcY1bdVa0WoR6u4NCooRVc0"
  },
  {
    "name": "Quality Butcher",
    "address": "25 Cuthberts Rd, Alfredton VIC 3350, Australia",
    "suburb": "Alfredton VIC 3350",
    "state": "VIC",
    "rating": 4.8,
    "reviews": 11,
    "lat": -37.5551539,
    "lng": 143.8096463,
    "place_id": "ChIJv4Cg-W5D0WoRkAIhiN87cCk",
    "maps_url": "https://www.google.com/maps/place/?q=place_id:ChIJv4Cg-W5D0WoRkAIhiN87cCk"
  },
  {
    "name": "Dukaan",
    "address": "40 Mair St E, Ballarat Central VIC 3350, Australia",
    "suburb": "Ballarat Central VIC 3350",
    "state": "VIC",
    "rating": 4.4,
    "reviews": 45,
    "lat": -37.5606277,
    "lng": 143.8636642,
    "place_id": "ChIJD_5oGohF0WoRCJ5OC5QV3R0",
    "maps_url": "https://www.google.com/maps/place/?q=place_id:ChIJD_5oGohF0WoRCJ5OC5QV3R0"
  },
  {
    "name": "Buninyong Butcher",
    "address": "405 Warrenheip St, Buninyong VIC 3357, Australia",
    "suburb": "Buninyong VIC 3357",
    "state": "VIC",
    "rating": 5,
    "reviews": 15,
    "lat": -37.6485165,
    "lng": 143.8849082,
    "place_id": "ChIJq35iMplb0WoRTkCjqfzAHpg",
    "maps_url": "https://www.google.com/maps/place/?q=place_id:ChIJq35iMplb0WoRTkCjqfzAHpg"
  },
  {
    "name": "Wendouree Wholesalers",
    "address": "28 Laidlaw Dr, Delacombe VIC 3356, Australia",
    "suburb": "Delacombe VIC 3356",
    "state": "VIC",
    "rating": 4.8,
    "reviews": 32,
    "lat": -37.5765738,
    "lng": 143.8231023,
    "place_id": "ChIJCbJp5VdD0WoRmmwfDIMEsI4",
    "maps_url": "https://www.google.com/maps/place/?q=place_id:ChIJCbJp5VdD0WoRmmwfDIMEsI4"
  },
  {
    "name": "Ringin's Butchery",
    "address": "212 Albert St, Sebastopol VIC 3356, Australia",
    "suburb": "Sebastopol VIC 3356",
    "state": "VIC",
    "rating": 4.5,
    "reviews": 41,
    "lat": -37.59935290000001,
    "lng": 143.8408541,
    "place_id": "ChIJKWgJxkhb0WoRm1QBn0Nvqws",
    "maps_url": "https://www.google.com/maps/place/?q=place_id:ChIJKWgJxkhb0WoRm1QBn0Nvqws"
  },
  {
    "name": "Strath Hill Butcher",
    "address": "Shop 8 Strath Hill Shopping Centre, 98 Edwards Rd, Kennington VIC 3550, Australia",
    "suburb": "98 Edwards Rd",
    "state": "VIC",
    "rating": 5,
    "reviews": 20,
    "lat": -36.7726641,
    "lng": 144.3050847,
    "place_id": "ChIJqSm8IFRZ12oRzCWusQ3u2W0",
    "maps_url": "https://www.google.com/maps/place/?q=place_id:ChIJqSm8IFRZ12oRzCWusQ3u2W0"
  },
  {
    "name": "Flora Hill Quality Meats",
    "address": "15 Retreat Rd, Flora Hill VIC 3550, Australia",
    "suburb": "Flora Hill VIC 3550",
    "state": "VIC",
    "rating": 4.7,
    "reviews": 79,
    "lat": -36.7793114,
    "lng": 144.2880538,
    "place_id": "ChIJbdnoHyRa12oReZscwqBYoL4",
    "maps_url": "https://www.google.com/maps/place/?q=place_id:ChIJbdnoHyRa12oReZscwqBYoL4"
  },
  {
    "name": "Meats on Mitchell",
    "address": "159 Mitchell St, Bendigo VIC 3550, Australia",
    "suburb": "Bendigo VIC 3550",
    "state": "VIC",
    "rating": 4.7,
    "reviews": 84,
    "lat": -36.7683236,
    "lng": 144.2860827,
    "place_id": "ChIJaYdyGYxZ12oRyh3aZ689zwE",
    "maps_url": "https://www.google.com/maps/place/?q=place_id:ChIJaYdyGYxZ12oRyh3aZ689zwE"
  },
  {
    "name": "Central Vic Meats",
    "address": "10 Mcdowalls Rd, East Bendigo VIC 3550, Australia",
    "suburb": "East Bendigo VIC 3550",
    "state": "VIC",
    "rating": 4.7,
    "reviews": 55,
    "lat": -36.7488125,
    "lng": 144.3189934,
    "place_id": "ChIJ6cniaeJY12oRhuRg5VkBy38",
    "maps_url": "https://www.google.com/maps/place/?q=place_id:ChIJ6cniaeJY12oRhuRg5VkBy38"
  },
  {
    "name": "Meat Matters",
    "address": "74 High St, Eaglehawk VIC 3556, Australia",
    "suburb": "Eaglehawk VIC 3556",
    "state": "VIC",
    "rating": 4.9,
    "reviews": 59,
    "lat": -36.7191857,
    "lng": 144.2542504,
    "place_id": "ChIJ-6s7mYZX12oRz2S3F7FKhA8",
    "maps_url": "https://www.google.com/maps/place/?q=place_id:ChIJ-6s7mYZX12oRz2S3F7FKhA8"
  },
  {
    "name": "The Erindale Farm Butchery",
    "address": "6/295 Lyttleton Terrace, Bendigo VIC 3550, Australia",
    "suburb": "Bendigo VIC 3550",
    "state": "VIC",
    "rating": 3.8,
    "reviews": 30,
    "lat": -36.7614494,
    "lng": 144.2821796,
    "place_id": "ChIJ1zRfwZJZ12oRehCi1n2Rx7Y",
    "maps_url": "https://www.google.com/maps/place/?q=place_id:ChIJ1zRfwZJZ12oRehCi1n2Rx7Y"
  },
  {
    "name": "Top Paddock Meat & More",
    "address": "509a Napier St, White Hills VIC 3550, Australia",
    "suburb": "White Hills VIC 3550",
    "state": "VIC",
    "rating": 4.9,
    "reviews": 32,
    "lat": -36.7285935,
    "lng": 144.3067505,
    "place_id": "ChIJB_TSPPRY12oRmR8prYyl6r8",
    "maps_url": "https://www.google.com/maps/place/?q=place_id:ChIJB_TSPPRY12oRmR8prYyl6r8"
  },
  {
    "name": "Planty's Prime Meat",
    "address": "138 High St, Kangaroo Flat VIC 3555, Australia",
    "suburb": "Kangaroo Flat VIC 3555",
    "state": "VIC",
    "rating": 5,
    "reviews": 21,
    "lat": -36.7962718,
    "lng": 144.2438642,
    "place_id": "ChIJy13U74lQ12oRvhEtPMs1mgY",
    "maps_url": "https://www.google.com/maps/place/?q=place_id:ChIJy13U74lQ12oRvhEtPMs1mgY"
  },
  {
    "name": "Sandhurst Butcher Supplies & Home Brew",
    "address": "46 Bridge St, Bendigo VIC 3550, Australia",
    "suburb": "Bendigo VIC 3550",
    "state": "VIC",
    "rating": 4.8,
    "reviews": 106,
    "lat": -36.7521598,
    "lng": 144.2842705,
    "place_id": "ChIJ8yQQVr5Z12oRwiihBQtPG6g",
    "maps_url": "https://www.google.com/maps/place/?q=place_id:ChIJ8yQQVr5Z12oRwiihBQtPG6g"
  },
  {
    "name": "Amin's Halal Butcher and Grill",
    "address": "69 Vulture St, West End QLD 4101, Australia",
    "suburb": "West End QLD 4101",
    "state": "QLD",
    "rating": 4.6,
    "reviews": 877,
    "lat": -27.480962,
    "lng": 153.0107342,
    "place_id": "ChIJNbl_cfRRkWsRuafsZ7LhmBc",
    "maps_url": "https://www.google.com/maps/place/?q=place_id:ChIJNbl_cfRRkWsRuafsZ7LhmBc"
  },
  {
    "name": "Super Butcher Eagle Farm",
    "address": "18 Eagleview Pl, Eagle Farm QLD 4009, Australia",
    "suburb": "Eagle Farm QLD 4009",
    "state": "QLD",
    "rating": 4.7,
    "reviews": 570,
    "lat": -27.436138,
    "lng": 153.0853103,
    "place_id": "ChIJqdlAZB9ZkWsRV-Rnmayu-QI",
    "maps_url": "https://www.google.com/maps/place/?q=place_id:ChIJqdlAZB9ZkWsRV-Rnmayu-QI"
  },
  {
    "name": "Rode Meats",
    "address": "269 Appleby Rd, Stafford Heights QLD 4053, Australia",
    "suburb": "Stafford Heights QLD 4053",
    "state": "QLD",
    "rating": 4.8,
    "reviews": 365,
    "lat": -27.3918526,
    "lng": 153.0122282,
    "place_id": "ChIJ1WTXS_RXkWsRV5ZVXyFjSJk",
    "maps_url": "https://www.google.com/maps/place/?q=place_id:ChIJ1WTXS_RXkWsRV5ZVXyFjSJk"
  },
  {
    "name": "The Butcher Shoppe",
    "address": "Cannon Central Shopping Centre, SHOP 31/1145 Wynnum Rd, Cannon Hill QLD 4170, Australia",
    "suburb": "SHOP 31/1145 Wynnum Rd",
    "state": "QLD",
    "rating": 4.6,
    "reviews": 423,
    "lat": -27.4715135,
    "lng": 153.0998267,
    "place_id": "ChIJd7Lq-1BZkWsRaNXV8SqACag",
    "maps_url": "https://www.google.com/maps/place/?q=place_id:ChIJd7Lq-1BZkWsRaNXV8SqACag"
  },
  {
    "name": "Meat At Billy's - Ashgrove",
    "address": "241 Waterworks Rd, Ashgrove QLD 4060, Australia",
    "suburb": "Ashgrove QLD 4060",
    "state": "QLD",
    "rating": 4.8,
    "reviews": 192,
    "lat": -27.4453559,
    "lng": 152.9925506,
    "place_id": "ChIJJXTZ50dXkWsRmhs1MX0aHJ4",
    "maps_url": "https://www.google.com/maps/place/?q=place_id:ChIJJXTZ50dXkWsRmhs1MX0aHJ4"
  },
  {
    "name": "Rock n Roll Butcher Greenslopes - Wholesale Bulk Meat Brisbane",
    "address": "500 Logan Rd, Greenslopes QLD 4120, Australia",
    "suburb": "Greenslopes QLD 4120",
    "state": "QLD",
    "rating": 4.4,
    "reviews": 133,
    "lat": -27.5046378,
    "lng": 153.0482411,
    "place_id": "ChIJW21qRVpakWsR3yGVsqVq8I4",
    "maps_url": "https://www.google.com/maps/place/?q=place_id:ChIJW21qRVpakWsR3yGVsqVq8I4"
  },
  {
    "name": "Meat at Billy's Woolloongabba",
    "address": "Shop PS01A/148 Logan Rd, Woolloongabba QLD 4102, Australia",
    "suburb": "Woolloongabba QLD 4102",
    "state": "QLD",
    "rating": 4.9,
    "reviews": 19,
    "lat": -27.4930077,
    "lng": 153.0417817,
    "place_id": "ChIJXxr5IGhbkWsRUUZYRfNZGbg",
    "maps_url": "https://www.google.com/maps/place/?q=place_id:ChIJXxr5IGhbkWsRUUZYRfNZGbg"
  },
  {
    "name": "Gordon and Luxton Gourmet Butcher",
    "address": "2/365 Honour Ave, Graceville QLD 4075, Australia",
    "suburb": "Graceville QLD 4075",
    "state": "QLD",
    "rating": 4.8,
    "reviews": 47,
    "lat": -27.5215545,
    "lng": 152.9756539,
    "place_id": "ChIJ_a4Y8TZQkWsRk8zTV_LOTuo",
    "maps_url": "https://www.google.com/maps/place/?q=place_id:ChIJ_a4Y8TZQkWsRk8zTV_LOTuo"
  },
  {
    "name": "Annerley Meats",
    "address": "502 Ipswich Rd, Annerley QLD 4103, Australia",
    "suburb": "Annerley QLD 4103",
    "state": "QLD",
    "rating": 4.9,
    "reviews": 90,
    "lat": -27.5112636,
    "lng": 153.0321898,
    "place_id": "ChIJFabQgYlakWsR4VOadCRwJ8c",
    "maps_url": "https://www.google.com/maps/place/?q=place_id:ChIJFabQgYlakWsR4VOadCRwJ8c"
  },
  {
    "name": "Meat At Billy's - Rosalie",
    "address": "3/155 Baroona Rd, Paddington QLD 4064, Australia",
    "suburb": "Paddington QLD 4064",
    "state": "QLD",
    "rating": 4.7,
    "reviews": 123,
    "lat": -27.466091,
    "lng": 152.9972909,
    "place_id": "ChIJ0SOI1bBQkWsRPm2cyzCEatM",
    "maps_url": "https://www.google.com/maps/place/?q=place_id:ChIJ0SOI1bBQkWsRPm2cyzCEatM"
  },
  {
    "name": "Super Butcher Albany Creek",
    "address": "Shop number 1/700 Albany Creek Rd, Albany Creek QLD 4035, Australia",
    "suburb": "Albany Creek QLD 4035",
    "state": "QLD",
    "rating": 4.7,
    "reviews": 281,
    "lat": -27.3462394,
    "lng": 152.9694213,
    "place_id": "ChIJBR88XuP9k2sRmCMrgxCQ6tY",
    "maps_url": "https://www.google.com/maps/place/?q=place_id:ChIJBR88XuP9k2sRmCMrgxCQ6tY"
  },
  {
    "name": "Rayner's Meats",
    "address": "Merthyr Village, 11/85 Merthyr Rd, New Farm QLD 4005, Australia",
    "suburb": "11/85 Merthyr Rd",
    "state": "QLD",
    "rating": 4.8,
    "reviews": 57,
    "lat": -27.4666759,
    "lng": 153.0472987,
    "place_id": "ChIJgwPTxolZkWsRPKQ4q1UrS5g",
    "maps_url": "https://www.google.com/maps/place/?q=place_id:ChIJgwPTxolZkWsRPKQ4q1UrS5g"
  },
  {
    "name": "King Street Meat Co",
    "address": "62 King St, Woody Point QLD 4019, Australia",
    "suburb": "Woody Point QLD 4019",
    "state": "QLD",
    "rating": 4.9,
    "reviews": 82,
    "lat": -27.2502653,
    "lng": 153.1032698,
    "place_id": "ChIJKZwijNnlk2sRZJza-EtVzLo",
    "maps_url": "https://www.google.com/maps/place/?q=place_id:ChIJKZwijNnlk2sRZJza-EtVzLo"
  },
  {
    "name": "G.E. Mallan Bulk Meats",
    "address": "7 Byrnes St, Fairfield QLD 4103, Australia",
    "suburb": "Fairfield QLD 4103",
    "state": "QLD",
    "rating": 4.6,
    "reviews": 82,
    "lat": -27.5111362,
    "lng": 153.0218479,
    "place_id": "ChIJ_-7JvIZakWsRQ_YLmBbJCQI",
    "maps_url": "https://www.google.com/maps/place/?q=place_id:ChIJ_-7JvIZakWsRQ_YLmBbJCQI"
  },
  {
    "name": "Rocklea Meat Market",
    "address": "14/385 Sherwood Rd, Rocklea QLD 4106, Australia",
    "suburb": "Rocklea QLD 4106",
    "state": "QLD",
    "rating": 4.5,
    "reviews": 93,
    "lat": -27.5363908,
    "lng": 153.0005339,
    "place_id": "ChIJI-QtQBpQkWsRcAfxD-CtE64",
    "maps_url": "https://www.google.com/maps/place/?q=place_id:ChIJI-QtQBpQkWsRcAfxD-CtE64"
  },
  {
    "name": "Moey's Butcher",
    "address": "17/31 Springfield Lakes Blvd, Springfield Lakes QLD 4300, Australia",
    "suburb": "Springfield Lakes QLD 4300",
    "state": "QLD",
    "rating": 4.7,
    "reviews": 233,
    "lat": -27.6680347,
    "lng": 152.9203588,
    "place_id": "ChIJOX-IOVZLkWsRDBbQSRtV2Rg",
    "maps_url": "https://www.google.com/maps/place/?q=place_id:ChIJOX-IOVZLkWsRDBbQSRtV2Rg"
  },
  {
    "name": "Meat You Here",
    "address": "25/700 Logan Rd, Greenslopes QLD 4120, Australia",
    "suburb": "Greenslopes QLD 4120",
    "state": "QLD",
    "rating": 4.3,
    "reviews": 75,
    "lat": -27.5117718,
    "lng": 153.0538058,
    "place_id": "ChIJf7fRSVZakWsRXwiwYoxPvsk",
    "maps_url": "https://www.google.com/maps/place/?q=place_id:ChIJf7fRSVZakWsRXwiwYoxPvsk"
  },
  {
    "name": "Butcher Brothers Brendale",
    "address": "Shop 11/18-22 Kremzow Rd, Brendale QLD 4500, Australia",
    "suburb": "Brendale QLD 4500",
    "state": "QLD",
    "rating": 4.9,
    "reviews": 31,
    "lat": -27.3176397,
    "lng": 152.9873453,
    "place_id": "ChIJa2B0z1L9k2sRvyJepCgRsSg",
    "maps_url": "https://www.google.com/maps/place/?q=place_id:ChIJa2B0z1L9k2sRvyJepCgRsSg"
  },
  {
    "name": "The Butcher is the Chef",
    "address": "Shop 1/250 Telegraph Rd, Bracken Ridge QLD 4017, Australia",
    "suburb": "Bracken Ridge QLD 4017",
    "state": "QLD",
    "rating": 4.7,
    "reviews": 95,
    "lat": -27.3298766,
    "lng": 153.0263784,
    "place_id": "ChIJ01oLJybjk2sROI-6sY9-q88",
    "maps_url": "https://www.google.com/maps/place/?q=place_id:ChIJ01oLJybjk2sROI-6sY9-q88"
  },
  {
    "name": "Dylan's Gallery of Meats",
    "address": "2/31 Alexandra Rd, Ascot QLD 4007, Australia",
    "suburb": "Ascot QLD 4007",
    "state": "QLD",
    "rating": 4.6,
    "reviews": 82,
    "lat": -27.4285807,
    "lng": 153.05867,
    "place_id": "ChIJgazvK9tZkWsR6ZfKGzPXvqg",
    "maps_url": "https://www.google.com/maps/place/?q=place_id:ChIJgazvK9tZkWsR6ZfKGzPXvqg"
  },
  {
    "name": "Gold Coast Fresh Meat Centre",
    "address": "64 Hutchinson St, Burleigh Heads QLD 4220, Australia",
    "suburb": "Burleigh Heads QLD 4220",
    "state": "QLD",
    "rating": 4.6,
    "reviews": 273,
    "lat": -28.1112529,
    "lng": 153.4175012,
    "place_id": "ChIJk3pDghsDkWsRW9prHHD4lCk",
    "maps_url": "https://www.google.com/maps/place/?q=place_id:ChIJk3pDghsDkWsRW9prHHD4lCk"
  },
  {
    "name": "Super Butcher Runaway Bay",
    "address": "10-12 Lae Dr, Runaway Bay QLD 4216, Australia",
    "suburb": "Runaway Bay QLD 4216",
    "state": "QLD",
    "rating": 5,
    "reviews": 605,
    "lat": -27.9125307,
    "lng": 153.4002796,
    "place_id": "ChIJR0LnJDoPkWsRWFRoKHC65tY",
    "maps_url": "https://www.google.com/maps/place/?q=place_id:ChIJR0LnJDoPkWsRWFRoKHC65tY"
  },
  {
    "name": "The Meat Hub Gold Coast",
    "address": "1 Resources Ct, Molendinar QLD 4214, Australia",
    "suburb": "Molendinar QLD 4214",
    "state": "QLD",
    "rating": 4.6,
    "reviews": 702,
    "lat": -27.9783733,
    "lng": 153.3568252,
    "place_id": "ChIJM8XSuhsbkWsRFufkbXLq60s",
    "maps_url": "https://www.google.com/maps/place/?q=place_id:ChIJM8XSuhsbkWsRFufkbXLq60s"
  },
  {
    "name": "Super Butcher Southport",
    "address": "Shop 10/201 Ferry Rd, Southport QLD 4215, Australia",
    "suburb": "Southport QLD 4215",
    "state": "QLD",
    "rating": 4.8,
    "reviews": 231,
    "lat": -27.9905961,
    "lng": 153.4115984,
    "place_id": "ChIJGbfMjWAFkWsRrAgf85ccKNo",
    "maps_url": "https://www.google.com/maps/place/?q=place_id:ChIJGbfMjWAFkWsRrAgf85ccKNo"
  },
  {
    "name": "Super Butcher Mermaid Beach",
    "address": "2382 Gold Coast Hwy, Mermaid Beach QLD 4218, Australia",
    "suburb": "Mermaid Beach QLD 4218",
    "state": "QLD",
    "rating": 4.8,
    "reviews": 223,
    "lat": -28.0492993,
    "lng": 153.4358101,
    "place_id": "ChIJh9bv4yQFkWsRpRw3IZf2SEk",
    "maps_url": "https://www.google.com/maps/place/?q=place_id:ChIJh9bv4yQFkWsRpRw3IZf2SEk"
  },
  {
    "name": "Super Butcher Ashmore",
    "address": "3/16 Central Park Ave, Ashmore QLD 4214, Australia",
    "suburb": "Ashmore QLD 4214",
    "state": "QLD",
    "rating": 4.8,
    "reviews": 373,
    "lat": -27.9874922,
    "lng": 153.3604314,
    "place_id": "ChIJEdWUL8AakWsRXutbIqQGCEw",
    "maps_url": "https://www.google.com/maps/place/?q=place_id:ChIJEdWUL8AakWsRXutbIqQGCEw"
  },
  {
    "name": "Bermuda Butchery",
    "address": "C5 Allandale Entrance, Mermaid Waters QLD 4218, Australia",
    "suburb": "Mermaid Waters QLD 4218",
    "state": "QLD",
    "rating": 4.8,
    "reviews": 560,
    "lat": -28.0457794,
    "lng": 153.4078828,
    "place_id": "ChIJwQUvF7kEkWsRk7VSP-i81Fc",
    "maps_url": "https://www.google.com/maps/place/?q=place_id:ChIJwQUvF7kEkWsRk7VSP-i81Fc"
  },
  {
    "name": "Bowie Meat & Co.",
    "address": "The Kitchens, 4240/19 Robina Town Centre Dr, Robina QLD 4226, Australia",
    "suburb": "4240/19 Robina Town Centre Dr",
    "state": "QLD",
    "rating": 4.9,
    "reviews": 136,
    "lat": -28.077307,
    "lng": 153.3853076,
    "place_id": "ChIJn1Ii7K8dkWsReQqZG2vD-BU",
    "maps_url": "https://www.google.com/maps/place/?q=place_id:ChIJn1Ii7K8dkWsReQqZG2vD-BU"
  },
  {
    "name": "Super Butcher",
    "address": "1 Cottonwood Pl, Oxenford QLD 4210, Australia",
    "suburb": "Oxenford QLD 4210",
    "state": "QLD",
    "rating": 4.5,
    "reviews": 471,
    "lat": -27.8915188,
    "lng": 153.311557,
    "place_id": "ChIJnelkmkcRkWsRifs5WdUTVCg",
    "maps_url": "https://www.google.com/maps/place/?q=place_id:ChIJnelkmkcRkWsRifs5WdUTVCg"
  },
  {
    "name": "Gold Coast Halal Meats",
    "address": "7/9 Brown St, Labrador QLD 4215, Australia",
    "suburb": "Labrador QLD 4215",
    "state": "QLD",
    "rating": 4.8,
    "reviews": 139,
    "lat": -27.9464973,
    "lng": 153.395141,
    "place_id": "ChIJAf0SPNkPkWsR_c_HLrLg25M",
    "maps_url": "https://www.google.com/maps/place/?q=place_id:ChIJAf0SPNkPkWsR_c_HLrLg25M"
  },
  {
    "name": "Meat on James St.",
    "address": "33 James St, Burleigh Heads QLD 4220, Australia",
    "suburb": "Burleigh Heads QLD 4220",
    "state": "QLD",
    "rating": 4.9,
    "reviews": 59,
    "lat": -28.0891164,
    "lng": 153.4505871,
    "place_id": "ChIJR_yAxegDkWsRnAzks0kSvdk",
    "maps_url": "https://www.google.com/maps/place/?q=place_id:ChIJR_yAxegDkWsRnAzks0kSvdk"
  },
  {
    "name": "Seoul Butchery",
    "address": "Shop2/160 Nerang St, Southport QLD 4215, Australia",
    "suburb": "Southport QLD 4215",
    "state": "QLD",
    "rating": 4.6,
    "reviews": 72,
    "lat": -27.9729643,
    "lng": 153.4051845,
    "place_id": "ChIJwfJaoWsFkWsROxVaCZtGjZ4",
    "maps_url": "https://www.google.com/maps/place/?q=place_id:ChIJwfJaoWsFkWsROxVaCZtGjZ4"
  },
  {
    "name": "Gourmet Meats Gold Coast",
    "address": "Shop3/90 Markeri St, Mermaid Waters QLD 4218, Australia",
    "suburb": "Mermaid Waters QLD 4218",
    "state": "QLD",
    "rating": 4.2,
    "reviews": 56,
    "lat": -28.0488126,
    "lng": 153.4268316,
    "place_id": "ChIJI3OvBogEkWsRvd9pvExPpUg",
    "maps_url": "https://www.google.com/maps/place/?q=place_id:ChIJI3OvBogEkWsRvd9pvExPpUg"
  },
  {
    "name": "Prime Valley Organic Meats | Organic Butcher Gold Coast",
    "address": "13/514 Christine Ave, Robina QLD 4226, Australia",
    "suburb": "Robina QLD 4226",
    "state": "QLD",
    "rating": 4.4,
    "reviews": 47,
    "lat": -28.0853099,
    "lng": 153.3921155,
    "place_id": "ChIJAQw21DQDkWsR4Yvpo0yB8do",
    "maps_url": "https://www.google.com/maps/place/?q=place_id:ChIJAQw21DQDkWsR4Yvpo0yB8do"
  },
  {
    "name": "Gold Coast Organic Meats",
    "address": "10/64 Karbunya St, Mermaid Waters QLD 4218, Australia",
    "suburb": "Mermaid Waters QLD 4218",
    "state": "QLD",
    "rating": 4.7,
    "reviews": 97,
    "lat": -28.0592936,
    "lng": 153.4295198,
    "place_id": "ChIJE9amDYUEkWsRd_oPZCVexIc",
    "maps_url": "https://www.google.com/maps/place/?q=place_id:ChIJE9amDYUEkWsRd_oPZCVexIc"
  },
  {
    "name": "Mabrouk and Sons - Southport",
    "address": "37 Beale St, Southport QLD 4215, Australia",
    "suburb": "Southport QLD 4215",
    "state": "QLD",
    "rating": 4.1,
    "reviews": 214,
    "lat": -27.9642808,
    "lng": 153.4005731,
    "place_id": "ChIJ3-WR1-QPkWsRvxl9Fqwt05g",
    "maps_url": "https://www.google.com/maps/place/?q=place_id:ChIJ3-WR1-QPkWsRvxl9Fqwt05g"
  },
  {
    "name": "G J's Organic Quality Meats",
    "address": "Shop 5/129 Olsen Ave, Labrador QLD 4215, Australia",
    "suburb": "Labrador QLD 4215",
    "state": "QLD",
    "rating": 4.7,
    "reviews": 118,
    "lat": -27.9458509,
    "lng": 153.3865841,
    "place_id": "ChIJH-DJVyEQkWsRbMP83q4TOkw",
    "maps_url": "https://www.google.com/maps/place/?q=place_id:ChIJH-DJVyEQkWsRbMP83q4TOkw"
  },
  {
    "name": "Family Farm Meat Market | Nerang",
    "address": "4 Page Ct, Nerang QLD 4211, Australia",
    "suburb": "Nerang QLD 4211",
    "state": "QLD",
    "rating": 4.4,
    "reviews": 159,
    "lat": -28.0097312,
    "lng": 153.3425566,
    "place_id": "ChIJHVGMO9MbkWsRZKI3GJ4VtT4",
    "maps_url": "https://www.google.com/maps/place/?q=place_id:ChIJHVGMO9MbkWsRZKI3GJ4VtT4"
  },
  {
    "name": "Southern Cross Organic Butchery",
    "address": "106 Alexander Dr, Highland Park QLD 4211, Australia",
    "suburb": "Highland Park QLD 4211",
    "state": "QLD",
    "rating": 4.6,
    "reviews": 181,
    "lat": -28.014178,
    "lng": 153.335363,
    "place_id": "ChIJgQOXygXwkGsR3F_kkXQTjJ8",
    "maps_url": "https://www.google.com/maps/place/?q=place_id:ChIJgQOXygXwkGsR3F_kkXQTjJ8"
  },
  {
    "name": "Bermuda Butchery",
    "address": "5/98 Christine Ave, Burleigh Waters QLD 4220, Australia",
    "suburb": "Burleigh Waters QLD 4220",
    "state": "QLD",
    "rating": 4.8,
    "reviews": 78,
    "lat": -28.080065,
    "lng": 153.4352577,
    "place_id": "ChIJaQFm2nkDkWsRtDBvwBRKcsY",
    "maps_url": "https://www.google.com/maps/place/?q=place_id:ChIJaQFm2nkDkWsRtDBvwBRKcsY"
  },
  {
    "name": "Fresh Meats",
    "address": "86 Wises Rd, Maroochydore QLD 4558, Australia",
    "suburb": "Maroochydore QLD 4558",
    "state": "QLD",
    "rating": 4.2,
    "reviews": 373,
    "lat": -26.671884,
    "lng": 153.086004,
    "place_id": "ChIJ67jcUhV2k2sR9Rp5BbQJAew",
    "maps_url": "https://www.google.com/maps/place/?q=place_id:ChIJ67jcUhV2k2sR9Rp5BbQJAew"
  },
  {
    "name": "Cotton Tree Meats",
    "address": "2/9 King St, Maroochydore QLD 4558, Australia",
    "suburb": "Maroochydore QLD 4558",
    "state": "QLD",
    "rating": 4.3,
    "reviews": 144,
    "lat": -26.6547252,
    "lng": 153.1010244,
    "place_id": "ChIJ42K9o312k2sRt90dBkGLrlg",
    "maps_url": "https://www.google.com/maps/place/?q=place_id:ChIJ42K9o312k2sRt90dBkGLrlg"
  },
  {
    "name": "Boocock's Quality Meats",
    "address": "Shop 30/8 The Avenue, Birtinya QLD 4575, Australia",
    "suburb": "Birtinya QLD 4575",
    "state": "QLD",
    "rating": 4.9,
    "reviews": 120,
    "lat": -26.7399917,
    "lng": 153.1161205,
    "place_id": "ChIJk9ewnFOfk2sR4F1b_Gt37L4",
    "maps_url": "https://www.google.com/maps/place/?q=place_id:ChIJk9ewnFOfk2sR4F1b_Gt37L4"
  },
  {
    "name": "Sunshine Coast Wholesale Meats",
    "address": "11 Birrobeen St, Little Mountain QLD 4551, Australia",
    "suburb": "Little Mountain QLD 4551",
    "state": "QLD",
    "rating": 4.4,
    "reviews": 60,
    "lat": -26.7739564,
    "lng": 153.0992131,
    "place_id": "ChIJ58JYzr-dk2sRki5iY6mYPuk",
    "maps_url": "https://www.google.com/maps/place/?q=place_id:ChIJ58JYzr-dk2sRki5iY6mYPuk"
  },
  {
    "name": "Mick's Meat Barn",
    "address": "181 Nicklin Way, Warana QLD 4575, Australia",
    "suburb": "Warana QLD 4575",
    "state": "QLD",
    "rating": 4.1,
    "reviews": 109,
    "lat": -26.7195628,
    "lng": 153.1301775,
    "place_id": "ChIJSfwi2xWek2sRzVlv_mhDBsE",
    "maps_url": "https://www.google.com/maps/place/?q=place_id:ChIJSfwi2xWek2sRzVlv_mhDBsE"
  },
  {
    "name": "Sunshine Coast Organic Meats",
    "address": "5/330 Mons Rd, Forest Glen QLD 4556, Australia",
    "suburb": "Forest Glen QLD 4556",
    "state": "QLD",
    "rating": 4.5,
    "reviews": 78,
    "lat": -26.6887426,
    "lng": 153.006609,
    "place_id": "ChIJfWXRxa-Ck2sRzMiI-YrKty8",
    "maps_url": "https://www.google.com/maps/place/?q=place_id:ChIJfWXRxa-Ck2sRzMiI-YrKty8"
  },
  {
    "name": "Eumundi Meats",
    "address": "4/59 Rene St, Noosaville QLD 4566, Australia",
    "suburb": "Noosaville QLD 4566",
    "state": "QLD",
    "rating": 4.9,
    "reviews": 164,
    "lat": -26.4178162,
    "lng": 153.0435494,
    "place_id": "ChIJSWSjVslok2sRzVkWF-8X4lk",
    "maps_url": "https://www.google.com/maps/place/?q=place_id:ChIJSWSjVslok2sRzVkWF-8X4lk"
  },
  {
    "name": "Budd's Butchers",
    "address": "Shop 4/21 S Coolum Rd, Coolum Beach QLD 4573, Australia",
    "suburb": "Coolum Beach QLD 4573",
    "state": "QLD",
    "rating": 5,
    "reviews": 41,
    "lat": -26.5390934,
    "lng": 153.0786709,
    "place_id": "ChIJJzG0SMdxk2sRjh3_b-7IEEk",
    "maps_url": "https://www.google.com/maps/place/?q=place_id:ChIJJzG0SMdxk2sRjh3_b-7IEEk"
  },
  {
    "name": "Caloundra Bulk Meats",
    "address": "Factory 1/11 Helen St, Caloundra QLD 4551, Australia",
    "suburb": "Caloundra QLD 4551",
    "state": "QLD",
    "rating": 4.8,
    "reviews": 39,
    "lat": -26.791855,
    "lng": 153.1075927,
    "place_id": "ChIJy7GNlnSZk2sRSbSLURI-x-o",
    "maps_url": "https://www.google.com/maps/place/?q=place_id:ChIJy7GNlnSZk2sRSbSLURI-x-o"
  },
  {
    "name": "Pinnell's Gourmet Meats",
    "address": "12b/1 Ormuz Ave, Caloundra QLD 4551, Australia",
    "suburb": "Caloundra QLD 4551",
    "state": "QLD",
    "rating": 4.8,
    "reviews": 63,
    "lat": -26.8034505,
    "lng": 153.1343864,
    "place_id": "ChIJo2GpQjiZk2sRI2XwsewVTc4",
    "maps_url": "https://www.google.com/maps/place/?q=place_id:ChIJo2GpQjiZk2sRI2XwsewVTc4"
  },
  {
    "name": "Butchers Of Noosa",
    "address": "2 Grasstree Ct, Sunrise Beach QLD 4567, Australia",
    "suburb": "Sunrise Beach QLD 4567",
    "state": "QLD",
    "rating": 5,
    "reviews": 64,
    "lat": -26.4115695,
    "lng": 153.099994,
    "place_id": "ChIJi2aIZKlpk2sRc4s8NiBBSns",
    "maps_url": "https://www.google.com/maps/place/?q=place_id:ChIJi2aIZKlpk2sRc4s8NiBBSns"
  },
  {
    "name": "Mountain Creek Meats",
    "address": "Mountain Creek Shopping Centre, 158-170 Karawatha Dr, Mountain Creek QLD 4557, Australia",
    "suburb": "158-170 Karawatha Dr",
    "state": "QLD",
    "rating": 4.7,
    "reviews": 49,
    "lat": -26.6931224,
    "lng": 153.0913177,
    "place_id": "ChIJxyJpjPWdk2sRrlHQM6yb1LA",
    "maps_url": "https://www.google.com/maps/place/?q=place_id:ChIJxyJpjPWdk2sRrlHQM6yb1LA"
  },
  {
    "name": "Nambour Heights Butchery",
    "address": "125 Nambour - Mapleton Rd, Nambour QLD 4560, Australia",
    "suburb": "Nambour QLD 4560",
    "state": "QLD",
    "rating": 4.7,
    "reviews": 105,
    "lat": -26.6223228,
    "lng": 152.9406926,
    "place_id": "ChIJL7TCC994k2sRxy1Tk2aMMnQ",
    "maps_url": "https://www.google.com/maps/place/?q=place_id:ChIJL7TCC994k2sRxy1Tk2aMMnQ"
  },
  {
    "name": "Meat At Chancellor",
    "address": "Unit 3/1 Scholars Dr, Sippy Downs QLD 4556, Australia",
    "suburb": "Sippy Downs QLD 4556",
    "state": "QLD",
    "rating": 4.8,
    "reviews": 41,
    "lat": -26.722474,
    "lng": 153.0585744,
    "place_id": "ChIJSeWJsgedk2sR0mGLozPybHQ",
    "maps_url": "https://www.google.com/maps/place/?q=place_id:ChIJSeWJsgedk2sR0mGLozPybHQ"
  },
  {
    "name": "AJ's Country Meats Award Winning Butcher Palmwoods",
    "address": "2/4 Margaret St, Palmwoods QLD 4555, Australia",
    "suburb": "Palmwoods QLD 4555",
    "state": "QLD",
    "rating": 5,
    "reviews": 29,
    "lat": -26.6856421,
    "lng": 152.9591278,
    "place_id": "ChIJX_u3sWeCk2sRzR1Lj9sS6eQ",
    "maps_url": "https://www.google.com/maps/place/?q=place_id:ChIJX_u3sWeCk2sRzR1Lj9sS6eQ"
  },
  {
    "name": "db meats",
    "address": "Shop 1/14 Beerburrum St, Dicky Beach QLD 4551, Australia",
    "suburb": "Dicky Beach QLD 4551",
    "state": "QLD",
    "rating": 4.4,
    "reviews": 39,
    "lat": -26.7836122,
    "lng": 153.1374463,
    "place_id": "ChIJj9OSJMmek2sRRJCO8-VA7yM",
    "maps_url": "https://www.google.com/maps/place/?q=place_id:ChIJj9OSJMmek2sRRJCO8-VA7yM"
  },
  {
    "name": "Master Meats",
    "address": "119 Point Cartwright Dr, Buddina QLD 4575, Australia",
    "suburb": "Buddina QLD 4575",
    "state": "QLD",
    "rating": 4.9,
    "reviews": 30,
    "lat": -26.70332,
    "lng": 153.131008,
    "place_id": "ChIJqxR5z_yfk2sRMiLRkHp_q_U",
    "maps_url": "https://www.google.com/maps/place/?q=place_id:ChIJqxR5z_yfk2sRMiLRkHp_q_U"
  },
  {
    "name": "Cotton Tree Meats Wholesale",
    "address": "36 Kayleigh Dr, Buderim QLD 4556, Australia",
    "suburb": "Buderim QLD 4556",
    "state": "QLD",
    "rating": null,
    "reviews": 0,
    "lat": -26.670174,
    "lng": 153.0885531,
    "place_id": "ChIJN_ccA2t2k2sRm6WkfvLsYrI",
    "maps_url": "https://www.google.com/maps/place/?q=place_id:ChIJN_ccA2t2k2sRm6WkfvLsYrI"
  },
  {
    "name": "Barry Family Butchers",
    "address": "230 Burys Rd, Beerwah QLD 4519, Australia",
    "suburb": "Beerwah QLD 4519",
    "state": "QLD",
    "rating": 5,
    "reviews": 41,
    "lat": -26.8775749,
    "lng": 152.9808502,
    "place_id": "ChIJH-M2pbqPk2sRruk5_JTQndM",
    "maps_url": "https://www.google.com/maps/place/?q=place_id:ChIJH-M2pbqPk2sRruk5_JTQndM"
  },
  {
    "name": "Mount Coolum Meats - Butcher",
    "address": "4/2 Suncoast Beach Dr, Mount Coolum QLD 4573, Australia",
    "suburb": "Mount Coolum QLD 4573",
    "state": "QLD",
    "rating": 4.8,
    "reviews": 48,
    "lat": -26.5661144,
    "lng": 153.0919511,
    "place_id": "ChIJIXmWcXZxk2sRxij4J6JQGl8",
    "maps_url": "https://www.google.com/maps/place/?q=place_id:ChIJIXmWcXZxk2sRxij4J6JQGl8"
  },
  {
    "name": "The Meat Barn Currajong",
    "address": "11 Hammett St, Currajong QLD 4812, Australia",
    "suburb": "Currajong QLD 4812",
    "state": "QLD",
    "rating": 4.8,
    "reviews": 211,
    "lat": -19.2786846,
    "lng": 146.7798779,
    "place_id": "ChIJ15xpEaL51WsREaO9gTcqdnM",
    "maps_url": "https://www.google.com/maps/place/?q=place_id:ChIJ15xpEaL51WsREaO9gTcqdnM"
  },
  {
    "name": "Let's Meat Townsville",
    "address": "Hermit Park Shopping Ctr, 2/124 Charters Towers Rd, Hermit Park QLD 4812, Australia",
    "suburb": "2/124 Charters Towers Rd",
    "state": "QLD",
    "rating": 4.3,
    "reviews": 41,
    "lat": -19.2782158,
    "lng": 146.8014699,
    "place_id": "ChIJYfExpt_71WsRjRIICUOAfqY",
    "maps_url": "https://www.google.com/maps/place/?q=place_id:ChIJYfExpt_71WsRjRIICUOAfqY"
  },
  {
    "name": "Butcher2go",
    "address": "169 Charters Towers Rd, Hyde Park QLD 4812, Australia",
    "suburb": "Hyde Park QLD 4812",
    "state": "QLD",
    "rating": 4.8,
    "reviews": 19,
    "lat": -19.2815132,
    "lng": 146.7982032,
    "place_id": "ChIJf3--Nu351WsRkx76duDIp9A",
    "maps_url": "https://www.google.com/maps/place/?q=place_id:ChIJf3--Nu351WsRkx76duDIp9A"
  },
  {
    "name": "Riverway Meats",
    "address": "9/981 Riverway Dr, Rasmussen QLD 4815, Australia",
    "suburb": "Rasmussen QLD 4815",
    "state": "QLD",
    "rating": 4.9,
    "reviews": 186,
    "lat": -19.3406686,
    "lng": 146.727393,
    "place_id": "ChIJjxojlQ_w1WsRDW8kQEEeHJY",
    "maps_url": "https://www.google.com/maps/place/?q=place_id:ChIJjxojlQ_w1WsRDW8kQEEeHJY"
  },
  {
    "name": "Sunvale Meats",
    "address": "4/161-163 Hugh St, Currajong QLD 4812, Australia",
    "suburb": "Currajong QLD 4812",
    "state": "QLD",
    "rating": 4.6,
    "reviews": 69,
    "lat": -19.2721349,
    "lng": 146.7826706,
    "place_id": "ChIJTbsl9Kb51WsRk_52F2V9jBs",
    "maps_url": "https://www.google.com/maps/place/?q=place_id:ChIJTbsl9Kb51WsRk_52F2V9jBs"
  },
  {
    "name": "Procut Meats",
    "address": "Shop 5/56 Yolanda Dr, Annandale QLD 4814, Australia",
    "suburb": "Annandale QLD 4814",
    "state": "QLD",
    "rating": 4.9,
    "reviews": 34,
    "lat": -19.3139304,
    "lng": 146.771375,
    "place_id": "ChIJZcTt2jv61WsRFzPql1jG4qA",
    "maps_url": "https://www.google.com/maps/place/?q=place_id:ChIJZcTt2jv61WsRFzPql1jG4qA"
  },
  {
    "name": "North Ward Gourmet Meats",
    "address": "Shop 3 26/28 Mitchell St, North Ward QLD 4810, Australia",
    "suburb": "North Ward QLD 4810",
    "state": "QLD",
    "rating": 4.8,
    "reviews": 24,
    "lat": -19.2523738,
    "lng": 146.8145167,
    "place_id": "ChIJCyWtd1T51WsRDIShFimuGE0",
    "maps_url": "https://www.google.com/maps/place/?q=place_id:ChIJCyWtd1T51WsRDIShFimuGE0"
  },
  {
    "name": "The Butcher On Bundock",
    "address": "74 Bundock St, Belgian Gardens QLD 4810, Australia",
    "suburb": "Belgian Gardens QLD 4810",
    "state": "QLD",
    "rating": 4.5,
    "reviews": 56,
    "lat": -19.2477636,
    "lng": 146.7933048,
    "place_id": "ChIJoVT_FvH41WsR1G3fO4etJNw",
    "maps_url": "https://www.google.com/maps/place/?q=place_id:ChIJoVT_FvH41WsR1G3fO4etJNw"
  },
  {
    "name": "Tavern Meats",
    "address": "11 Tavern St, Kirwan QLD 4817, Australia",
    "suburb": "Kirwan QLD 4817",
    "state": "QLD",
    "rating": 4.9,
    "reviews": 37,
    "lat": -19.3021236,
    "lng": 146.7340546,
    "place_id": "ChIJNZYx86Xw1WsRHj2KxUNzsMc",
    "maps_url": "https://www.google.com/maps/place/?q=place_id:ChIJNZYx86Xw1WsRHj2KxUNzsMc"
  },
  {
    "name": "Bullocks Butcher Shoppe",
    "address": "Shop 6/2 Banfield Dr, Mount Louisa QLD 4814, Australia",
    "suburb": "Mount Louisa QLD 4814",
    "state": "QLD",
    "rating": 4.8,
    "reviews": 45,
    "lat": -19.272627,
    "lng": 146.7506792,
    "place_id": "ChIJywgWceD51WsRRYXEg3I4XjA",
    "maps_url": "https://www.google.com/maps/place/?q=place_id:ChIJywgWceD51WsRRYXEg3I4XjA"
  },
  {
    "name": "Whites Corner Store",
    "address": "1 Rose St, North Ward QLD 4810, Australia",
    "suburb": "North Ward QLD 4810",
    "state": "QLD",
    "rating": 4.7,
    "reviews": 189,
    "lat": -19.2467325,
    "lng": 146.8053327,
    "place_id": "ChIJk_Vht-v41WsR3Sm1rabSHw8",
    "maps_url": "https://www.google.com/maps/place/?q=place_id:ChIJk_Vht-v41WsR3Sm1rabSHw8"
  },
  {
    "name": "Otto’s Market Precinct",
    "address": "Precinct Main Building, 12 Village Dr, Idalia QLD 4811, Australia",
    "suburb": "12 Village Dr",
    "state": "QLD",
    "rating": 4.2,
    "reviews": 316,
    "lat": -19.3077063,
    "lng": 146.8059329,
    "place_id": "ChIJpZ31Di_71WsRl30dXgRSUOA",
    "maps_url": "https://www.google.com/maps/place/?q=place_id:ChIJpZ31Di_71WsRl30dXgRSUOA"
  },
  {
    "name": "Town 2 Country Butcher’s Supplies",
    "address": "43 Leyland St, Garbutt QLD 4810, Australia",
    "suburb": "Garbutt QLD 4810",
    "state": "QLD",
    "rating": 5,
    "reviews": 5,
    "lat": -19.2720636,
    "lng": 146.7638776,
    "place_id": "ChIJk5RBjcf51WsROwK1OLGIeBk",
    "maps_url": "https://www.google.com/maps/place/?q=place_id:ChIJk5RBjcf51WsROwK1OLGIeBk"
  },
  {
    "name": "Otto's Meat Market",
    "address": "5 Illuka St, Currajong QLD 4812, Australia",
    "suburb": "Currajong QLD 4812",
    "state": "QLD",
    "rating": 5,
    "reviews": 1,
    "lat": -19.2751856,
    "lng": 146.770675,
    "place_id": "ChIJDRdOpYv51WsRA4RgN2DyvIU",
    "maps_url": "https://www.google.com/maps/place/?q=place_id:ChIJDRdOpYv51WsRA4RgN2DyvIU"
  },
  {
    "name": "NQ Game Meats",
    "address": "64 Punari St, Currajong QLD 4812, Australia",
    "suburb": "Currajong QLD 4812",
    "state": "QLD",
    "rating": 4.5,
    "reviews": 27,
    "lat": -19.2738153,
    "lng": 146.7784331,
    "place_id": "ChIJITLgeaT51WsRXRR3KX66vCA",
    "maps_url": "https://www.google.com/maps/place/?q=place_id:ChIJITLgeaT51WsRXRR3KX66vCA"
  },
  {
    "name": "Classic Meats",
    "address": "356 Bayswater Rd, Garbutt QLD 4814, Australia",
    "suburb": "Garbutt QLD 4814",
    "state": "QLD",
    "rating": 5,
    "reviews": 4,
    "lat": -19.2735116,
    "lng": 146.7619427,
    "place_id": "ChIJMdbUOMD51WsRLkvQdexBDSM",
    "maps_url": "https://www.google.com/maps/place/?q=place_id:ChIJMdbUOMD51WsRLkvQdexBDSM"
  },
  {
    "name": "STRAND GOURMET MEATS",
    "address": "Shop 4/2-30 Lakeside Dr, Idalia QLD 4811, Australia",
    "suburb": "Idalia QLD 4811",
    "state": "QLD",
    "rating": 3.3,
    "reviews": 30,
    "lat": -19.3156237,
    "lng": 146.8177418,
    "place_id": "ChIJXyKUr-X71WsRFGXRavFrqvA",
    "maps_url": "https://www.google.com/maps/place/?q=place_id:ChIJXyKUr-X71WsRFGXRavFrqvA"
  },
  {
    "name": "Otto's Market Warrina",
    "address": "Shop 10/3/5 Illuka St, Currajong QLD 4812, Australia",
    "suburb": "Currajong QLD 4812",
    "state": "QLD",
    "rating": 4.3,
    "reviews": 817,
    "lat": -19.2752261,
    "lng": 146.7706049,
    "place_id": "ChIJI3kPS7z51WsR75zaSfqQGVw",
    "maps_url": "https://www.google.com/maps/place/?q=place_id:ChIJI3kPS7z51WsR75zaSfqQGVw"
  },
  {
    "name": "Carnivore Candystore",
    "address": "981 Riverway Dr, Condon QLD 4815, Australia",
    "suburb": "Condon QLD 4815",
    "state": "QLD",
    "rating": 5,
    "reviews": 22,
    "lat": -19.3406477,
    "lng": 146.7273772,
    "place_id": "ChIJq6oac2Xw1WsRR93lBO5SCRw",
    "maps_url": "https://www.google.com/maps/place/?q=place_id:ChIJq6oac2Xw1WsRR93lBO5SCRw"
  },
  {
    "name": "NQ Angliss Meats Castletown",
    "address": "Castletown Shopping Centre, Pimlico QLD 4812, Australia",
    "suburb": "Pimlico QLD 4812",
    "state": "QLD",
    "rating": 2.8,
    "reviews": 20,
    "lat": -19.2719839,
    "lng": 146.7909027,
    "place_id": "ChIJ-5utpQj51WsRoW-S_fkEucU",
    "maps_url": "https://www.google.com/maps/place/?q=place_id:ChIJ-5utpQj51WsRoW-S_fkEucU"
  },
  {
    "name": "Cairns Bulk Meats",
    "address": "36 Ishmael Rd, Earlville QLD 4870, Australia",
    "suburb": "Earlville QLD 4870",
    "state": "QLD",
    "rating": 4.2,
    "reviews": 229,
    "lat": -16.9468501,
    "lng": 145.7419141,
    "place_id": "ChIJ2RhNb_ZjeGkR7N_OZnqMsfQ",
    "maps_url": "https://www.google.com/maps/place/?q=place_id:ChIJ2RhNb_ZjeGkR7N_OZnqMsfQ"
  },
  {
    "name": "Edge Hill Butchery",
    "address": "136 Collins Ave, Edge Hill QLD 4870, Australia",
    "suburb": "Edge Hill QLD 4870",
    "state": "QLD",
    "rating": 4.9,
    "reviews": 156,
    "lat": -16.900778,
    "lng": 145.7425177,
    "place_id": "ChIJMdQZaMxleGkRJVt-S5MNrq0",
    "maps_url": "https://www.google.com/maps/place/?q=place_id:ChIJMdQZaMxleGkRJVt-S5MNrq0"
  },
  {
    "name": "Byrnes Meats",
    "address": "160 Mayers St, Manunda QLD 4870, Australia",
    "suburb": "Manunda QLD 4870",
    "state": "QLD",
    "rating": 4.5,
    "reviews": 105,
    "lat": -16.9150406,
    "lng": 145.7434551,
    "place_id": "ChIJc7a1hTpkeGkREURfgQBFyDI",
    "maps_url": "https://www.google.com/maps/place/?q=place_id:ChIJc7a1hTpkeGkREURfgQBFyDI"
  },
  {
    "name": "Marsh Butcheries",
    "address": "1 Kamerunga Rd, Stratford QLD 4870, Australia",
    "suburb": "Stratford QLD 4870",
    "state": "QLD",
    "rating": 4.9,
    "reviews": 137,
    "lat": -16.875409,
    "lng": 145.733757,
    "place_id": "ChIJn9X5E5NleGkR8dNcy1aRwuU",
    "maps_url": "https://www.google.com/maps/place/?q=place_id:ChIJn9X5E5NleGkR8dNcy1aRwuU"
  },
  {
    "name": "Portsmith quality meats",
    "address": "99 Cook St, Portsmith QLD 4870, Australia",
    "suburb": "Portsmith QLD 4870",
    "state": "QLD",
    "rating": 4.5,
    "reviews": 113,
    "lat": -16.9434394,
    "lng": 145.7709197,
    "place_id": "ChIJJUlUHttneGkRxoR6pWAbwXc",
    "maps_url": "https://www.google.com/maps/place/?q=place_id:ChIJJUlUHttneGkRxoR6pWAbwXc"
  },
  {
    "name": "Multy Cut Meats @ Yorkeys Knob",
    "address": "Shop 8/453 Varley St, Yorkeys Knob QLD 4878, Australia",
    "suburb": "Yorkeys Knob QLD 4878",
    "state": "QLD",
    "rating": 4.8,
    "reviews": 49,
    "lat": -16.8119018,
    "lng": 145.7205207,
    "place_id": "ChIJfco9lPtueGkRYbIQiRrqjb4",
    "maps_url": "https://www.google.com/maps/place/?q=place_id:ChIJfco9lPtueGkRYbIQiRrqjb4"
  },
  {
    "name": "Cairns Butcher Supplies",
    "address": "31 Hargreaves St, Edmonton QLD 4869, Australia",
    "suburb": "Edmonton QLD 4869",
    "state": "QLD",
    "rating": 4.9,
    "reviews": 16,
    "lat": -17.0011314,
    "lng": 145.7443382,
    "place_id": "ChIJ0xTyejtieGkRqiYZ_8iOep0",
    "maps_url": "https://www.google.com/maps/place/?q=place_id:ChIJ0xTyejtieGkRqiYZ_8iOep0"
  },
  {
    "name": "Bryants family butchery woree",
    "address": "8B/10 Charlotte Cl, Woree QLD 4868, Australia",
    "suburb": "Woree QLD 4868",
    "state": "QLD",
    "rating": 4.7,
    "reviews": 41,
    "lat": -16.9623889,
    "lng": 145.744576,
    "place_id": "ChIJBTig7-hjeGkRbI5VR63gpDs",
    "maps_url": "https://www.google.com/maps/place/?q=place_id:ChIJBTig7-hjeGkRbI5VR63gpDs"
  },
  {
    "name": "Barr Street Markets",
    "address": "532 Mulgrave Rd, Earlville QLD 4870, Australia",
    "suburb": "Earlville QLD 4870",
    "state": "QLD",
    "rating": 4.4,
    "reviews": 132,
    "lat": -16.9454158,
    "lng": 145.7374667,
    "place_id": "ChIJqw1vDfVjeGkR4QGuA4JIhGw",
    "maps_url": "https://www.google.com/maps/place/?q=place_id:ChIJqw1vDfVjeGkR4QGuA4JIhGw"
  },
  {
    "name": "Sheridan Meats",
    "address": "Shop 9/161 Pease St, Manoora QLD 4870, Australia",
    "suburb": "Manoora QLD 4870",
    "state": "QLD",
    "rating": 4.7,
    "reviews": 15,
    "lat": -16.9123326,
    "lng": 145.7403414,
    "place_id": "ChIJo4V-BjpkeGkRtCQA3GqW7po",
    "maps_url": "https://www.google.com/maps/place/?q=place_id:ChIJo4V-BjpkeGkRtCQA3GqW7po"
  },
  {
    "name": "S&L Prime Cuts",
    "address": "Shop 125/537 Mulgrave Rd, Earlville QLD 4870, Australia",
    "suburb": "Earlville QLD 4870",
    "state": "QLD",
    "rating": 5,
    "reviews": 4,
    "lat": -16.9442291,
    "lng": 145.7401274,
    "place_id": "ChIJZepsY-FleGkRy24WPyf48dc",
    "maps_url": "https://www.google.com/maps/place/?q=place_id:ChIJZepsY-FleGkRy24WPyf48dc"
  },
  {
    "name": "Greenwood's Butchers",
    "address": "96 McLaughlin Rd, Bentley Park QLD 4869, Australia",
    "suburb": "Bentley Park QLD 4869",
    "state": "QLD",
    "rating": 5,
    "reviews": 31,
    "lat": -17.0053654,
    "lng": 145.7422146,
    "place_id": "ChIJTdhwVhNieGkReICJM_MJN74",
    "maps_url": "https://www.google.com/maps/place/?q=place_id:ChIJTdhwVhNieGkReICJM_MJN74"
  },
  {
    "name": "Clifton Beach Butchery",
    "address": "Clifton village shopping centre, shop 5 Upolu Esplanade, Clifton Beach QLD 4879, Australia",
    "suburb": "shop 5 Upolu Esplanade",
    "state": "QLD",
    "rating": 4.5,
    "reviews": 54,
    "lat": -16.7648772,
    "lng": 145.6690821,
    "place_id": "ChIJ_7i5f_9teGkR8dfMxDiIvzQ",
    "maps_url": "https://www.google.com/maps/place/?q=place_id:ChIJ_7i5f_9teGkR8dfMxDiIvzQ"
  },
  {
    "name": "Redlynch Premium Meats & Gourmet Delicatessen",
    "address": "20 Larsen Rd, Redlynch QLD 4870, Australia",
    "suburb": "Redlynch QLD 4870",
    "state": "QLD",
    "rating": 4.7,
    "reviews": 23,
    "lat": -16.8967631,
    "lng": 145.6992228,
    "place_id": "ChIJI9pswGdleGkRTRKTqi-9R3E",
    "maps_url": "https://www.google.com/maps/place/?q=place_id:ChIJI9pswGdleGkRTRKTqi-9R3E"
  },
  {
    "name": "Specialty Meats Smithfield",
    "address": "Smithfield QLD 4878, Australia",
    "suburb": "Australia",
    "state": "QLD",
    "rating": 3.9,
    "reviews": 29,
    "lat": -16.8383077,
    "lng": 145.6922055,
    "place_id": "ChIJJbheEG9veGkRUi3wQxBg3Do",
    "maps_url": "https://www.google.com/maps/place/?q=place_id:ChIJJbheEG9veGkRUi3wQxBg3Do"
  },
  {
    "name": "Hindquarter Quality Meats",
    "address": "37 Norman St, Gordonvale QLD 4865, Australia",
    "suburb": "Gordonvale QLD 4865",
    "state": "QLD",
    "rating": 4.6,
    "reviews": 27,
    "lat": -17.0909835,
    "lng": 145.7865267,
    "place_id": "ChIJ97df7buLeGkRn6V4pmgNARM",
    "maps_url": "https://www.google.com/maps/place/?q=place_id:ChIJ97df7buLeGkRn6V4pmgNARM"
  },
  {
    "name": "Mr Meats",
    "address": "132 Barnard Dr, Mount Sheridan QLD 4868, Australia",
    "suburb": "Mount Sheridan QLD 4868",
    "state": "QLD",
    "rating": 4.6,
    "reviews": 17,
    "lat": -16.9903348,
    "lng": 145.7404701,
    "place_id": "ChIJW5bsoDZieGkR9XZEuk06IEk",
    "maps_url": "https://www.google.com/maps/place/?q=place_id:ChIJW5bsoDZieGkR9XZEuk06IEk"
  },
  {
    "name": "海鮮",
    "address": "10 Tom McDonald Dr, Cairns City QLD 4870, Australia",
    "suburb": "Cairns City QLD 4870",
    "state": "QLD",
    "rating": null,
    "reviews": 0,
    "lat": -16.8787014,
    "lng": 145.7445457,
    "place_id": "ChIJ9btFBgBleGkRMA05e9zoX0s",
    "maps_url": "https://www.google.com/maps/place/?q=place_id:ChIJ9btFBgBleGkRMA05e9zoX0s"
  },
  {
    "name": "WA's Big Butcher",
    "address": "39B King Edward Rd, Osborne Park WA 6017, Australia",
    "suburb": "Osborne Park WA 6017",
    "state": "WA",
    "rating": 4.7,
    "reviews": 21,
    "lat": -31.89933689999999,
    "lng": 115.8078588,
    "place_id": "ChIJuawuX3mvMioRSH8kbB5lnEg",
    "maps_url": "https://www.google.com/maps/place/?q=place_id:ChIJuawuX3mvMioRSH8kbB5lnEg"
  },
  {
    "name": "Torre Butchers",
    "address": "41/43 Lake St, Northbridge WA 6003, Australia",
    "suburb": "Northbridge WA 6003",
    "state": "WA",
    "rating": 4.8,
    "reviews": 249,
    "lat": -31.9472366,
    "lng": 115.8569201,
    "place_id": "ChIJuZT4OtK6MioRraIONvtQtrE",
    "maps_url": "https://www.google.com/maps/place/?q=place_id:ChIJuZT4OtK6MioRraIONvtQtrE"
  },
  {
    "name": "The Beef Shed",
    "address": "26 Pavers Cir, Malaga WA 6090, Australia",
    "suburb": "Malaga WA 6090",
    "state": "WA",
    "rating": 4.5,
    "reviews": 614,
    "lat": -31.8481291,
    "lng": 115.8833958,
    "place_id": "ChIJ3XDCU7yxMioRbibuMVYMID0",
    "maps_url": "https://www.google.com/maps/place/?q=place_id:ChIJ3XDCU7yxMioRbibuMVYMID0"
  },
  {
    "name": "Northbridge Butcher",
    "address": "414 William St, Perth WA 6000, Australia",
    "suburb": "Perth WA 6000",
    "state": "WA",
    "rating": 3.7,
    "reviews": 94,
    "lat": -31.9440645,
    "lng": 115.8625973,
    "place_id": "ChIJ2SW44c-6MioR2t-fXr60cAc",
    "maps_url": "https://www.google.com/maps/place/?q=place_id:ChIJ2SW44c-6MioR2t-fXr60cAc"
  },
  {
    "name": "The Corner Butcher",
    "address": "497 Walter Rd E, Morley WA 6062, Australia",
    "suburb": "Morley WA 6062",
    "state": "WA",
    "rating": 4.7,
    "reviews": 140,
    "lat": -31.8944301,
    "lng": 115.9233322,
    "place_id": "ChIJXZb35KGwMioRVxot40Pi5rk",
    "maps_url": "https://www.google.com/maps/place/?q=place_id:ChIJXZb35KGwMioRVxot40Pi5rk"
  },
  {
    "name": "The Butcher Shop",
    "address": "464 William St, Perth WA 6000, Australia",
    "suburb": "Perth WA 6000",
    "state": "WA",
    "rating": 4.9,
    "reviews": 160,
    "lat": -31.94186,
    "lng": 115.86363,
    "place_id": "ChIJq74yrNG6MioRiKUr0_MI1KE",
    "maps_url": "https://www.google.com/maps/place/?q=place_id:ChIJq74yrNG6MioRiKUr0_MI1KE"
  },
  {
    "name": "Princi The Butcher",
    "address": "527 Fitzgerald St, North Perth WA 6006, Australia",
    "suburb": "North Perth WA 6006",
    "state": "WA",
    "rating": 4.8,
    "reviews": 128,
    "lat": -31.9264081,
    "lng": 115.8590548,
    "place_id": "ChIJsXnenLG6MioRcQUD3He3aGk",
    "maps_url": "https://www.google.com/maps/place/?q=place_id:ChIJsXnenLG6MioRcQUD3He3aGk"
  },
  {
    "name": "P.Princi Butchers",
    "address": "Shop 20/258 Canning Hwy, Bicton WA 6157, Australia",
    "suburb": "Bicton WA 6157",
    "state": "WA",
    "rating": 4.8,
    "reviews": 154,
    "lat": -32.0376037,
    "lng": 115.7768569,
    "place_id": "ChIJidoc0DCiMioRXw57CbqiNEI",
    "maps_url": "https://www.google.com/maps/place/?q=place_id:ChIJidoc0DCiMioRXw57CbqiNEI"
  },
  {
    "name": "Star of the North",
    "address": "1244 Marmion Ave, Currambine WA 6028, Australia",
    "suburb": "Currambine WA 6028",
    "state": "WA",
    "rating": 4.6,
    "reviews": 49,
    "lat": -31.7415823,
    "lng": 115.7394691,
    "place_id": "ChIJ5Rfn2pNUzSsRDcpKfVVodW8",
    "maps_url": "https://www.google.com/maps/place/?q=place_id:ChIJ5Rfn2pNUzSsRDcpKfVVodW8"
  },
  {
    "name": "CJ's Gourmet Butchers",
    "address": "Shop 15/62 Constellation Dr, Ocean Reef WA 6027, Australia",
    "suburb": "Ocean Reef WA 6027",
    "state": "WA",
    "rating": 4.9,
    "reviews": 100,
    "lat": -31.751001,
    "lng": 115.7345339,
    "place_id": "ChIJ3agdyLlVzSsRwUjdplxYM_o",
    "maps_url": "https://www.google.com/maps/place/?q=place_id:ChIJ3agdyLlVzSsRwUjdplxYM_o"
  },
  {
    "name": "Meat and Mains",
    "address": "148 Scarborough Beach Rd, Mount Hawthorn WA 6016, Australia",
    "suburb": "Mount Hawthorn WA 6016",
    "state": "WA",
    "rating": 4.5,
    "reviews": 73,
    "lat": -31.9212221,
    "lng": 115.8395143,
    "place_id": "ChIJkVBJ3HWlMioRA2hpaAOEGiE",
    "maps_url": "https://www.google.com/maps/place/?q=place_id:ChIJkVBJ3HWlMioRA2hpaAOEGiE"
  },
  {
    "name": "Torre & Mordini Artisan Butchery",
    "address": "27/485 Beach Rd, Duncraig WA 6023, Australia",
    "suburb": "Duncraig WA 6023",
    "state": "WA",
    "rating": 4.2,
    "reviews": 79,
    "lat": -31.8454385,
    "lng": 115.7867756,
    "place_id": "ChIJEwZIEp6uMioRkXyTWkXc_PU",
    "maps_url": "https://www.google.com/maps/place/?q=place_id:ChIJEwZIEp6uMioRkXyTWkXc_PU"
  },
  {
    "name": "Troy's Meats",
    "address": "11/361 Wanneroo Rd, Balcatta WA 6021, Australia",
    "suburb": "Balcatta WA 6021",
    "state": "WA",
    "rating": 4.9,
    "reviews": 173,
    "lat": -31.8750254,
    "lng": 115.831841,
    "place_id": "ChIJtwmr5jSuMioR_LsO5jmkLzg",
    "maps_url": "https://www.google.com/maps/place/?q=place_id:ChIJtwmr5jSuMioR_LsO5jmkLzg"
  },
  {
    "name": "Churras",
    "address": "Shop2/149 Brisbane St, Perth WA 6000, Australia",
    "suburb": "Perth WA 6000",
    "state": "WA",
    "rating": 4.8,
    "reviews": 281,
    "lat": -31.942895,
    "lng": 115.8625958,
    "place_id": "ChIJnbgn7NGvMioR77q8St-iujI",
    "maps_url": "https://www.google.com/maps/place/?q=place_id:ChIJnbgn7NGvMioR77q8St-iujI"
  },
  {
    "name": "The Meat Safe WA",
    "address": "184 Rokeby Rd, Subiaco WA 6008, Australia",
    "suburb": "Subiaco WA 6008",
    "state": "WA",
    "rating": 4.3,
    "reviews": 43,
    "lat": -31.9501997,
    "lng": 115.8243559,
    "place_id": "ChIJc9XebhSlMioR8mjppkNaVJg",
    "maps_url": "https://www.google.com/maps/place/?q=place_id:ChIJc9XebhSlMioR8mjppkNaVJg"
  },
  {
    "name": "Wing Hong Butchers",
    "address": "402 William St, Perth WA 6000, Australia",
    "suburb": "Perth WA 6000",
    "state": "WA",
    "rating": 3.7,
    "reviews": 73,
    "lat": -31.9443845,
    "lng": 115.862393,
    "place_id": "ChIJZ5oGXca6MioRys5V7AJqIQ0",
    "maps_url": "https://www.google.com/maps/place/?q=place_id:ChIJZ5oGXca6MioRys5V7AJqIQ0"
  },
  {
    "name": "Tokyo Wagyu Butcher",
    "address": "447 William St, Perth WA 6000, Australia",
    "suburb": "Perth WA 6000",
    "state": "WA",
    "rating": 4.9,
    "reviews": 22,
    "lat": -31.9431111,
    "lng": 115.8628878,
    "place_id": "ChIJK5dQRXK7MioRIeBKS6ThP08",
    "maps_url": "https://www.google.com/maps/place/?q=place_id:ChIJK5dQRXK7MioRIeBKS6ThP08"
  },
  {
    "name": "Olsen Butchers South Perth",
    "address": "79B Angelo St, South Perth WA 6151, Australia",
    "suburb": "South Perth WA 6151",
    "state": "WA",
    "rating": 4.5,
    "reviews": 57,
    "lat": -31.9813432,
    "lng": 115.8648449,
    "place_id": "ChIJxbq3_EW7MioRBj0kk9Ujo40",
    "maps_url": "https://www.google.com/maps/place/?q=place_id:ChIJxbq3_EW7MioRBj0kk9Ujo40"
  },
  {
    "name": "Swansea Street Meats",
    "address": "20/12 Milford St, East Victoria Park WA 6101, Australia",
    "suburb": "East Victoria Park WA 6101",
    "state": "WA",
    "rating": 4.4,
    "reviews": 72,
    "lat": -31.991962,
    "lng": 115.9147576,
    "place_id": "ChIJVVUl1Xa8MioRGzsu3riFDXI",
    "maps_url": "https://www.google.com/maps/place/?q=place_id:ChIJVVUl1Xa8MioRGzsu3riFDXI"
  },
  {
    "name": "McLoughlin Butchers",
    "address": "58 Westchester Rd, Malaga WA 6090, Australia",
    "suburb": "Malaga WA 6090",
    "state": "WA",
    "rating": 4.8,
    "reviews": 214,
    "lat": -31.85528,
    "lng": 115.881149,
    "place_id": "ChIJhw3A_LmxMioRXkCLJlRodlg",
    "maps_url": "https://www.google.com/maps/place/?q=place_id:ChIJhw3A_LmxMioRXkCLJlRodlg"
  },
  {
    "name": "Franks Gourmet Meats",
    "address": "17 Wray Ave, Fremantle WA 6160, Australia",
    "suburb": "Fremantle WA 6160",
    "state": "WA",
    "rating": 4.8,
    "reviews": 172,
    "lat": -32.0601514,
    "lng": 115.7526157,
    "place_id": "ChIJc6fyxH6hMioRKB74lCo-5CI",
    "maps_url": "https://www.google.com/maps/place/?q=place_id:ChIJc6fyxH6hMioRKB74lCo-5CI"
  },