[
  {
    "name": "Sydney Dance Company",
    "address": "Walsh Bay Arts Precinct, Wharf 4, 5/15 Hickson Rd, Dawes Point NSW 2000, Australia",
    "suburb": "Wharf 4",
    "state": "NSW",
    "rating": 4.6,
    "reviews": 370,
    "lat": -33.85565649999999,
    "lng": 151.2061399,
    "place_id": "ChIJ95eHCgGjEmsRwrybDh-iTug",
    "maps_url": "https://www.google.com/maps/place/?q=place_id:ChIJ95eHCgGjEmsRwrybDh-iTug"
  },
  {
    "name": "Crossover Dance Studios",
    "address": "1/22-26 Goulburn St, Sydney NSW 2000, Australia",
    "suburb": "Sydney NSW 2000",
    "state": "NSW",
    "rating": 4.4,
    "reviews": 74,
    "lat": -33.8775256,
    "lng": 151.2051153,
    "place_id": "ChIJRWDUsTyuEmsRJDQs6DtXgRs",
    "maps_url": "https://www.google.com/maps/place/?q=place_id:ChIJRWDUsTyuEmsRJDQs6DtXgRs"
  },
  {
    "name": "Dancekool",
    "address": "Level 1/93 Bathurst St, Sydney NSW 2000, Australia",
    "suburb": "Sydney NSW 2000",
    "state": "NSW",
    "rating": 4.6,
    "reviews": 63,
    "lat": -33.8744029,
    "lng": 151.2054586,
    "place_id": "ChIJJzo_gDuuEmsRo5K4vw04Ios",
    "maps_url": "https://www.google.com/maps/place/?q=place_id:ChIJJzo_gDuuEmsRo5K4vw04Ios"
  },
  {
    "name": "The Golden Era Dance Studio",
    "address": "207 Clarence St, Sydney NSW 2000, Australia",
    "suburb": "Sydney NSW 2000",
    "state": "NSW",
    "rating": 4.9,
    "reviews": 58,
    "lat": -33.869862,
    "lng": 151.2052817,
    "place_id": "ChIJw9GRLACvEmsR5krQIR5NT7w",
    "maps_url": "https://www.google.com/maps/place/?q=place_id:ChIJw9GRLACvEmsR5krQIR5NT7w"
  },
  {
    "name": "Endless Dance studio",
    "address": "L5/332-336 Pitt St, Sydney NSW 2000, Australia",
    "suburb": "Sydney NSW 2000",
    "state": "NSW",
    "rating": 4.6,
    "reviews": 8,
    "lat": -33.876161,
    "lng": 151.2080676,
    "place_id": "ChIJoTPbbTyvEmsR-_hHuaK_fT0",
    "maps_url": "https://www.google.com/maps/place/?q=place_id:ChIJoTPbbTyvEmsR-_hHuaK_fT0"
  },
  {
    "name": "Royal Dance Sydney皇家舞艺",
    "address": "423 Elizabeth St, Surry Hills NSW 2010, Australia",
    "suburb": "Surry Hills NSW 2010",
    "state": "NSW",
    "rating": 4.7,
    "reviews": 29,
    "lat": -33.8856131,
    "lng": 151.2079942,
    "place_id": "ChIJmbVqgTuuEmsRazIAhRlzTeQ",
    "maps_url": "https://www.google.com/maps/place/?q=place_id:ChIJmbVqgTuuEmsRazIAhRlzTeQ"
  },
  {
    "name": "Arthur Murray Dance Studio Sydney",
    "address": "lvl 1/305 Kent St, Sydney NSW 2000, Australia",
    "suburb": "Sydney NSW 2000",
    "state": "NSW",
    "rating": 4.7,
    "reviews": 39,
    "lat": -33.8671257,
    "lng": 151.2041007,
    "place_id": "ChIJk6t-90CuEmsRpzlhSNKKcp8",
    "maps_url": "https://www.google.com/maps/place/?q=place_id:ChIJk6t-90CuEmsRpzlhSNKKcp8"
  },
  {
    "name": "Sydney Salsa Classes - CBD",
    "address": "127 Liverpool St, Sydney NSW 2000, Australia",
    "suburb": "Sydney NSW 2000",
    "state": "NSW",
    "rating": 5,
    "reviews": 931,
    "lat": -33.8768922,
    "lng": 151.2080605,
    "place_id": "ChIJeQtEibuvEmsRA2QgJBCKyl4",
    "maps_url": "https://www.google.com/maps/place/?q=place_id:ChIJeQtEibuvEmsRA2QgJBCKyl4"
  },
  {
    "name": "SUAVE DANCE STUDIO",
    "address": "262 Pitt St, Sydney NSW 2000, Australia",
    "suburb": "Sydney NSW 2000",
    "state": "NSW",
    "rating": 5,
    "reviews": 3,
    "lat": -33.8734475,
    "lng": 151.2082862,
    "place_id": "ChIJVVXldj6uEmsRt51w1ngy0fw",
    "maps_url": "https://www.google.com/maps/place/?q=place_id:ChIJVVXldj6uEmsRt51w1ngy0fw"
  },
  {
    "name": "Latin Dance Australia",
    "address": "263 Broadway, Glebe NSW 2037, Australia",
    "suburb": "Glebe NSW 2037",
    "state": "NSW",
    "rating": 4.8,
    "reviews": 150,
    "lat": -33.8843637,
    "lng": 151.1933333,
    "place_id": "ChIJEZJY8CmuEmsR4xz7z1ZZn5k",
    "maps_url": "https://www.google.com/maps/place/?q=place_id:ChIJEZJY8CmuEmsR4xz7z1ZZn5k"
  },
  {
    "name": "Free Spirits Dance Pty Ltd",
    "address": "Level 2/768 George St, Haymarket NSW 2000, Australia",
    "suburb": "Haymarket NSW 2000",
    "state": "NSW",
    "rating": 4.6,
    "reviews": 19,
    "lat": -33.8805702,
    "lng": 151.2052583,
    "place_id": "ChIJbZ9uEdGvEmsR5_VH0aMnufg",
    "maps_url": "https://www.google.com/maps/place/?q=place_id:ChIJbZ9uEdGvEmsR5_VH0aMnufg"
  },
  {
    "name": "Belly Dance Shows | Lessons | Aleksandra Dance | Wedding Dance & Social Dance improvement !",
    "address": "119 Bathurst St, Sydney NSW 2000 cbd, Sydney NSW 2000, Australia",
    "suburb": "Sydney NSW 2000 cbd",
    "state": "NSW",
    "rating": 5,
    "reviews": 49,
    "lat": -33.874889,
    "lng": 151.2075967,
    "place_id": "ChIJ1XYvPQCvEmsREJ0ggkYfGLc",
    "maps_url": "https://www.google.com/maps/place/?q=place_id:ChIJ1XYvPQCvEmsREJ0ggkYfGLc"
  },
  {
    "name": "R&M Salsa and Bachata Sydney",
    "address": "154-160 Broadway, Basement with Direct Access from, 1 Showroom, the Street, Chippendale NSW 2008, Australia",
    "suburb": "Basement with Direct Access from",
    "state": "NSW",
    "rating": 5,
    "reviews": 523,
    "lat": -33.884503,
    "lng": 151.1965906,
    "place_id": "ChIJPcWAOhOvEmsRNw-oaFjaqGA",
    "maps_url": "https://www.google.com/maps/place/?q=place_id:ChIJPcWAOhOvEmsRNw-oaFjaqGA"
  },
  {
    "name": "Connection Studios Sydney (Private Dance Lessons)",
    "address": "Within Gaelic Club. For Private Lessons by appointment only, 64 Devonshire St, Surry Hills NSW 2010, Australia",
    "suburb": "64 Devonshire St",
    "state": "NSW",
    "rating": 5,
    "reviews": 29,
    "lat": -33.8858214,
    "lng": 151.2075158,
    "place_id": "ChIJyxMzNR-uEmsRFbwPzxBAqk0",
    "maps_url": "https://www.google.com/maps/place/?q=place_id:ChIJyxMzNR-uEmsRFbwPzxBAqk0"
  },
  {
    "name": "Dance More",
    "address": "465 Harris St, Ultimo NSW 2007, Australia",
    "suburb": "Ultimo NSW 2007",
    "state": "NSW",
    "rating": 5,
    "reviews": 139,
    "lat": -33.8766058,
    "lng": 151.1976579,
    "place_id": "ChIJee7luy2vKQ0R3xiMX8c7QRk",
    "maps_url": "https://www.google.com/maps/place/?q=place_id:ChIJee7luy2vKQ0R3xiMX8c7QRk"
  },
  {
    "name": "Freed dance studio",
    "address": "1/160 Flinders St, Paddington NSW 2021, Australia",
    "suburb": "Paddington NSW 2021",
    "state": "NSW",
    "rating": 5,
    "reviews": 38,
    "lat": -33.8860068,
    "lng": 151.2189696,
    "place_id": "ChIJfS6nAtyxEmsRgYQXWfZ9CyM",
    "maps_url": "https://www.google.com/maps/place/?q=place_id:ChIJfS6nAtyxEmsRgYQXWfZ9CyM"
  },
  {
    "name": "Dance With Me Sydney",
    "address": "4 James St, Waterloo NSW 2017, Australia",
    "suburb": "Waterloo NSW 2017",
    "state": "NSW",
    "rating": 5,
    "reviews": 61,
    "lat": -33.9021917,
    "lng": 151.2023043,
    "place_id": "ChIJo24tLOmxEmsRR68X498Vhgk",
    "maps_url": "https://www.google.com/maps/place/?q=place_id:ChIJo24tLOmxEmsRR68X498Vhgk"
  },
  {
    "name": "Danceworks Sydney",
    "address": "St. Michaels Hall, 25 Golden Grove St, Newtown NSW 2008, Australia",
    "suburb": "25 Golden Grove St",
    "state": "NSW",
    "rating": 5,
    "reviews": 41,
    "lat": -33.8932318,
    "lng": 151.1887569,
    "place_id": "ChIJx5fqkdKxEmsR468Ea7JwnFI",
    "maps_url": "https://www.google.com/maps/place/?q=place_id:ChIJx5fqkdKxEmsR468Ea7JwnFI"
  },
  {
    "name": "The Jungle Body Sydney - Circular Quay, CBD, & Darlinghurst,",
    "address": "180 George St, Sydney NSW 2000, Australia",
    "suburb": "Sydney NSW 2000",
    "state": "NSW",
    "rating": 4.9,
    "reviews": 173,
    "lat": -33.8622247,
    "lng": 151.2084172,
    "place_id": "ChIJNxOx9eevEmsR5QJIimZa9kw",
    "maps_url": "https://www.google.com/maps/place/?q=place_id:ChIJNxOx9eevEmsR5QJIimZa9kw"
  },
  {
    "name": "Salsa Suave",
    "address": "262 Pitt St, Sydney NSW 2000, Australia",
    "suburb": "Sydney NSW 2000",
    "state": "NSW",
    "rating": 4.7,
    "reviews": 164,
    "lat": -33.8734475,
    "lng": 151.2082862,
    "place_id": "ChIJFc2KGdSzEmsRRJt0cCouGwM",
    "maps_url": "https://www.google.com/maps/place/?q=place_id:ChIJFc2KGdSzEmsRRJt0cCouGwM"
  },
  {
    "name": "Movement Nation Parramatta",
    "address": "110 Church St, Parramatta NSW 2150, Australia",
    "suburb": "Parramatta NSW 2150",
    "state": "NSW",
    "rating": 4.9,
    "reviews": 41,
    "lat": -33.8187761,
    "lng": 151.00393,
    "place_id": "ChIJJ5fEthajEmsRG9W8h45KPgg",
    "maps_url": "https://www.google.com/maps/place/?q=place_id:ChIJJ5fEthajEmsRG9W8h45KPgg"
  },
  {
    "name": "Dance Worx Academy",
    "address": "122 O'Connell St, Parramatta NSW 2150, Australia",
    "suburb": "Parramatta NSW 2150",
    "state": "NSW",
    "rating": 5,
    "reviews": 9,
    "lat": -33.7988284,
    "lng": 151.0021332,
    "place_id": "ChIJo1WjVEmjEmsRUV0YoABMY-k",
    "maps_url": "https://www.google.com/maps/place/?q=place_id:ChIJo1WjVEmjEmsRUV0YoABMY-k"
  },
  {
    "name": "Urban Salsa",
    "address": "entrance via the street behind the 5 Star Hand Car Wash, LEVEL 1, SUITE 1/136 Victoria Rd, North Parramatta NSW 2151, Australia",
    "suburb": "LEVEL 1",
    "state": "NSW",
    "rating": 4.9,
    "reviews": 97,
    "lat": -33.8080419,
    "lng": 151.0182023,
    "place_id": "ChIJ9WmN9B6jEmsR14zcSg1Brm4",
    "maps_url": "https://www.google.com/maps/place/?q=place_id:ChIJ9WmN9B6jEmsR14zcSg1Brm4"
  },
  {
    "name": "Natwar School Of Arts and Dance",
    "address": "Ladmark :Close to Westfield Parramatta, 22 Great Western Hwy, Parramatta NSW 2150, Australia",
    "suburb": "22 Great Western Hwy",
    "state": "NSW",
    "rating": 5,
    "reviews": 76,
    "lat": -33.8195122,
    "lng": 151.0016325,
    "place_id": "ChIJLS8g2r-jEmsR1eyTKOz49lA",
    "maps_url": "https://www.google.com/maps/place/?q=place_id:ChIJLS8g2r-jEmsR1eyTKOz49lA"
  },
  {
    "name": "TDA Dance",
    "address": "3 Hammers Rd, Northmead NSW 2152, Australia",
    "suburb": "Northmead NSW 2152",
    "state": "NSW",
    "rating": 5,
    "reviews": 11,
    "lat": -33.7892522,
    "lng": 150.994302,
    "place_id": "ChIJIWIhLGCjEmsR68-jZp9DG6Q",
    "maps_url": "https://www.google.com/maps/place/?q=place_id:ChIJIWIhLGCjEmsR68-jZp9DG6Q"
  },
  {
    "name": "Swastik Dance Studio Harris Park",
    "address": "Suite 2/2-6 Kendall St, Harris Park NSW 2150, Australia",
    "suburb": "Harris Park NSW 2150",
    "state": "NSW",
    "rating": 4.3,
    "reviews": 92,
    "lat": -33.8198092,
    "lng": 151.0077992,
    "place_id": "ChIJC656eCOjEmsRleljXRb3aXI",
    "maps_url": "https://www.google.com/maps/place/?q=place_id:ChIJC656eCOjEmsRleljXRb3aXI"
  },
  {
    "name": "Intricate school of hip hop",
    "address": "LEVEL 1, SUITE 1/136 Victoria Rd, North Parramatta NSW 2151, Australia",
    "suburb": "SUITE 1/136 Victoria Rd",
    "state": "NSW",
    "rating": 5,
    "reviews": 3,
    "lat": -33.8080419,
    "lng": 151.0182023,
    "place_id": "ChIJScrezzujEmsRt9psP68J2VY",
    "maps_url": "https://www.google.com/maps/place/?q=place_id:ChIJScrezzujEmsRt9psP68J2VY"
  },
  {
    "name": "The Performance Studio",
    "address": "8,9/13 Boundary Rd, Northmead NSW 2152, Australia",
    "suburb": "9/13 Boundary Rd",
    "state": "NSW",
    "rating": 4.6,
    "reviews": 23,
    "lat": -33.7956412,
    "lng": 150.9987027,
    "place_id": "ChIJk0jnNQ2YEmsRFHXWSVIhCKQ",
    "maps_url": "https://www.google.com/maps/place/?q=place_id:ChIJk0jnNQ2YEmsRFHXWSVIhCKQ"
  },
  {
    "name": "Dharpana School Of Arts",
    "address": "11 Albion St, Parramatta NSW 2150, Australia",
    "suburb": "Parramatta NSW 2150",
    "state": "NSW",
    "rating": 5,
    "reviews": 8,
    "lat": -33.8215964,
    "lng": 151.0097962,
    "place_id": "ChIJza0cPN2jEmsR5lRl7MR1aEo",
    "maps_url": "https://www.google.com/maps/place/?q=place_id:ChIJza0cPN2jEmsR5lRl7MR1aEo"
  },
  {
    "name": "Nicole’s Dance Factory",
    "address": "3/20 Loyalty Rd, North Rocks NSW 2151, Australia",
    "suburb": "North Rocks NSW 2151",
    "state": "NSW",
    "rating": 4.8,
    "reviews": 38,
    "lat": -33.7752647,
    "lng": 151.0080413,
    "place_id": "ChIJU1VVQMijEmsR0KN_aak6HiY",
    "maps_url": "https://www.google.com/maps/place/?q=place_id:ChIJU1VVQMijEmsR0KN_aak6HiY"
  },
  {
    "name": "Step In Time Talent Studio",
    "address": "732 Merrylands Rd, Greystanes NSW 2145, Australia",
    "suburb": "Greystanes NSW 2145",
    "state": "NSW",
    "rating": 4.9,
    "reviews": 45,
    "lat": -33.8297137,
    "lng": 150.9468177,
    "place_id": "ChIJjdNsn_uXEmsRYsabfKxzNYo",
    "maps_url": "https://www.google.com/maps/place/?q=place_id:ChIJjdNsn_uXEmsRYsabfKxzNYo"
  },
  {
    "name": "Spark and Fly Dance Classes",
    "address": "Good St, Westmead NSW 2145, Australia",
    "suburb": "Westmead NSW 2145",
    "state": "NSW",
    "rating": 5,
    "reviews": 2,
    "lat": -33.8149721,
    "lng": 150.9919113,
    "place_id": "ChIJVckWa_-jEmsR_LKOhDxuQiQ",
    "maps_url": "https://www.google.com/maps/place/?q=place_id:ChIJVckWa_-jEmsR_LKOhDxuQiQ"
  },
  {
    "name": "Sydney Pole (Parramatta)",
    "address": "3/33 Daking St, North Parramatta NSW 2150, Australia",
    "suburb": "North Parramatta NSW 2150",
    "state": "NSW",
    "rating": 4.4,
    "reviews": 51,
    "lat": -33.7925838,
    "lng": 151.0019827,
    "place_id": "ChIJDSFb9B6jEmsRkQzz3z53cjQ",
    "maps_url": "https://www.google.com/maps/place/?q=place_id:ChIJDSFb9B6jEmsRkQzz3z53cjQ"
  },
  {
    "name": "Kalankan Dance Academy Sydney",
    "address": "2 Arthur St, Granville, Scout Hall, Rosehill NSW 2142, Australia",
    "suburb": "Granville",
    "state": "NSW",
    "rating": 5,
    "reviews": 9,
    "lat": -33.83077300000001,
    "lng": 151.0173757,
    "place_id": "ChIJeZuf_62jEmsR-Kj88-ndqEw",
    "maps_url": "https://www.google.com/maps/place/?q=place_id:ChIJeZuf_62jEmsR-Kj88-ndqEw"
  },
  {
    "name": "Sky Dance Studio & Performing Arts",
    "address": "8/219 Parramatta Rd, Auburn NSW 2144, Australia",
    "suburb": "Auburn NSW 2144",
    "state": "NSW",
    "rating": 4.3,
    "reviews": 6,
    "lat": -33.8396005,
    "lng": 151.0332172,
    "place_id": "ChIJz77wO0SjEmsRcZ2gU5gcjRI",
    "maps_url": "https://www.google.com/maps/place/?q=place_id:ChIJz77wO0SjEmsRcZ2gU5gcjRI"
  },
  {
    "name": "Utsav Dance Academy",
    "address": "5 Alice St, Harris Park NSW 2150, Australia",
    "suburb": "Harris Park NSW 2150",
    "state": "NSW",
    "rating": 4.8,
    "reviews": 8,
    "lat": -33.821049,
    "lng": 151.011947,
    "place_id": "ChIJMb7OASOjEmsRjkCCdIiZfNQ",
    "maps_url": "https://www.google.com/maps/place/?q=place_id:ChIJMb7OASOjEmsRjkCCdIiZfNQ"
  },
  {
    "name": "The Indian Dance School",
    "address": "39 Cambridge Ave, North Rocks NSW 2151, Australia",
    "suburb": "North Rocks NSW 2151",
    "state": "NSW",
    "rating": 5,
    "reviews": 4,
    "lat": -33.776965,
    "lng": 151.0169127,
    "place_id": "ChIJq6qePMejEmsRnPuaiOKhhpo",
    "maps_url": "https://www.google.com/maps/place/?q=place_id:ChIJq6qePMejEmsRnPuaiOKhhpo"
  },
  {
    "name": "Constant Groove Dance Studio",
    "address": "13/4 Abbott Rd, Seven Hills NSW 2147, Australia",
    "suburb": "Seven Hills NSW 2147",
    "state": "NSW",
    "rating": 4.9,
    "reviews": 33,
    "lat": -33.7684956,
    "lng": 150.9447492,
    "place_id": "ChIJWwvvfpahEmsRrRYoRxcQ5DM",
    "maps_url": "https://www.google.com/maps/place/?q=place_id:ChIJWwvvfpahEmsRrRYoRxcQ5DM"
  },
  {
    "name": "Formula Performing Arts",
    "address": "1/403 Great Western Hwy, Greystanes NSW 2145, Australia",
    "suburb": "Greystanes NSW 2145",
    "state": "NSW",
    "rating": 5,
    "reviews": 63,
    "lat": -33.8148747,
    "lng": 150.9627811,
    "place_id": "ChIJveQy26OjEmsRP0z3b5rwhLY",
    "maps_url": "https://www.google.com/maps/place/?q=place_id:ChIJveQy26OjEmsRP0z3b5rwhLY"
  },
  {
    "name": "Movement Nation Dance Studio",
    "address": "Level 3/390 Forest Rd, Hurstville NSW 2220, Australia",
    "suburb": "Hurstville NSW 2220",
    "state": "NSW",
    "rating": 4.9,
    "reviews": 59,
    "lat": -33.9648388,
    "lng": 151.0996311,
    "place_id": "ChIJC_mdKKe5EmsR1_oh5B9w7II",
    "maps_url": "https://www.google.com/maps/place/?q=place_id:ChIJC_mdKKe5EmsR1_oh5B9w7II"
  },
  {
    "name": "TOP ROCK STUDIOS",
    "address": "29 Beresford St, Newcastle West NSW 2302, Australia",
    "suburb": "Newcastle West NSW 2302",
    "state": "NSW",
    "rating": 5,
    "reviews": 105,
    "lat": -32.9249193,
    "lng": 151.760203,
    "place_id": "ChIJ8y_1akEVc2sRi0aWxXHDPSQ",
    "maps_url": "https://www.google.com/maps/place/?q=place_id:ChIJ8y_1akEVc2sRi0aWxXHDPSQ"
  },
  {
    "name": "Newcastle Dance Academy | Preschool Dance Programs",
    "address": "34/38 Brown Rd, Broadmeadow NSW 2292, Australia",
    "suburb": "Broadmeadow NSW 2292",
    "state": "NSW",
    "rating": 5,
    "reviews": 11,
    "lat": -32.92325960000001,
    "lng": 151.7328832,
    "place_id": "ChIJnxN5K7oVc2sRxH02s_JV_ko",
    "maps_url": "https://www.google.com/maps/place/?q=place_id:ChIJnxN5K7oVc2sRxH02s_JV_ko"
  },
  {
    "name": "National College of Dance Newcastle",
    "address": "151 Young Rd, Lambton NSW 2299, Australia",
    "suburb": "Lambton NSW 2299",
    "state": "NSW",
    "rating": 4.8,
    "reviews": 25,
    "lat": -32.9107378,
    "lng": 151.7133505,
    "place_id": "ChIJdzJJJpsVc2sR8eR-Hyo4MRM",
    "maps_url": "https://www.google.com/maps/place/?q=place_id:ChIJdzJJJpsVc2sR8eR-Hyo4MRM"
  },
  {
    "name": "Prodigy Dance Australia",
    "address": "Unit 4 & 5/41 Griffiths Rd, Lambton NSW 2299, Australia",
    "suburb": "Lambton NSW 2299",
    "state": "NSW",
    "rating": 4.8,
    "reviews": 46,
    "lat": -32.9143572,
    "lng": 151.7229904,
    "place_id": "ChIJhfglbJgVc2sRgIm2uUFM-88",
    "maps_url": "https://www.google.com/maps/place/?q=place_id:ChIJhfglbJgVc2sRgIm2uUFM-88"
  },
  {
    "name": "Beats Dance Studio - Mayfield West",
    "address": "unit 11/11 Laurio Pl, Mayfield West NSW 2304, Australia",
    "suburb": "Mayfield West NSW 2304",
    "state": "NSW",
    "rating": 5,
    "reviews": 14,
    "lat": -32.8796073,
    "lng": 151.7289593,
    "place_id": "ChIJ89yyEfQVc2sRo25zPWOGNXY",
    "maps_url": "https://www.google.com/maps/place/?q=place_id:ChIJ89yyEfQVc2sRo25zPWOGNXY"
  },
  {
    "name": "The Tribe Collective Newcastle",
    "address": "2/42 Harrison St, Cardiff NSW 2285, Australia",
    "suburb": "Cardiff NSW 2285",
    "state": "NSW",
    "rating": 4.6,
    "reviews": 18,
    "lat": -32.9405497,
    "lng": 151.660243,
    "place_id": "ChIJd4pOnzQ8c2sRBBe15GGXsHY",
    "maps_url": "https://www.google.com/maps/place/?q=place_id:ChIJd4pOnzQ8c2sRBBe15GGXsHY"
  },
  {
    "name": "Studi-O Dance School",
    "address": "4/9 Oakdale Rd, Gateshead NSW 2290, Australia",
    "suburb": "Gateshead NSW 2290",
    "state": "NSW",
    "rating": 4.9,
    "reviews": 8,
    "lat": -32.98852850000001,
    "lng": 151.6931705,
    "place_id": "ChIJRSokoHs9c2sRMK10rlleL_g",
    "maps_url": "https://www.google.com/maps/place/?q=place_id:ChIJRSokoHs9c2sRMK10rlleL_g"
  },
  {
    "name": "Newcastle Contemporary Dance Academy",
    "address": "Council St, Wallsend NSW 2287, Australia",
    "suburb": "Wallsend NSW 2287",
    "state": "NSW",
    "rating": 5,
    "reviews": 5,
    "lat": -32.9025884,
    "lng": 151.6689091,
    "place_id": "ChIJF4jXuuA_c2sR8jW3mfo0unM",
    "maps_url": "https://www.google.com/maps/place/?q=place_id:ChIJF4jXuuA_c2sR8jW3mfo0unM"
  },
  {
    "name": "EV Dance Studios",
    "address": "6 Price St, Islington NSW 2296, Australia",
    "suburb": "Islington NSW 2296",
    "state": "NSW",
    "rating": 5,
    "reviews": 25,
    "lat": -32.9100345,
    "lng": 151.7409703,
    "place_id": "ChIJG417bckVc2sRqA7DnWw8n7A",
    "maps_url": "https://www.google.com/maps/place/?q=place_id:ChIJG417bckVc2sRqA7DnWw8n7A"
  },
  {
    "name": "Newcastle Contemporary Dance Academy",
    "address": "Public School Hall, Lambton Rd, Waratah NSW 2298, Australia",
    "suburb": "Lambton Rd",
    "state": "NSW",
    "rating": 5,
    "reviews": 1,
    "lat": -32.90691109999999,
    "lng": 151.7201603,
    "place_id": "ChIJ8ywoaU8-c2sRBmtU2I76CQE",
    "maps_url": "https://www.google.com/maps/place/?q=place_id:ChIJ8ywoaU8-c2sRBmtU2I76CQE"
  },
  {
    "name": "Heidi's School of Dance",
    "address": "18 Hall St, Newcastle West NSW 2302, Australia",
    "suburb": "Newcastle West NSW 2302",
    "state": "NSW",
    "rating": 5,
    "reviews": 4,
    "lat": -32.9296786,
    "lng": 151.7639164,
    "place_id": "ChIJFxBUE0QUc2sRRwWmdR9sLHA",
    "maps_url": "https://www.google.com/maps/place/?q=place_id:ChIJFxBUE0QUc2sRRwWmdR9sLHA"
  },
  {
    "name": "Dance on Newy",
    "address": "102 Hanbury St, Mayfield NSW 2304, Australia",
    "suburb": "Mayfield NSW 2304",
    "state": "NSW",
    "rating": 5,
    "reviews": 21,
    "lat": -32.8967388,
    "lng": 151.7368177,
    "place_id": "ChIJk4VnRfoVc2sRzV6AE8sThfo",
    "maps_url": "https://www.google.com/maps/place/?q=place_id:ChIJk4VnRfoVc2sRzV6AE8sThfo"
  },
  {
    "name": "The Dance Establishment",
    "address": "2/130 Garden Grove Parade, Adamstown NSW 2289, Australia",
    "suburb": "Adamstown NSW 2289",
    "state": "NSW",
    "rating": 5,
    "reviews": 2,
    "lat": -32.941,
    "lng": 151.7177071,
    "place_id": "ChIJhcvmBwoVc2sR99ftLneoz5I",
    "maps_url": "https://www.google.com/maps/place/?q=place_id:ChIJhcvmBwoVc2sR99ftLneoz5I"
  },
  {
    "name": "Studio Evolution Pty Limited",
    "address": "239 King St, Newcastle NSW 2300, Australia",
    "suburb": "Newcastle NSW 2300",
    "state": "NSW",
    "rating": 5,
    "reviews": 39,
    "lat": -32.9285331,
    "lng": 151.7705004,
    "place_id": "ChIJt32FrwwVc2sRvJTEgG92aAA",
    "maps_url": "https://www.google.com/maps/place/?q=place_id:ChIJt32FrwwVc2sRvJTEgG92aAA"
  },
  {
    "name": "Ablaze Dance Academy",
    "address": "17/26 Oakdale Rd, Gateshead NSW 2290, Australia",
    "suburb": "Gateshead NSW 2290",
    "state": "NSW",
    "rating": 4.9,
    "reviews": 15,
    "lat": -32.9912661,
    "lng": 151.6982579,
    "place_id": "ChIJ1ed0tsIVc2sRmETWvbp6XuI",
    "maps_url": "https://www.google.com/maps/place/?q=place_id:ChIJ1ed0tsIVc2sRmETWvbp6XuI"
  },
  {
    "name": "Newcastle Ballet Theatre",
    "address": "1/89 Mitchell Rd, Cardiff NSW 2285, Australia",
    "suburb": "Cardiff NSW 2285",
    "state": "NSW",
    "rating": 5,
    "reviews": 28,
    "lat": -32.9445524,
    "lng": 151.641792,
    "place_id": "ChIJjZ0Z7js8c2sR1RCw0LwuJBA",
    "maps_url": "https://www.google.com/maps/place/?q=place_id:ChIJjZ0Z7js8c2sR1RCw0LwuJBA"
  },
  {
    "name": "Step In Time Come Dancing",
    "address": "4 Metcalfe St, Wallsend NSW 2287, Australia",
    "suburb": "Wallsend NSW 2287",
    "state": "NSW",
    "rating": 4.7,
    "reviews": 13,
    "lat": -32.9037024,
    "lng": 151.6699002,
    "place_id": "ChIJ__8r7UU-c2sRhjVfaPw07SY",
    "maps_url": "https://www.google.com/maps/place/?q=place_id:ChIJ__8r7UU-c2sRhjVfaPw07SY"
  },
  {
    "name": "Pol-arise Newcastle - Pole & Aerial Studio",
    "address": "Unit 22/54 Clyde St, Hamilton North NSW 2300, Australia",
    "suburb": "Hamilton North NSW 2300",
    "state": "NSW",
    "rating": 4.8,
    "reviews": 22,
    "lat": -32.9116498,
    "lng": 151.7365527,
    "place_id": "ChIJ2YLr0GQUc2sRG7TQwpH-Cb0",
    "maps_url": "https://www.google.com/maps/place/?q=place_id:ChIJ2YLr0GQUc2sRG7TQwpH-Cb0"
  },
  {
    "name": "Maxi-Jazz Dance Studio",
    "address": "42 Stenhouse Dr, Cameron Park NSW 2285, Australia",
    "suburb": "Cameron Park NSW 2285",
    "state": "NSW",
    "rating": 4.9,
    "reviews": 53,
    "lat": -32.8945944,
    "lng": 151.6026803,
    "place_id": "ChIJ48hMDU8-c2sRIiu5mbEQ1Yk",
    "maps_url": "https://www.google.com/maps/place/?q=place_id:ChIJ48hMDU8-c2sRIiu5mbEQ1Yk"
  },
  {
    "name": "Belmont Dance Centre",
    "address": "The Melvic Centre, First Floor/1 Thomas St, Belmont NSW 2280, Australia",
    "suburb": "First Floor/1 Thomas St",
    "state": "NSW",
    "rating": 4.9,
    "reviews": 37,
    "lat": -33.0351875,
    "lng": 151.6601051,
    "place_id": "ChIJXWSqeec8c2sRjVwqVWzcef0",
    "maps_url": "https://www.google.com/maps/place/?q=place_id:ChIJXWSqeec8c2sRjVwqVWzcef0"
  },
  {
    "name": "TJS Dance Academy",
    "address": "5 Victoria St, Wollongong NSW 2500, Australia",
    "suburb": "Wollongong NSW 2500",
    "state": "NSW",
    "rating": 5,
    "reviews": 52,
    "lat": -34.4225418,
    "lng": 150.892581,
    "place_id": "ChIJJVoJ7xUZE2sRIYJHnCHZe7c",
    "maps_url": "https://www.google.com/maps/place/?q=place_id:ChIJJVoJ7xUZE2sRIYJHnCHZe7c"
  },
  {
    "name": "Miss Zoe's School of Dance",
    "address": "90 Swan St, Wollongong NSW 2500, Australia",
    "suburb": "Wollongong NSW 2500",
    "state": "NSW",
    "rating": 4.8,
    "reviews": 135,
    "lat": -34.4346765,
    "lng": 150.8885237,
    "place_id": "ChIJn-YcacAZE2sR8cVhTu0V9yI",
    "maps_url": "https://www.google.com/maps/place/?q=place_id:ChIJn-YcacAZE2sR8cVhTu0V9yI"
  },
  {
    "name": "Street Beatz Hip Hop Dance Studio",
    "address": "Unit 8/83/85 Montague St, North Wollongong NSW 2500, Australia",
    "suburb": "North Wollongong NSW 2500",
    "state": "NSW",
    "rating": 5,
    "reviews": 50,
    "lat": -34.404955,
    "lng": 150.895224,
    "place_id": "ChIJzX-Pm-AeE2sRqQ6IU7zMLd0",
    "maps_url": "https://www.google.com/maps/place/?q=place_id:ChIJzX-Pm-AeE2sRqQ6IU7zMLd0"
  },
  {
    "name": "Dance More",
    "address": "Crown Bloc C West, Unit 802/28 Burelli St, Wollongong NSW 2500, Australia",
    "suburb": "Unit 802/28 Burelli St",
    "state": "NSW",
    "rating": 5,
    "reviews": 15,
    "lat": -34.426863,
    "lng": 150.9000191,
    "place_id": "ChIJ50tvjOEZE2sREogavLWdjy4",
    "maps_url": "https://www.google.com/maps/place/?q=place_id:ChIJ50tvjOEZE2sREogavLWdjy4"
  },
  {
    "name": "NRG Studios Allstars",
    "address": "Unit 3/103/105 Auburn St, Wollongong NSW 2500, Australia",
    "suburb": "Wollongong NSW 2500",
    "state": "NSW",
    "rating": 5,
    "reviews": 84,
    "lat": -34.4364657,
    "lng": 150.8879485,
    "place_id": "ChIJQdqo06UZE2sRf2wg2_ZheOY",
    "maps_url": "https://www.google.com/maps/place/?q=place_id:ChIJQdqo06UZE2sRf2wg2_ZheOY"
  },
  {
    "name": "Dance World Wollongong",
    "address": "Unit 7/54 Montague St, North Wollongong NSW 2500, Australia",
    "suburb": "North Wollongong NSW 2500",
    "state": "NSW",
    "rating": 4.5,
    "reviews": 17,
    "lat": -34.4008828,
    "lng": 150.894303,
    "place_id": "ChIJ8yMEmhcZE2sR0EJCXVOd0UA",
    "maps_url": "https://www.google.com/maps/place/?q=place_id:ChIJ8yMEmhcZE2sR0EJCXVOd0UA"
  },
  {
    "name": "Tara Becker School of Dance",
    "address": "11/2 Drummond St, Wollongong NSW 2500, Australia",
    "suburb": "Wollongong NSW 2500",
    "state": "NSW",
    "rating": 5,
    "reviews": 21,
    "lat": -34.4443708,
    "lng": 150.8715227,
    "place_id": "ChIJTSVWHvAZE2sRAQL2OsxntrU",
    "maps_url": "https://www.google.com/maps/place/?q=place_id:ChIJTSVWHvAZE2sRAQL2OsxntrU"
  },
  {
    "name": "The Dance Affinity, Dance School Unanderra",
    "address": "14B Investigator Dr, Unanderra NSW 2526, Australia",
    "suburb": "Unanderra NSW 2526",
    "state": "NSW",
    "rating": 5,
    "reviews": 31,
    "lat": -34.45927229999999,
    "lng": 150.8454011,
    "place_id": "ChIJx0VQFLsQE2sR6hljPXq-uRE",
    "maps_url": "https://www.google.com/maps/place/?q=place_id:ChIJx0VQFLsQE2sR6hljPXq-uRE"
  },
  {
    "name": "Dancespace Wollongong",
    "address": "11 Glebe St, Wollongong NSW 2500, Australia",
    "suburb": "Wollongong NSW 2500",
    "state": "NSW",
    "rating": 4.7,
    "reviews": 23,
    "lat": -34.4317118,
    "lng": 150.8969775,
    "place_id": "ChIJ02aOE7AZE2sR-GwS4Qk_5Jc",
    "maps_url": "https://www.google.com/maps/place/?q=place_id:ChIJ02aOE7AZE2sR-GwS4Qk_5Jc"
  },
  {
    "name": "The Industry Performing Arts Studio",
    "address": "118 Auburn St, Wollongong NSW 2500, Australia",
    "suburb": "Wollongong NSW 2500",
    "state": "NSW",
    "rating": 5,
    "reviews": 9,
    "lat": -34.4361671,
    "lng": 150.8874428,
    "place_id": "ChIJ72xICsMZE2sR_OCjs-nI2cU",
    "maps_url": "https://www.google.com/maps/place/?q=place_id:ChIJ72xICsMZE2sR_OCjs-nI2cU"
  },
  {
    "name": "The Illawarra Dance Academy",
    "address": "36/7 Waynote Pl, Unanderra NSW 2526, Australia",
    "suburb": "Unanderra NSW 2526",
    "state": "NSW",
    "rating": 5,
    "reviews": 34,
    "lat": -34.4610393,
    "lng": 150.864412,
    "place_id": "ChIJqTALKhQXE2sRma6imBvPQxE",
    "maps_url": "https://www.google.com/maps/place/?q=place_id:ChIJqTALKhQXE2sRma6imBvPQxE"
  },
  {
    "name": "Dance Factor by Jessica Walker",
    "address": "11 Warehouse Pl, Berkeley NSW 2506, Australia",
    "suburb": "Berkeley NSW 2506",
    "state": "NSW",
    "rating": 5,
    "reviews": 114,
    "lat": -34.4654374,
    "lng": 150.8571297,
    "place_id": "ChIJWU5xH7wQE2sR00DtMxCRc-Y",
    "maps_url": "https://www.google.com/maps/place/?q=place_id:ChIJWU5xH7wQE2sR00DtMxCRc-Y"
  },
  {
    "name": "Evolve Performance Studios",
    "address": "4/12-14 Pringle Rd, Fernhill NSW 2519, Australia",
    "suburb": "Fernhill NSW 2519",
    "state": "NSW",
    "rating": 5,
    "reviews": 46,
    "lat": -34.3856372,
    "lng": 150.8916152,
    "place_id": "ChIJBbNtFLAZE2sRuw4YlVPvdZo",
    "maps_url": "https://www.google.com/maps/place/?q=place_id:ChIJBbNtFLAZE2sRuw4YlVPvdZo"
  },
  {
    "name": "Joanne Grace School of Dance",
    "address": "88-92 Jardine St, Fairy Meadow NSW 2519, Australia",
    "suburb": "Fairy Meadow NSW 2519",
    "state": "NSW",
    "rating": 5,
    "reviews": 43,
    "lat": -34.3880756,
    "lng": 150.891556,
    "place_id": "ChIJe6eYQTAZE2sRkOQUJCpeTP0",
    "maps_url": "https://www.google.com/maps/place/?q=place_id:ChIJe6eYQTAZE2sRkOQUJCpeTP0"
  },
  {
    "name": "Wollongong Latin Dance WLD",
    "address": "13 Northfields Ave, Keiraville NSW 2522, Australia",
    "suburb": "Keiraville NSW 2522",
    "state": "NSW",
    "rating": 5,
    "reviews": 18,
    "lat": -34.4086205,
    "lng": 150.8806349,
    "place_id": "ChIJR3MFVCcZE2sRvwNqpgjfEXQ",
    "maps_url": "https://www.google.com/maps/place/?q=place_id:ChIJR3MFVCcZE2sRvwNqpgjfEXQ"
  },
  {
    "name": "VPA STUDIOS",
    "address": "1 O'Neil St, Unanderra NSW 2526, Australia",
    "suburb": "Unanderra NSW 2526",
    "state": "NSW",
    "rating": 5,
    "reviews": 50,
    "lat": -34.4489146,
    "lng": 150.8512685,
    "place_id": "ChIJYQQliQcaE2sRcZ8gkecCOto",
    "maps_url": "https://www.google.com/maps/place/?q=place_id:ChIJYQQliQcaE2sRcZ8gkecCOto"
  },
  {
    "name": "Miss Amber Dance Academy",
    "address": "11 Glebe St, Wollongong NSW 2500, Australia",
    "suburb": "Wollongong NSW 2500",
    "state": "NSW",
    "rating": 5,
    "reviews": 1,
    "lat": -34.4316836,
    "lng": 150.896967,
    "place_id": "ChIJ7-p9SjEZE2sRbiEDD6bPqw4",
    "maps_url": "https://www.google.com/maps/place/?q=place_id:ChIJ7-p9SjEZE2sRbiEDD6bPqw4"
  },
  {
    "name": "PhysiPole Studios Wollongong",
    "address": "88 Kenny St, Wollongong NSW 2500, Australia",
    "suburb": "Wollongong NSW 2500",
    "state": "NSW",
    "rating": 5,
    "reviews": 23,
    "lat": -34.4337497,
    "lng": 150.8905785,
    "place_id": "ChIJESxPjVwZE2sRAxTysISUVr4",
    "maps_url": "https://www.google.com/maps/place/?q=place_id:ChIJESxPjVwZE2sRAxTysISUVr4"
  },
  {
    "name": "iDance Performing Arts Studio",
    "address": "1/106A Industrial Rd, Oak Flats NSW 2529, Australia",
    "suburb": "Oak Flats NSW 2529",
    "state": "NSW",
    "rating": 4.9,
    "reviews": 58,
    "lat": -34.5692903,
    "lng": 150.8147314,
    "place_id": "ChIJsdAQhwITE2sRL9-L7ZvBbW8",
    "maps_url": "https://www.google.com/maps/place/?q=place_id:ChIJsdAQhwITE2sRL9-L7ZvBbW8"
  },
  {
    "name": "Dance Sensations",
    "address": "2/32 Addison St, Shellharbour NSW 2529, Australia",
    "suburb": "Shellharbour NSW 2529",
    "state": "NSW",
    "rating": 4.9,
    "reviews": 141,
    "lat": -34.5794189,
    "lng": 150.866292,
    "place_id": "ChIJqxH3T4EUE2sRcDgPcsfW0AY",
    "maps_url": "https://www.google.com/maps/place/?q=place_id:ChIJqxH3T4EUE2sRcDgPcsfW0AY"
  },
  {
    "name": "Central Coast Dance Centre",
    "address": "Suite 17c/8-12 Karalta Rd, Erina NSW 2250, Australia",
    "suburb": "Erina NSW 2250",
    "state": "NSW",
    "rating": 5,
    "reviews": 44,
    "lat": -33.4381267,
    "lng": 151.3848937,
    "place_id": "ChIJs5l7jXPKcmsRy0SGwHV45II",
    "maps_url": "https://www.google.com/maps/place/?q=place_id:ChIJs5l7jXPKcmsRy0SGwHV45II"
  },
  {
    "name": "Simone's School of Performing Arts",
    "address": "2/10 Bon-Mace Cl, Tumbi Umbi NSW 2261, Australia",
    "suburb": "Tumbi Umbi NSW 2261",
    "state": "NSW",
    "rating": 5,
    "reviews": 61,
    "lat": -33.3588222,
    "lng": 151.4416476,
    "place_id": "ChIJWbcPyLjOcmsRS1hn0lk2l4E",
    "maps_url": "https://www.google.com/maps/place/?q=place_id:ChIJWbcPyLjOcmsRS1hn0lk2l4E"
  },
  {
    "name": "Elite Dance",
    "address": "3/7 Comserv Cl, West Gosford NSW 2250, Australia",
    "suburb": "West Gosford NSW 2250",
    "state": "NSW",
    "rating": 4.9,
    "reviews": 10,
    "lat": -33.4130375,
    "lng": 151.323375,
    "place_id": "ChIJyQIj2xnLcmsR2m_64MRk2Xg",
    "maps_url": "https://www.google.com/maps/place/?q=place_id:ChIJyQIj2xnLcmsR2m_64MRk2Xg"
  },
  {
    "name": "Central Coast Salsa",
    "address": "Suite 17c/8-12 Karalta Rd, Erina NSW 2250, Australia",
    "suburb": "Erina NSW 2250",
    "state": "NSW",
    "rating": 4.7,
    "reviews": 64,
    "lat": -33.4381267,
    "lng": 151.3848937,
    "place_id": "ChIJ89DM93PKcmsRB4uEKvzoSd8",
    "maps_url": "https://www.google.com/maps/place/?q=place_id:ChIJ89DM93PKcmsRB4uEKvzoSd8"
  },
  {
    "name": "Milk Dance Studios",
    "address": "9/210 The Entrance Rd, Erina NSW 2250, Australia",
    "suburb": "Erina NSW 2250",
    "state": "NSW",
    "rating": 5,
    "reviews": 11,
    "lat": -33.4350404,
    "lng": 151.3872096,
    "place_id": "ChIJefvID1TLcmsRwRu0NaJxtsY",
    "maps_url": "https://www.google.com/maps/place/?q=place_id:ChIJefvID1TLcmsRwRu0NaJxtsY"
  },
  {
    "name": "Central Coast Dance Studio",
    "address": "1/27 Arizona Rd, Charmhaven NSW 2263, Australia",
    "suburb": "Charmhaven NSW 2263",
    "state": "NSW",
    "rating": 5,
    "reviews": 3,
    "lat": -33.240206,
    "lng": 151.4932298,
    "place_id": "ChIJP2uLIF_XcmsRBdXfruGQLrk",
    "maps_url": "https://www.google.com/maps/place/?q=place_id:ChIJP2uLIF_XcmsRBdXfruGQLrk"
  },
  {
    "name": "Up Tempo Dance Studios",
    "address": "2/11 Brooks Ave, Wyoming NSW 2250, Australia",
    "suburb": "Wyoming NSW 2250",
    "state": "NSW",
    "rating": 5,
    "reviews": 20,
    "lat": -33.4017631,
    "lng": 151.3470531,
    "place_id": "ChIJG973ZG7LcmsRz299xoyslqk",
    "maps_url": "https://www.google.com/maps/place/?q=place_id:ChIJG973ZG7LcmsRz299xoyslqk"
  },
  {
    "name": "Dancenergy",
    "address": "A/10 Bilinga Rd, Kincumber NSW 2251, Australia",
    "suburb": "Kincumber NSW 2251",
    "state": "NSW",
    "rating": 5,
    "reviews": 24,
    "lat": -33.4740224,
    "lng": 151.3896852,
    "place_id": "ChIJK4B2p7C1cmsRd-ckVmM96UY",
    "maps_url": "https://www.google.com/maps/place/?q=place_id:ChIJK4B2p7C1cmsRd-ckVmM96UY"
  },
  {
    "name": "Central Academy",
    "address": "Unit 4/4 Enterprise Cl, West Gosford NSW 2250, Australia",
    "suburb": "West Gosford NSW 2250",
    "state": "NSW",
    "rating": 5,
    "reviews": 11,
    "lat": -33.4127656,
    "lng": 151.3310919,
    "place_id": "ChIJhzyWw27LcmsRTfrGoXoKw-U",
    "maps_url": "https://www.google.com/maps/place/?q=place_id:ChIJhzyWw27LcmsRTfrGoXoKw-U"
  },
  {
    "name": "Dance Power",
    "address": "312 The Entrance Rd, Long Jetty NSW 2261, Australia",
    "suburb": "Long Jetty NSW 2261",
    "state": "NSW",
    "rating": 4.8,
    "reviews": 42,
    "lat": -33.358044,
    "lng": 151.485753,
    "place_id": "ChIJueeb9BPPcmsRXFO13I3H5jQ",
    "maps_url": "https://www.google.com/maps/place/?q=place_id:ChIJueeb9BPPcmsRXFO13I3H5jQ"
  },
  {
    "name": "Luminous Dance Company",
    "address": "5/6 Corella Cl, Berkeley Vale NSW 2261, Australia",
    "suburb": "Berkeley Vale NSW 2261",
    "state": "NSW",
    "rating": 5,
    "reviews": 10,
    "lat": -33.3287853,
    "lng": 151.4143205,
    "place_id": "ChIJ2Vi_k53NcmsRnk7lD59Ay3A",
    "maps_url": "https://www.google.com/maps/place/?q=place_id:ChIJ2Vi_k53NcmsRnk7lD59Ay3A"
  },
  {
    "name": "Fontaine Academy of Dance Central Coast 2250 - Best Dance School, Classes, Lessons Gosford",
    "address": "Russell Drysdale St, East Gosford NSW 2250, Australia",
    "suburb": "East Gosford NSW 2250",
    "state": "NSW",
    "rating": 5,
    "reviews": 7,
    "lat": -33.4385167,
    "lng": 151.3494171,
    "place_id": "ChIJE4gr8dPLcmsRxUQJmF267UY",
    "maps_url": "https://www.google.com/maps/place/?q=place_id:ChIJE4gr8dPLcmsRxUQJmF267UY"
  },
  {
    "name": "Evolve Performing Arts Company",
    "address": "B8/4 Dulmison Ave, Wyong NSW 2259, Australia",
    "suburb": "Wyong NSW 2259",
    "state": "NSW",
    "rating": 5,
    "reviews": 29,
    "lat": -33.2678255,
    "lng": 151.4387179,
    "place_id": "ChIJ_xy_xa3QcmsR8emh6jhxw8A",
    "maps_url": "https://www.google.com/maps/place/?q=place_id:ChIJ_xy_xa3QcmsR8emh6jhxw8A"
  },
  {
    "name": "Blue Suede Shoes Dance School",
    "address": "217 Albany St N, Gosford NSW 2250, Australia",
    "suburb": "Gosford NSW 2250",
    "state": "NSW",
    "rating": 5,
    "reviews": 6,
    "lat": -33.4265374,
    "lng": 151.3471322,
    "place_id": "ChIJ58-_1qPKcmsRJS8vL5oBMPI",
    "maps_url": "https://www.google.com/maps/place/?q=place_id:ChIJ58-_1qPKcmsRJS8vL5oBMPI"
  },
  {
    "name": "Dance @ Nikki Webster",
    "address": "Shop 1/310 The Entrance Rd, Erina NSW 2250, Australia",
    "suburb": "Erina NSW 2250",
    "state": "NSW",
    "rating": 4.7,
    "reviews": 33,
    "lat": -33.4282191,
    "lng": 151.39537,
    "place_id": "ChIJFaaYYGvKcmsRbGX4_Rr9NPk",
    "maps_url": "https://www.google.com/maps/place/?q=place_id:ChIJFaaYYGvKcmsRbGX4_Rr9NPk"
  },
  {
    "name": "The Academy Australia",
    "address": "7b Pioneer Ave, Tuggerah NSW 2259, Australia",
    "suburb": "Tuggerah NSW 2259",
    "state": "NSW",
    "rating": 5,
    "reviews": 9,
    "lat": -33.3180378,
    "lng": 151.4231648,
    "place_id": "ChIJlXH3JRTPcmsRfpGuGL_1aWg",
    "maps_url": "https://www.google.com/maps/place/?q=place_id:ChIJlXH3JRTPcmsRfpGuGL_1aWg"
  },
  {
    "name": "Cathy Makin Dance Academy",
    "address": "229C Main Rd, Toukley NSW 2263, Australia",
    "suburb": "Toukley NSW 2263",
    "state": "NSW",
    "rating": 4.8,
    "reviews": 22,
    "lat": -33.2641187,
    "lng": 151.5402292,
    "place_id": "ChIJ7znS1lzacmsRStvMmlZ8Itc",
    "maps_url": "https://www.google.com/maps/place/?q=place_id:ChIJ7znS1lzacmsRStvMmlZ8Itc"
  },
  {
    "name": "Adult Dance Collective",
    "address": "3/7 Comserv Cl, West Gosford NSW 2250, Australia",
    "suburb": "West Gosford NSW 2250",
    "state": "NSW",
    "rating": 5,
    "reviews": 2,
    "lat": -33.4130256,
    "lng": 151.3235977,
    "place_id": "ChIJB6FEubw1DWsR1ItyRA5RTZU",
    "maps_url": "https://www.google.com/maps/place/?q=place_id:ChIJB6FEubw1DWsR1ItyRA5RTZU"
  },
  {
    "name": "Ballroom Dance-in Studio",
    "address": "33 Arunta Ave, Kariong NSW 2250, Australia",
    "suburb": "Kariong NSW 2250",
    "state": "NSW",
    "rating": 5,
    "reviews": 2,
    "lat": -33.4375,
    "lng": 151.2952778,
    "place_id": "ChIJiWLdXZFKDWsRCCCZooH7YY4",
    "maps_url": "https://www.google.com/maps/place/?q=place_id:ChIJiWLdXZFKDWsRCCCZooH7YY4"
  },
  {
    "name": "THE CMPNY",
    "address": "2/3 Fairmile Cl, Charmhaven NSW 2263, Australia",
    "suburb": "Charmhaven NSW 2263",
    "state": "NSW",
    "rating": 5,
    "reviews": 6,
    "lat": -33.23927949999999,
    "lng": 151.4940252,
    "place_id": "ChIJ7UyzSZzQcmsR2pgGFQ07Tls",
    "maps_url": "https://www.google.com/maps/place/?q=place_id:ChIJ7UyzSZzQcmsR2pgGFQ07Tls"
  },
  {
    "name": "All Star Dance and Entertainment Studios",
    "address": "Unit 1/Lot 17 Richmond Rd, Kingswood NSW 2747, Australia",
    "suburb": "Kingswood NSW 2747",
    "state": "NSW",
    "rating": 5,
    "reviews": 26,
    "lat": -33.7529508,
    "lng": 150.7187786,
    "place_id": "ChIJiczrKp2FEmsR0Lqck6InVSs",
    "maps_url": "https://www.google.com/maps/place/?q=place_id:ChIJiczrKp2FEmsR0Lqck6InVSs"
  },
  {
    "name": "PAWS Studios",
    "address": "3/92-94 Batt St, South Penrith NSW 2750, Australia",
    "suburb": "South Penrith NSW 2750",
    "state": "NSW",
    "rating": 4.9,
    "reviews": 33,
    "lat": -33.768176,
    "lng": 150.683914,
    "place_id": "ChIJvfAcH0-PEmsRObapqaF4ccY",
    "maps_url": "https://www.google.com/maps/place/?q=place_id:ChIJvfAcH0-PEmsRObapqaF4ccY"
  },
  {
    "name": "A-Live Performing Arts",
    "address": "4/12 Robertson Pl, Jamisontown NSW 2750, Australia",
    "suburb": "Jamisontown NSW 2750",
    "state": "NSW",
    "rating": 5,
    "reviews": 14,
    "lat": -33.7683207,
    "lng": 150.6819078,
    "place_id": "ChIJaWreWPOFEmsRenGMd1FmfsY",
    "maps_url": "https://www.google.com/maps/place/?q=place_id:ChIJaWreWPOFEmsRenGMd1FmfsY"
  },
  {
    "name": "Excite Dance And Cheer",
    "address": "1&3/51 York Rd, South Penrith NSW 2750, Australia",
    "suburb": "South Penrith NSW 2750",
    "state": "NSW",
    "rating": 5,
    "reviews": 32,
    "lat": -33.7663624,
    "lng": 150.6880432,
    "place_id": "ChIJPQRvIdSIEmsRbIMPZBSY9To",
    "maps_url": "https://www.google.com/maps/place/?q=place_id:ChIJPQRvIdSIEmsRbIMPZBSY9To"
  },
  {
    "name": "Westside Performing Arts",
    "address": "23/37-47 Borec Rd, Penrith NSW 2750, Australia",
    "suburb": "Penrith NSW 2750",
    "state": "NSW",
    "rating": 4.8,
    "reviews": 21,
    "lat": -33.7371139,
    "lng": 150.6896057,
    "place_id": "ChIJm6pesumFEmsRW63goV52Ju4",
    "maps_url": "https://www.google.com/maps/place/?q=place_id:ChIJm6pesumFEmsRW63goV52Ju4"
  },
  {
    "name": "Blockwork Dance Studios",
    "address": "26, Unit 25 & 26/34 Abel St, Jamisontown NSW 2750, Australia",
    "suburb": "Unit 25 & 26/34 Abel St",
    "state": "NSW",
    "rating": 5,
    "reviews": 4,
    "lat": -33.7655444,
    "lng": 150.6859076,
    "place_id": "ChIJA6spauaeEmsRIfjdlGyqklY",
    "maps_url": "https://www.google.com/maps/place/?q=place_id:ChIJA6spauaeEmsRIfjdlGyqklY"
  },
  {
    "name": "Velocity Performing Arts",
    "address": "Unit 2/4 Robertson Pl, Jamisontown NSW 2750, Australia",
    "suburb": "Jamisontown NSW 2750",
    "state": "NSW",
    "rating": 5,
    "reviews": 21,
    "lat": -33.7685942,
    "lng": 150.6832691,
    "place_id": "ChIJJw3Mb0WPEmsRdBeC0M1y7Wk",
    "maps_url": "https://www.google.com/maps/place/?q=place_id:ChIJJw3Mb0WPEmsRdBeC0M1y7Wk"
  },
  {
    "name": "Dance On Pointe",
    "address": "6/31 Attunga Rd, Blaxland NSW 2774, Australia",
    "suburb": "Blaxland NSW 2774",
    "state": "NSW",
    "rating": 5,
    "reviews": 151,
    "lat": -33.7372767,
    "lng": 150.6125069,
    "place_id": "ChIJVVXFb3aIEmsRk6ZhLgaB-co",
    "maps_url": "https://www.google.com/maps/place/?q=place_id:ChIJVVXFb3aIEmsRk6ZhLgaB-co"
  },
  {
    "name": "Penrith Adult Dance",
    "address": "Unit 25/34-36 Abel St, Jamisontown NSW 2750, Australia",
    "suburb": "Jamisontown NSW 2750",
    "state": "NSW",
    "rating": null,
    "reviews": 0,
    "lat": -33.7656056,
    "lng": 150.6849865,
    "place_id": "ChIJ0-k-yLCPEmsRnNz_sbHaBec",
    "maps_url": "https://www.google.com/maps/place/?q=place_id:ChIJ0-k-yLCPEmsRnNz_sbHaBec"
  },
  {
    "name": "Penrith Ballroom Dance",
    "address": "7/42-44 Abel St, Penrith NSW 2750, Australia",
    "suburb": "Penrith NSW 2750",
    "state": "NSW",
    "rating": 4.7,
    "reviews": 13,
    "lat": -33.7659917,
    "lng": 150.6844887,
    "place_id": "ChIJ73hosE-PEmsRv6QJFrJkv8Y",
    "maps_url": "https://www.google.com/maps/place/?q=place_id:ChIJ73hosE-PEmsRv6QJFrJkv8Y"
  },
  {
    "name": "Brosnan Academy of Irish Dance",
    "address": "26, Unit 25 & 26/34-36 Abel St, Penrith NSW 2750, Australia",
    "suburb": "Unit 25 & 26/34-36 Abel St",
    "state": "NSW",
    "rating": 5,
    "reviews": 6,
    "lat": -33.7650085,
    "lng": 150.6847137,
    "place_id": "ChIJ43GtE9SPEmsRkqUSFLQPX0k",
    "maps_url": "https://www.google.com/maps/place/?q=place_id:ChIJ43GtE9SPEmsRkqUSFLQPX0k"
  },
  {
    "name": "Sydney Pole (Penrith)",
    "address": "1B/62-72 Batt St, Jamisontown NSW 2750, Australia",
    "suburb": "Jamisontown NSW 2750",
    "state": "NSW",
    "rating": 4.6,
    "reviews": 29,
    "lat": -33.7684164,
    "lng": 150.6857658,
    "place_id": "ChIJgTEYZ0-PEmsRmHfHOF5qnaA",
    "maps_url": "https://www.google.com/maps/place/?q=place_id:ChIJgTEYZ0-PEmsRmHfHOF5qnaA"
  },
  {
    "name": "Latin Fusion Dance Academy",
    "address": "8 Tindale St, Penrith NSW 2750, Australia",
    "suburb": "Penrith NSW 2750",
    "state": "NSW",
    "rating": 5,
    "reviews": 3,
    "lat": -33.75570039999999,
    "lng": 150.6982897,
    "place_id": "ChIJz1UHjw2FEmsR8r21cpWYav4",
    "maps_url": "https://www.google.com/maps/place/?q=place_id:ChIJz1UHjw2FEmsR8r21cpWYav4"
  },
  {
    "name": "Sally K Dance",
    "address": "2 Mackellar St, Emu Plains NSW 2750, Australia",
    "suburb": "Emu Plains NSW 2750",
    "state": "NSW",
    "rating": 5,
    "reviews": 32,
    "lat": -33.74531590000001,
    "lng": 150.6710178,
    "place_id": "ChIJIZIzvWCHEmsRwKfQhrX-f5Y",
    "maps_url": "https://www.google.com/maps/place/?q=place_id:ChIJIZIzvWCHEmsRwKfQhrX-f5Y"
  },
  {
    "name": "The Heights Dance and Cheer",
    "address": "Unit 2/8 Bromley Rd, Emu Heights NSW 2750, Australia",
    "suburb": "Emu Heights NSW 2750",
    "state": "NSW",
    "rating": 5,
    "reviews": 6,
    "lat": -33.7454284,
    "lng": 150.6531876,
    "place_id": "ChIJBZ7q3biHEmsRSjG2eXePgEQ",
    "maps_url": "https://www.google.com/maps/place/?q=place_id:ChIJBZ7q3biHEmsRSjG2eXePgEQ"
  },
  {
    "name": "Reign Elite",
    "address": "18 Coombes Dr, Penrith NSW 2750, Australia",
    "suburb": "Penrith NSW 2750",
    "state": "NSW",
    "rating": 4.9,
    "reviews": 18,
    "lat": -33.7433508,
    "lng": 150.6992136,
    "place_id": "ChIJ265qVMGFEmsRns3GV9V-KlE",
    "maps_url": "https://www.google.com/maps/place/?q=place_id:ChIJ265qVMGFEmsRns3GV9V-KlE"
  },
  {
    "name": "Penrith Gaels Maher Lenihan Irish Dance",
    "address": "75 Richmond Road corner, Glebe Pl, Kingswood NSW 2747, Australia",
    "suburb": "Glebe Pl",
    "state": "NSW",
    "rating": 5,
    "reviews": 10,
    "lat": -33.7522889,
    "lng": 150.7181187,
    "place_id": "ChIJf2neWPOFEmsRlwY05kxm0YI",
    "maps_url": "https://www.google.com/maps/place/?q=place_id:ChIJf2neWPOFEmsRlwY05kxm0YI"
  },
  {
    "name": "Creative Dance Academy Jordan Springs - Kids Classes Sydney",
    "address": "Community Hub, 2/6 Cullen Ave, Jordan Springs NSW 2747, Australia",
    "suburb": "2/6 Cullen Ave",
    "state": "NSW",
    "rating": 5,
    "reviews": 11,
    "lat": -33.7258459,
    "lng": 150.7261113,
    "place_id": "ChIJ-_Ach1OFEmsRttE-ZLoqhrs",
    "maps_url": "https://www.google.com/maps/place/?q=place_id:ChIJ-_Ach1OFEmsRttE-ZLoqhrs"
  },
  {
    "name": "St Marys Dance Centre",
    "address": "7 Castlereagh St, Penrith NSW 2751, Australia",
    "suburb": "Penrith NSW 2751",
    "state": "NSW",
    "rating": null,
    "reviews": 0,
    "lat": -33.7546525,
    "lng": 150.6988988,
    "place_id": "ChIJYQ7BMIuFEmsRN52DPOwUDW8",
    "maps_url": "https://www.google.com/maps/place/?q=place_id:ChIJYQ7BMIuFEmsRN52DPOwUDW8"
  },
  {
    "name": "Castle Hill Dance Studio & Venue Hire",
    "address": "10/5 Gladstone Rd, Castle Hill NSW 2158, Australia",
    "suburb": "Castle Hill NSW 2158",
    "state": "NSW",
    "rating": 5,
    "reviews": 210,
    "lat": -33.7314891,
    "lng": 150.9773888,
    "place_id": "ChIJQQRnTRihEmsRK1GoXafwAiY",
    "maps_url": "https://www.google.com/maps/place/?q=place_id:ChIJQQRnTRihEmsRK1GoXafwAiY"
  },
  {
    "name": "Spark Studio Blacktown",
    "address": "2A Bessemer St, Blacktown NSW 2148, Australia",
    "suburb": "Blacktown NSW 2148",
    "state": "NSW",
    "rating": 5,
    "reviews": 15,
    "lat": -33.75702649999999,
    "lng": 150.9127374,
    "place_id": "ChIJnQed5E2ZEmsREqLxLsegjbI",
    "maps_url": "https://www.google.com/maps/place/?q=place_id:ChIJnQed5E2ZEmsREqLxLsegjbI"
  },
  {
    "name": "Rec Stars Dance Studio | Recreational Dance Classes",
    "address": "Max Webber Library Function Centre, Level 1/61 Flushcombe Rd, Blacktown NSW 2148, Australia",
    "suburb": "Level 1/61 Flushcombe Rd",
    "state": "NSW",
    "rating": 4.7,
    "reviews": 31,
    "lat": -33.7713899,
    "lng": 150.9079042,
    "place_id": "ChIJrfC4gceZEmsRmQwUHyT9JGE",
    "maps_url": "https://www.google.com/maps/place/?q=place_id:ChIJrfC4gceZEmsRmQwUHyT9JGE"
  },
  {
    "name": "Aquarius Dancers",
    "address": "30 Second Ave, Blacktown NSW 2148, Australia",
    "suburb": "Blacktown NSW 2148",
    "state": "NSW",
    "rating": 4.9,
    "reviews": 16,
    "lat": -33.7665055,
    "lng": 150.9090605,
    "place_id": "ChIJbxF5df6YEmsRIdKcrhONI78",
    "maps_url": "https://www.google.com/maps/place/?q=place_id:ChIJbxF5df6YEmsRIdKcrhONI78"
  },
  {
    "name": "Powerhouse Dance Factory",
    "address": "17/36 Abbott Rd, Seven Hills NSW 2147, Australia",
    "suburb": "Seven Hills NSW 2147",
    "state": "NSW",
    "rating": 4.9,
    "reviews": 93,
    "lat": -33.7674355,
    "lng": 150.9544491,
    "place_id": "ChIJH6oe-HWiEmsRfjoS6nrmXug",
    "maps_url": "https://www.google.com/maps/place/?q=place_id:ChIJH6oe-HWiEmsRfjoS6nrmXug"
  },
  {
    "name": "KCC Dance Studio",
    "address": "114 Station Rd, Seven Hills NSW 2147, Australia",
    "suburb": "Seven Hills NSW 2147",
    "state": "NSW",
    "rating": 5,
    "reviews": 24,
    "lat": -33.7728777,
    "lng": 150.9432339,
    "place_id": "ChIJOc3lpSeZEmsRznYX4oHshwo",
    "maps_url": "https://www.google.com/maps/place/?q=place_id:ChIJOc3lpSeZEmsRznYX4oHshwo"
  },
  {
    "name": "Innovative Dance Co",
    "address": "Shelley Primary School, Hadrian Ave, Blacktown NSW 2148, Australia",
    "suburb": "Hadrian Ave",
    "state": "NSW",
    "rating": 5,
    "reviews": 30,
    "lat": -33.788859,
    "lng": 150.917153,
    "place_id": "ChIJyTVbz_-YEmsRtx13YSrPJb4",
    "maps_url": "https://www.google.com/maps/place/?q=place_id:ChIJyTVbz_-YEmsRtx13YSrPJb4"
  },
  {
    "name": "Studio Dance Australia",
    "address": "11/2 Garling Rd, Kings Park NSW 2148, Australia",
    "suburb": "Kings Park NSW 2148",
    "state": "NSW",
    "rating": 4.6,
    "reviews": 9,
    "lat": -33.7456142,
    "lng": 150.9154907,
    "place_id": "ChIJEx0YrtuYEmsRRxKhOiclFIw",
    "maps_url": "https://www.google.com/maps/place/?q=place_id:ChIJEx0YrtuYEmsRRxKhOiclFIw"
  },
  {
    "name": "Static Dance Studios",
    "address": "2/7 Enterprise Dr, Glendenning NSW 2761, Australia",
    "suburb": "Glendenning NSW 2761",
    "state": "NSW",
    "rating": 4.9,
    "reviews": 122,
    "lat": -33.7457213,
    "lng": 150.8495,
    "place_id": "ChIJy_B7fLqfEmsRbrHlxTYiyis",
    "maps_url": "https://www.google.com/maps/place/?q=place_id:ChIJy_B7fLqfEmsRbrHlxTYiyis"
  },
  {
    "name": "Creative Dance Academy Blacktown - Kids Dance Classes",
    "address": "Blacktown Leisure Centre Stanhope Pkwy &, Sentry Dr, Stanhope Gardens NSW 2768, Australia",
    "suburb": "Sentry Dr",
    "state": "NSW",
    "rating": 4.4,
    "reviews": 22,
    "lat": -33.7195892,
    "lng": 150.9226628,
    "place_id": "ChIJs4mG2pifEmsRMejiKYkCOZ0",
    "maps_url": "https://www.google.com/maps/place/?q=place_id:ChIJs4mG2pifEmsRMejiKYkCOZ0"
  },
  {
    "name": "Raz Studios",
    "address": "6/38-40 Railway Rd, Marayong NSW 2148, Australia",
    "suburb": "Marayong NSW 2148",
    "state": "NSW",
    "rating": 5,
    "reviews": 13,
    "lat": -33.74769,
    "lng": 150.899667,
    "place_id": "ChIJT3jlaCKZEmsRSEZYy8CoJng",
    "maps_url": "https://www.google.com/maps/place/?q=place_id:ChIJT3jlaCKZEmsRSEZYy8CoJng"
  },
  {
    "name": "2Step Dance Studio",
    "address": "3/10 Tollis Pl, Seven Hills NSW 2147, Australia",
    "suburb": "Seven Hills NSW 2147",
    "state": "NSW",
    "rating": 4.7,
    "reviews": 22,
    "lat": -33.778067,
    "lng": 150.948022,
    "place_id": "ChIJndiBzIaYEmsRKGXs3Bu2I4U",
    "maps_url": "https://www.google.com/maps/place/?q=place_id:ChIJndiBzIaYEmsRKGXs3Bu2I4U"
  },
  {
    "name": "Entertainment Works",
    "address": "102 Station Rd, Seven Hills NSW 2147, Australia",
    "suburb": "Seven Hills NSW 2147",
    "state": "NSW",
    "rating": 5,
    "reviews": 23,
    "lat": -33.7748352,
    "lng": 150.9443248,
    "place_id": "ChIJ-7iDiBaZEmsRblu7dcuLEtk",
    "maps_url": "https://www.google.com/maps/place/?q=place_id:ChIJ-7iDiBaZEmsRblu7dcuLEtk"
  },
  {
    "name": "Sonja Dene Dance Studios | Dance Classes Hills District",
    "address": "2/18 Anvil Rd, Seven Hills NSW 2147, Australia",
    "suburb": "Seven Hills NSW 2147",
    "state": "NSW",
    "rating": 4.9,
    "reviews": 62,
    "lat": -33.778514,
    "lng": 150.957969,
    "place_id": "ChIJk5XYNnmiEmsR7IqnphvNjSA",
    "maps_url": "https://www.google.com/maps/place/?q=place_id:ChIJk5XYNnmiEmsR7IqnphvNjSA"
  },
  {
    "name": "Stargazer Pole Studio",
    "address": "Unit 106/69 Holbeche Rd, Arndell Park NSW 2148, Australia",
    "suburb": "Arndell Park NSW 2148",
    "state": "NSW",
    "rating": 5,
    "reviews": 70,
    "lat": -33.7891244,
    "lng": 150.8893323,
    "place_id": "ChIJJV4UO4CeEmsRrn7NAgxC1Qg",
    "maps_url": "https://www.google.com/maps/place/?q=place_id:ChIJJV4UO4CeEmsRrn7NAgxC1Qg"
  },
  {
    "name": "Legacy Dance Academy",
    "address": "102 Station Rd, Seven Hills NSW 2147, Australia",
    "suburb": "Seven Hills NSW 2147",
    "state": "NSW",
    "rating": 5,
    "reviews": 5,
    "lat": -33.7748536,
    "lng": 150.9443243,
    "place_id": "ChIJmXI_EXqZEmsRpce7Yl3byjk",
    "maps_url": "https://www.google.com/maps/place/?q=place_id:ChIJmXI_EXqZEmsRpce7Yl3byjk"
  },
  {
    "name": "SG Dance",
    "address": "20 Sir Hercules Parade, Bungarribee NSW 2767, Australia",
    "suburb": "Bungarribee NSW 2767",
    "state": "NSW",
    "rating": 4.6,
    "reviews": 42,
    "lat": -33.7784706,
    "lng": 150.8724303,
    "place_id": "ChIJAQDQ9Y2ZEmsR8F6JYo4wvMY",
    "maps_url": "https://www.google.com/maps/place/?q=place_id:ChIJAQDQ9Y2ZEmsR8F6JYo4wvMY"
  },
  {
    "name": "Rhythm Of Bhangra Academy",
    "address": "2A Bessemer St, Blacktown NSW 2148, Australia",
    "suburb": "Blacktown NSW 2148",
    "state": "NSW",
    "rating": 5,
    "reviews": 9,
    "lat": -33.7570168,
    "lng": 150.9127208,
    "place_id": "ChIJF2Aw_XaZEmsR2AJz46cwYas",
    "maps_url": "https://www.google.com/maps/place/?q=place_id:ChIJF2Aw_XaZEmsR2AJz46cwYas"
  },
  {
    "name": "Jhanak Dance Academy",
    "address": "20 Sir Hercules Parade, Bungarribee NSW 2767, Australia",
    "suburb": "Bungarribee NSW 2767",
    "state": "NSW",
    "rating": 5,
    "reviews": 9,
    "lat": -33.7784354,
    "lng": 150.8723804,
    "place_id": "ChIJuZOlxXeZEmsRJD0k40mj-9g",
    "maps_url": "https://www.google.com/maps/place/?q=place_id:ChIJuZOlxXeZEmsRJD0k40mj-9g"
  },
  {
    "name": "Dance House Studios",
    "address": "14 Abbott Rd, Seven Hills NSW 2147, Australia",
    "suburb": "Seven Hills NSW 2147",
    "state": "NSW",
    "rating": 4.2,
    "reviews": 5,
    "lat": -33.7677607,
    "lng": 150.9485069,
    "place_id": "ChIJDyzK-yeZEmsRa68DTUqY2kE",
    "maps_url": "https://www.google.com/maps/place/?q=place_id:ChIJDyzK-yeZEmsRa68DTUqY2kE"
  },
  {
    "name": "SELECT DANCE CO.",
    "address": "Unit 7/90 Heathcote Rd, Moorebank NSW 2170, Australia",
    "suburb": "Moorebank NSW 2170",
    "state": "NSW",
    "rating": 4.6,
    "reviews": 12,
    "lat": -33.9373159,
    "lng": 150.9379252,
    "place_id": "ChIJR8HB95uVEmsRjNH6HEplLl4",
    "maps_url": "https://www.google.com/maps/place/?q=place_id:ChIJR8HB95uVEmsRjNH6HEplLl4"
  },
  {
    "name": "Step 'N' Style Dance Co",
    "address": "unit 12/46-48 Jedda Rd, Prestons NSW 2170, Australia",
    "suburb": "Prestons NSW 2170",
    "state": "NSW",
    "rating": 4.2,
    "reviews": 38,
    "lat": -33.9358372,
    "lng": 150.888742,
    "place_id": "ChIJ-f-G7vOUEmsRIVAds3PKXWM",
    "maps_url": "https://www.google.com/maps/place/?q=place_id:ChIJ-f-G7vOUEmsRIVAds3PKXWM"
  },
  {
    "name": "Wanderlust Pole Studio",
    "address": "5/125 Castlereagh St, Liverpool NSW 2170, Australia",
    "suburb": "Liverpool NSW 2170",
    "state": "NSW",
    "rating": 5,
    "reviews": 66,
    "lat": -33.9263882,
    "lng": 150.9194795,
    "place_id": "ChIJVU7AWrqVEmsRa0nvzGlywhI",
    "maps_url": "https://www.google.com/maps/place/?q=place_id:ChIJVU7AWrqVEmsRa0nvzGlywhI"
  },
  {
    "name": "Halloran Dance School",
    "address": "1/9 Mitchell Rd, Moorebank NSW 2170, Australia",
    "suburb": "Moorebank NSW 2170",
    "state": "NSW",
    "rating": 5,
    "reviews": 2,
    "lat": -33.9352877,
    "lng": 150.9369785,
    "place_id": "ChIJDb4w2puVEmsRe1hRzD7O73M",
    "maps_url": "https://www.google.com/maps/place/?q=place_id:ChIJDb4w2puVEmsRe1hRzD7O73M"
  },
  {
    "name": "Next Level Performing Arts Prestons",
    "address": "9b/9 Lyn Parade, Prestons NSW 2170, Australia",
    "suburb": "Prestons NSW 2170",
    "state": "NSW",
    "rating": 4.4,
    "reviews": 34,
    "lat": -33.930373,
    "lng": 150.8866635,
    "place_id": "ChIJXUtipvWUEmsRAoolnRT10XI",
    "maps_url": "https://www.google.com/maps/place/?q=place_id:ChIJXUtipvWUEmsRAoolnRT10XI"
  },
  {
    "name": "BSupreme Studios",
    "address": "Unit 3/19 Enterprise Cct, Prestons NSW 2170, Australia",
    "suburb": "Prestons NSW 2170",
    "state": "NSW",
    "rating": 4.9,
    "reviews": 40,
    "lat": -33.9394498,
    "lng": 150.887677,
    "place_id": "ChIJ__-vYe2UEmsR7WscByOtda4",
    "maps_url": "https://www.google.com/maps/place/?q=place_id:ChIJ__-vYe2UEmsR7WscByOtda4"
  },
  {
    "name": "Nadia's Performance Studio",
    "address": "11/369 Victoria St, Wetherill Park NSW 2164, Australia",
    "suburb": "Wetherill Park NSW 2164",
    "state": "NSW",
    "rating": 4.9,
    "reviews": 130,
    "lat": -33.8481491,
    "lng": 150.9045105,
    "place_id": "ChIJe7-a1gCXEmsRKJnW-kTwTZk",
    "maps_url": "https://www.google.com/maps/place/?q=place_id:ChIJe7-a1gCXEmsRKJnW-kTwTZk"
  },
  {
    "name": "Kookies N Kream Dance School",
    "address": "248 Humphries Rd, Bonnyrigg NSW 2177, Australia",
    "suburb": "Bonnyrigg NSW 2177",
    "state": "NSW",
    "rating": 5,
    "reviews": 35,
    "lat": -33.8953926,
    "lng": 150.8975518,
    "place_id": "ChIJ53DPNCmUEmsRifEgxvECWkc",
    "maps_url": "https://www.google.com/maps/place/?q=place_id:ChIJ53DPNCmUEmsRifEgxvECWkc"
  },
  {
    "name": "GY Dance",
    "address": "1/380 Hoxton Park Rd, Prestons NSW 2170, Australia",
    "suburb": "Prestons NSW 2170",
    "state": "NSW",
    "rating": 3.8,
    "reviews": 50,
    "lat": -33.9282914,
    "lng": 150.8805086,
    "place_id": "ChIJRYYRE4qUEmsRhljL4bkCH9A",
    "maps_url": "https://www.google.com/maps/place/?q=place_id:ChIJRYYRE4qUEmsRhljL4bkCH9A"
  },
  {
    "name": "GB Dance Co",
    "address": "2/30 Barry Rd, Chipping Norton NSW 2170, Australia",
    "suburb": "Chipping Norton NSW 2170",
    "state": "NSW",
    "rating": 4.8,
    "reviews": 20,
    "lat": -33.9154357,
    "lng": 150.961682,
    "place_id": "ChIJbfk-VgS-EmsRQiGA3U5Nb5I",
    "maps_url": "https://www.google.com/maps/place/?q=place_id:ChIJbfk-VgS-EmsRQiGA3U5Nb5I"
  },
  {
    "name": "Studio 01 Dance Australia",
    "address": "Community Centre, 5 Sandringham Dr, Cecil Hills NSW 2171, Australia",
    "suburb": "5 Sandringham Dr",
    "state": "NSW",
    "rating": 5,
    "reviews": 4,
    "lat": -33.8876585,
    "lng": 150.8523969,
    "place_id": "ChIJX1SLX-CWEmsR6coX9UT6jaw",
    "maps_url": "https://www.google.com/maps/place/?q=place_id:ChIJX1SLX-CWEmsR6coX9UT6jaw"
  },
  {
    "name": "Dance 4 Fun!",
    "address": "11/112 Ashford Ave, Milperra NSW 2214, Australia",
    "suburb": "Milperra NSW 2214",
    "state": "NSW",
    "rating": 5,
    "reviews": 14,
    "lat": -33.9367221,
    "lng": 150.9879948,
    "place_id": "ChIJc-CBgpW-EmsR8IrLTmPleng",
    "maps_url": "https://www.google.com/maps/place/?q=place_id:ChIJc-CBgpW-EmsR8IrLTmPleng"
  },
  {
    "name": "Matavai Pacific Cultural Arts",
    "address": "66 Hill Rd, Lurnea NSW 2170, Australia",
    "suburb": "Lurnea NSW 2170",
    "state": "NSW",
    "rating": 5,
    "reviews": 50,
    "lat": -33.9326581,
    "lng": 150.8961831,
    "place_id": "ChIJA8p6JPWUEmsRVWLP5APJYd0",
    "maps_url": "https://www.google.com/maps/place/?q=place_id:ChIJA8p6JPWUEmsRVWLP5APJYd0"
  },
  {
    "name": "Latin Fusion Dance Academy",
    "address": "101 Meadows Rd, Mount Pritchard NSW 2170, Australia",
    "suburb": "Mount Pritchard NSW 2170",
    "state": "NSW",
    "rating": 4.8,
    "reviews": 6,
    "lat": -33.8969998,
    "lng": 150.8996481,
    "place_id": "ChIJWcfHfy2VEmsRFPTVl9aYrmY",
    "maps_url": "https://www.google.com/maps/place/?q=place_id:ChIJWcfHfy2VEmsRFPTVl9aYrmY"
  },
  {
    "name": "Studio 5 School Of Dance",
    "address": "Arundle Rd, Bass Hill NSW 2197, Australia",
    "suburb": "Bass Hill NSW 2197",
    "state": "NSW",
    "rating": 4.4,
    "reviews": 7,
    "lat": -33.8993532,
    "lng": 150.9899242,
    "place_id": "ChIJy-x9d5G9EmsRZVM8bNC8MII",
    "maps_url": "https://www.google.com/maps/place/?q=place_id:ChIJy-x9d5G9EmsRZVM8bNC8MII"
  },
  {
    "name": "The Enigma Project Dance Studios",
    "address": "Unit 1/274-276 Hoxton Park Rd, Cartwright NSW 2168, Australia",
    "suburb": "Cartwright NSW 2168",
    "state": "NSW",
    "rating": 4.3,
    "reviews": 6,
    "lat": -33.9288253,
    "lng": 150.8903,
    "place_id": "ChIJV8p5xIeVEmsRhCvGIRqfg90",
    "maps_url": "https://www.google.com/maps/place/?q=place_id:ChIJV8p5xIeVEmsRhCvGIRqfg90"
  },
  {
    "name": "Live Wire Dance Studio",
    "address": "77a Renshaw St, Liverpool L1 2SJ, UK",
    "suburb": "Liverpool L1 2SJ",
    "state": "NSW",
    "rating": 4.5,
    "reviews": 14,
    "lat": 53.4029172,
    "lng": -2.9760693,
    "place_id": "ChIJk5QY5iMhe0gRQYftoS2Dqlo",
    "maps_url": "https://www.google.com/maps/place/?q=place_id:ChIJk5QY5iMhe0gRQYftoS2Dqlo"
  },
  {
    "name": "Trung Han Qun Martial Arts and Lion Dancing Academy",
    "address": "2/117 John St, Cabramatta NSW 2166, Australia",
    "suburb": "Cabramatta NSW 2166",
    "state": "NSW",
    "rating": 4.9,
    "reviews": 52,
    "lat": -33.894515,
    "lng": 150.9340895,
    "place_id": "ChIJT0aiZgyWEmsRhpy2CpoIg1s",
    "maps_url": "https://www.google.com/maps/place/?q=place_id:ChIJT0aiZgyWEmsRhpy2CpoIg1s"
  },
  {
    "name": "Amy Dance Studio",
    "address": "Shop B1A/372 Pennant Hills Rd, Carlingford NSW 2118, Australia",
    "suburb": "Carlingford NSW 2118",
    "state": "NSW",
    "rating": 5,
    "reviews": 8,
    "lat": -33.7791654,
    "lng": 151.0527759,
    "place_id": "ChIJ0au3B12lEmsRRCsBH8sIuRk",
    "maps_url": "https://www.google.com/maps/place/?q=place_id:ChIJ0au3B12lEmsRRCsBH8sIuRk"
  },
  {
    "name": "Urban Country Line Dancing",
    "address": "Unit 1/274-276 Hoxton Park Rd, Prestons NSW 2170, Australia",
    "suburb": "Prestons NSW 2170",
    "state": "NSW",
    "rating": 5,
    "reviews": 11,
    "lat": -33.9288253,
    "lng": 150.8903,
    "place_id": "ChIJzS8vcYyVEmsRvzmS0r8Y__s",
    "maps_url": "https://www.google.com/maps/place/?q=place_id:ChIJzS8vcYyVEmsRvzmS0r8Y__s"
  },
  {
    "name": "Breanna's Academy of Dance (bAd)",
    "address": "9 Patrick St, Campbelltown NSW 2560, Australia",
    "suburb": "Campbelltown NSW 2560",
    "state": "NSW",
    "rating": 4.7,
    "reviews": 44,
    "lat": -34.0656073,
    "lng": 150.8136531,
    "place_id": "ChIJR-3qzVfuEmsRhwgAe9ju6p4",
    "maps_url": "https://www.google.com/maps/place/?q=place_id:ChIJR-3qzVfuEmsRhwgAe9ju6p4"
  },
  {
    "name": "Danceworks Performing Arts Studio",
    "address": "3/7 Mill Rd, Campbelltown NSW 2560, Australia",
    "suburb": "Campbelltown NSW 2560",
    "state": "NSW",
    "rating": 4.6,
    "reviews": 11,
    "lat": -34.0518211,
    "lng": 150.8220935,
    "place_id": "ChIJeTqYhIvvEmsREMmJ5GnGcXM",
    "maps_url": "https://www.google.com/maps/place/?q=place_id:ChIJeTqYhIvvEmsREMmJ5GnGcXM"
  },
  {
    "name": "Jeanette Briggs Dance Academy",
    "address": "Community Hall, Kellerman Dr, St Helens Park NSW 2560, Australia",
    "suburb": "Kellerman Dr",
    "state": "NSW",
    "rating": 4.9,
    "reviews": 90,
    "lat": -34.1089071,
    "lng": 150.8045228,
    "place_id": "ChIJLU7ZRIbvEmsRzcRD1lkpngQ",
    "maps_url": "https://www.google.com/maps/place/?q=place_id:ChIJLU7ZRIbvEmsRzcRD1lkpngQ"
  },
  {
    "name": "STUDIO 3SIXTY",
    "address": "42 Lightwood St, Ambarvale NSW 2560, Australia",
    "suburb": "Ambarvale NSW 2560",
    "state": "NSW",
    "rating": 5,
    "reviews": 20,
    "lat": -34.0926,
    "lng": 150.7903978,
    "place_id": "ChIJH73AP0DvEmsRAYi-vUa_fwI",
    "maps_url": "https://www.google.com/maps/place/?q=place_id:ChIJH73AP0DvEmsRAYi-vUa_fwI"
  },
  {
    "name": "Pride Dance Studio",
    "address": "Factory 1/6 Frost Rd, Campbelltown NSW 2560, Australia",
    "suburb": "Campbelltown NSW 2560",
    "state": "NSW",
    "rating": 5,
    "reviews": 8,
    "lat": -34.0588858,
    "lng": 150.8078783,
    "place_id": "ChIJET4mzT3vEmsRvFhtCruelZU",
    "maps_url": "https://www.google.com/maps/place/?q=place_id:ChIJET4mzT3vEmsRvFhtCruelZU"
  },
  {
    "name": "Dance Magic Academy",
    "address": "65 Woodhouse Dr, Ambarvale NSW 2560, Australia",
    "suburb": "Ambarvale NSW 2560",
    "state": "NSW",
    "rating": 4.6,
    "reviews": 25,
    "lat": -34.0870337,
    "lng": 150.7999227,
    "place_id": "ChIJaRibWLzvEmsRAliFgifoiIk",
    "maps_url": "https://www.google.com/maps/place/?q=place_id:ChIJaRibWLzvEmsRAliFgifoiIk"
  },
  {
    "name": "Triple T Dance",
    "address": "U8, 5/7 Wiltshire St, Minto NSW 2566, Australia",
    "suburb": "5/7 Wiltshire St",
    "state": "NSW",
    "rating": 4.9,
    "reviews": 113,
    "lat": -34.026975,
    "lng": 150.841586,
    "place_id": "ChIJwTwYDSfsEmsRRxgIkw5bEhM",
    "maps_url": "https://www.google.com/maps/place/?q=place_id:ChIJwTwYDSfsEmsRRxgIkw5bEhM"
  },
  {
    "name": "Prodigy Performing Arts",
    "address": "19/24 Anzac Ave, Smeaton Grange NSW 2567, Australia",
    "suburb": "Smeaton Grange NSW 2567",
    "state": "NSW",
    "rating": 4.9,
    "reviews": 185,
    "lat": -34.0404647,
    "lng": 150.7559928,
    "place_id": "ChIJ80MqyMLxEmsR9ncGT3ACsEM",
    "maps_url": "https://www.google.com/maps/place/?q=place_id:ChIJ80MqyMLxEmsR9ncGT3ACsEM"
  },
  {
    "name": "Diamond Dance Academy",
    "address": "77 Jacaranda Ave, Cataract NSW 2560, Australia",
    "suburb": "Cataract NSW 2560",
    "state": "NSW",
    "rating": 5,
    "reviews": 2,
    "lat": -34.085136,
    "lng": 150.813604,
    "place_id": "ChIJq6pqkqfvEmsRwR33_lG_LCw",
    "maps_url": "https://www.google.com/maps/place/?q=place_id:ChIJq6pqkqfvEmsRwR33_lG_LCw"
  },
  {
    "name": "Nerve Dance Company",
    "address": "Sportsground Parade, Appin NSW 2560, Australia",
    "suburb": "Appin NSW 2560",
    "state": "NSW",
    "rating": 4.9,
    "reviews": 29,
    "lat": -34.1950623,
    "lng": 150.7850246,
    "place_id": "ChIJHa2xmF9ny0YR-QVPHfeATwM",
    "maps_url": "https://www.google.com/maps/place/?q=place_id:ChIJHa2xmF9ny0YR-QVPHfeATwM"
  },
  {
    "name": "The Dance Space Studios",
    "address": "Unit 4/18B Little St, Camden NSW 2570, Australia",
    "suburb": "Camden NSW 2570",
    "state": "NSW",
    "rating": 5,
    "reviews": 8,
    "lat": -34.0606477,
    "lng": 150.6928894,
    "place_id": "ChIJZ190QKHxEmsRlSTh7ew79f8",
    "maps_url": "https://www.google.com/maps/place/?q=place_id:ChIJZ190QKHxEmsRlSTh7ew79f8"
  },
  {
    "name": "Centre Stage Dance Studio",
    "address": "6/3 Yarmouth Pl, Smeaton Grange NSW 2567, Australia",
    "suburb": "Smeaton Grange NSW 2567",
    "state": "NSW",
    "rating": 5,
    "reviews": 35,
    "lat": -34.040538,
    "lng": 150.7502292,
    "place_id": "ChIJ99mYl6PxEmsRhLYQlE-NGOg",
    "maps_url": "https://www.google.com/maps/place/?q=place_id:ChIJ99mYl6PxEmsRhLYQlE-NGOg"
  },
  {
    "name": "De Hall Dance Studio",
    "address": "20 John St, Camden NSW 2570, Australia",
    "suburb": "Camden NSW 2570",
    "state": "NSW",
    "rating": 5,
    "reviews": 5,
    "lat": -34.0522893,
    "lng": 150.6947544,
    "place_id": "ChIJo0Zboz_xEmsRId0wbmWxqrU",
    "maps_url": "https://www.google.com/maps/place/?q=place_id:ChIJo0Zboz_xEmsRId0wbmWxqrU"
  },
  {
    "name": "Elite Dance Project",
    "address": "Unit 2/118 Southwell Rd, Oran Park NSW 2570, Australia",
    "suburb": "Oran Park NSW 2570",
    "state": "NSW",
    "rating": 4.8,
    "reviews": 49,
    "lat": -33.9926007,
    "lng": 150.7348606,
    "place_id": "ChIJt-sfijzyEmsRL3a67lTRlKw",
    "maps_url": "https://www.google.com/maps/place/?q=place_id:ChIJt-sfijzyEmsRL3a67lTRlKw"
  },
  {
    "name": "Sara Jane Studios",
    "address": "Unit 2/12 Technology Dr, Appin NSW 2560, Australia",
    "suburb": "Appin NSW 2560",
    "state": "NSW",
    "rating": 5,
    "reviews": 33,
    "lat": -34.2115882,
    "lng": 150.7801679,
    "place_id": "ChIJH4LoZsfjEmsR-wocFk04aGE",
    "maps_url": "https://www.google.com/maps/place/?q=place_id:ChIJH4LoZsfjEmsR-wocFk04aGE"
  },
  {
    "name": "Latin Touch Dance Co",
    "address": "66 Kavanagh St, Gregory Hills NSW 2557, Australia",
    "suburb": "Gregory Hills NSW 2557",
    "state": "NSW",
    "rating": 5,
    "reviews": 76,
    "lat": -34.0277569,
    "lng": 150.7781376,
    "place_id": "ChIJg60dhfjvEmsRGle7nnH0xjY",
    "maps_url": "https://www.google.com/maps/place/?q=place_id:ChIJg60dhfjvEmsRGle7nnH0xjY"
  },
  {
    "name": "Steps 2 Stardom Performing Arts Academy",
    "address": "10A Waler Cres, Smeaton Grange NSW 2567, Australia",
    "suburb": "Smeaton Grange NSW 2567",
    "state": "NSW",
    "rating": 4.9,
    "reviews": 35,
    "lat": -34.0343051,
    "lng": 150.7639831,
    "place_id": "ChIJJ-HTwuPxEmsRq_qgleKf9GQ",
    "maps_url": "https://www.google.com/maps/place/?q=place_id:ChIJJ-HTwuPxEmsRq_qgleKf9GQ"
  },
  {
    "name": "Complete Dance Training",
    "address": "6/3 Yarmouth Pl, Smeaton Grange NSW 2567, Australia",
    "suburb": "Smeaton Grange NSW 2567",
    "state": "NSW",
    "rating": 5,
    "reviews": 20,
    "lat": -34.0406559,
    "lng": 150.7503387,
    "place_id": "ChIJ-cbmC8HxEmsRBGvYTvJVmAQ",
    "maps_url": "https://www.google.com/maps/place/?q=place_id:ChIJ-cbmC8HxEmsRBGvYTvJVmAQ"
  },
  {
    "name": "Expressions Dance Academy",
    "address": "25/24 Anzac Ave, Smeaton Grange NSW 2567, Australia",
    "suburb": "Smeaton Grange NSW 2567",
    "state": "NSW",
    "rating": 4.8,
    "reviews": 17,
    "lat": -34.040717,
    "lng": 150.756507,
    "place_id": "ChIJXRTFH3_xEmsRsRD8JxMY0KU",
    "maps_url": "https://www.google.com/maps/place/?q=place_id:ChIJXRTFH3_xEmsRsRD8JxMY0KU"
  },
  {
    "name": "Performance Edge Dance Academy",
    "address": "Unit 2/28 Dunn Rd, Smeaton Grange NSW 2567, Australia",
    "suburb": "Smeaton Grange NSW 2567",
    "state": "NSW",
    "rating": 4.3,
    "reviews": 6,
    "lat": -34.032973,
    "lng": 150.7536502,
    "place_id": "ChIJryaxv4DxEmsRefJPtscUO_A",
    "maps_url": "https://www.google.com/maps/place/?q=place_id:ChIJryaxv4DxEmsRefJPtscUO_A"
  },
  {
    "name": "Creativ Circl Dance Studio",
    "address": "1/361 Milperra Rd, Bankstown Aerodrome NSW 2200, Australia",
    "suburb": "Bankstown Aerodrome NSW 2200",
    "state": "NSW",
    "rating": 5,
    "reviews": 17,
    "lat": -33.9278939,
    "lng": 150.9896149,
    "place_id": "ChIJud4hMFu_EmsRDv7bzFFy9ec",
    "maps_url": "https://www.google.com/maps/place/?q=place_id:ChIJud4hMFu_EmsRDv7bzFFy9ec"
  },
  {
    "name": "Ignition Performance Academy",
    "address": "3/380 Marion St, Condell Park NSW 2200, Australia",
    "suburb": "Condell Park NSW 2200",
    "state": "NSW",
    "rating": 5,
    "reviews": 194,
    "lat": -33.9174789,
    "lng": 151.0027423,
    "place_id": "ChIJJ5YolNe_EmsRkUrNhtzHB8w",
    "maps_url": "https://www.google.com/maps/place/?q=place_id:ChIJJ5YolNe_EmsRkUrNhtzHB8w"
  },
  {
    "name": "Inspire Bellydance - Bankstown Studio",
    "address": "Bollard School of Dance, Unit 14/35 Birch St, Condell Park NSW 2200, Australia",
    "suburb": "Unit 14/35 Birch St",
    "state": "NSW",
    "rating": 4.7,
    "reviews": 3,
    "lat": -33.9174682,
    "lng": 150.9984856,
    "place_id": "ChIJwbNApZ-5EmsR37cgEtAFMvw",
    "maps_url": "https://www.google.com/maps/place/?q=place_id:ChIJwbNApZ-5EmsR37cgEtAFMvw"
  },
  {
    "name": "Ignite Dance Company",
    "address": "2/11 Arab Rd, Padstow NSW 2211, Australia",
    "suburb": "Padstow NSW 2211",
    "state": "NSW",
    "rating": 4.8,
    "reviews": 11,
    "lat": -33.9449602,
    "lng": 151.0366918,
    "place_id": "ChIJXcNziLe-EmsR8e77phXSqvY",
    "maps_url": "https://www.google.com/maps/place/?q=place_id:ChIJXcNziLe-EmsR8e77phXSqvY"
  },
  {
    "name": "Elysian School Australia (Bankstown)",
    "address": "Park at Marion st parking, Level 1/356 Chapel Rd, Bankstown NSW 2200, Australia",
    "suburb": "Level 1/356 Chapel Rd",
    "state": "NSW",
    "rating": 4.8,
    "reviews": 9,
    "lat": -33.9166132,
    "lng": 151.0330126,
    "place_id": "ChIJs4XyP3G9EmsRPLvmBIY0th4",
    "maps_url": "https://www.google.com/maps/place/?q=place_id:ChIJs4XyP3G9EmsRPLvmBIY0th4"
  },
  {
    "name": "Dance It Performing Arts Studio",
    "address": "Bankstown Business Park D7, 11/15 Moxon Rd, Punchbowl NSW 2196, Australia",
    "suburb": "11/15 Moxon Rd",
    "state": "NSW",
    "rating": 4.5,
    "reviews": 10,
    "lat": -33.9347991,
    "lng": 151.0408477,
    "place_id": "ChIJ6XXN1eO7EmsRdFQbl7tItvY",
    "maps_url": "https://www.google.com/maps/place/?q=place_id:ChIJ6XXN1eO7EmsRdFQbl7tItvY"
  },
  {
    "name": "Bollard School of Dance",
    "address": "Unit 14/35 Birch St, Condell Park NSW 2200, Australia",
    "suburb": "Condell Park NSW 2200",
    "state": "NSW",
    "rating": 5,
    "reviews": 7,
    "lat": -33.91747429999999,
    "lng": 150.9986117,
    "place_id": "ChIJM_VebF69EmsRJjtpZPt-PZI",
    "maps_url": "https://www.google.com/maps/place/?q=place_id:ChIJM_VebF69EmsRJjtpZPt-PZI"
  },
  {
    "name": "Dream St Dance Company",
    "address": "7 Hugh St, Belmore NSW 2192, Australia",
    "suburb": "Belmore NSW 2192",
    "state": "NSW",
    "rating": 5,
    "reviews": 63,
    "lat": -33.908273,
    "lng": 151.0804806,
    "place_id": "ChIJ2-xy_5e7EmsRdLN9YFkVEl0",
    "maps_url": "https://www.google.com/maps/place/?q=place_id:ChIJ2-xy_5e7EmsRdLN9YFkVEl0"
  },
  {
    "name": "Club Condell Park",
    "address": "178 Eldridge Rd, Bankstown NSW 2200, Australia",
    "suburb": "Bankstown NSW 2200",
    "state": "NSW",
    "rating": 4.1,
    "reviews": 345,
    "lat": -33.9308334,
    "lng": 151.0093383,
    "place_id": "ChIJSfu-446-EmsRBfE7fKBy2SM",
    "maps_url": "https://www.google.com/maps/place/?q=place_id:ChIJSfu-446-EmsRBfE7fKBy2SM"
  },
  {
    "name": "Julie Parks Studio of Dance (JP Dance)",
    "address": "a12/406 Marion St, Condell Park NSW 2200, Australia",
    "suburb": "Condell Park NSW 2200",
    "state": "NSW",
    "rating": 4.8,
    "reviews": 5,
    "lat": -33.917099,
    "lng": 151.0005186,
    "place_id": "ChIJHfNMCNW9EmsRivHd_26goX4",
    "maps_url": "https://www.google.com/maps/place/?q=place_id:ChIJHfNMCNW9EmsRivHd_26goX4"
  },
  {
    "name": "Elysian School Australia (Cabramatta)",
    "address": "near Centrelink parking, Suite 10/104 John St, Cabramatta NSW 2166, Australia",
    "suburb": "Suite 10/104 John St",
    "state": "NSW",
    "rating": 4.9,
    "reviews": 20,
    "lat": -33.8950338,
    "lng": 150.9338161,
    "place_id": "ChIJ1zs7p16XEmsR5MbjXLAvBlM",
    "maps_url": "https://www.google.com/maps/place/?q=place_id:ChIJ1zs7p16XEmsR5MbjXLAvBlM"
  },
  {
    "name": "Bankstown Arts Centre",
    "address": "5 Olympic Parade, Bankstown NSW 2200, Australia",
    "suburb": "Bankstown NSW 2200",
    "state": "NSW",
    "rating": 4.5,
    "reviews": 226,
    "lat": -33.9187618,
    "lng": 151.0312039,
    "place_id": "ChIJLyAx6hu8EmsR0zwqscRmtBY",
    "maps_url": "https://www.google.com/maps/place/?q=place_id:ChIJLyAx6hu8EmsR0zwqscRmtBY"
  },
  {
    "name": "Dancetime School of Dance",
    "address": "0412 587 650, YMCA, 184 The River Rd, Revesby NSW 2212, Australia",
    "suburb": "YMCA",
    "state": "NSW",
    "rating": null,
    "reviews": 0,
    "lat": -33.9540115,
    "lng": 151.0164686,
    "place_id": "ChIJB63LuOW-EmsRIaBUbUrIobM",
    "maps_url": "https://www.google.com/maps/place/?q=place_id:ChIJB63LuOW-EmsRIaBUbUrIobM"
  },
  {
    "name": "Inspire Performing and Creative Arts Inc Ballet Classes",
    "address": "5 Olympic Parade, Bankstown NSW 2200, Australia",
    "suburb": "Bankstown NSW 2200",
    "state": "NSW",
    "rating": null,
    "reviews": 0,
    "lat": -33.9186405,
    "lng": 151.0311556,
    "place_id": "ChIJUWVk3HK9EmsRCVdwYxb8Oaw",
    "maps_url": "https://www.google.com/maps/place/?q=place_id:ChIJUWVk3HK9EmsRCVdwYxb8Oaw"
  },
  {
    "name": "Arthur Murray Dance Studio Chatswood",
    "address": "1/19 Spring St, Chatswood NSW 2067, Australia",
    "suburb": "Chatswood NSW 2067",
    "state": "NSW",
    "rating": 5,
    "reviews": 23,
    "lat": -33.7960785,
    "lng": 151.1846723,
    "place_id": "ChIJHdh519WoEmsRHLLxJWhqZ1I",
    "maps_url": "https://www.google.com/maps/place/?q=place_id:ChIJHdh519WoEmsRHLLxJWhqZ1I"
  },
  {
    "name": "Centre Stage Academy",
    "address": "1A Freeman Rd, Chatswood NSW 2067, Australia",
    "suburb": "Chatswood NSW 2067",
    "state": "NSW",
    "rating": 4.7,
    "reviews": 24,
    "lat": -33.7999266,
    "lng": 151.1786231,
    "place_id": "ChIJ6XIRMNOoEmsR0RFZK2Wym6c",
    "maps_url": "https://www.google.com/maps/place/?q=place_id:ChIJ6XIRMNOoEmsR0RFZK2Wym6c"
  },
  {
    "name": "Tiny Toes Ballet Chatswood",
    "address": "70 Albert Ave, Chatswood NSW 2067, Australia",
    "suburb": "Chatswood NSW 2067",
    "state": "NSW",
    "rating": 4.8,
    "reviews": 19,
    "lat": -33.7984575,
    "lng": 151.182456,
    "place_id": "ChIJI5NpfQCpEmsRQc2xXAdufNo",
    "maps_url": "https://www.google.com/maps/place/?q=place_id:ChIJI5NpfQCpEmsRQc2xXAdufNo"
  },
  {
    "name": "OZ Dance Chatswood",
    "address": "Ground/2-4 Thomas St, Chatswood NSW 2067, Australia",
    "suburb": "Chatswood NSW 2067",
    "state": "NSW",
    "rating": 3.9,
    "reviews": 11,
    "lat": -33.7981849,
    "lng": 151.1805353,
    "place_id": "ChIJ6Uesm9OoEmsRBR6fec0Vbhw",
    "maps_url": "https://www.google.com/maps/place/?q=place_id:ChIJ6Uesm9OoEmsRBR6fec0Vbhw"
  },
  {
    "name": "Thrive Dance North Shore Ballet Willoughby Chatswood",
    "address": "19 Warrane Rd, Willoughby East NSW 2068, Australia",
    "suburb": "Willoughby East NSW 2068",
    "state": "NSW",
    "rating": 4.7,
    "reviews": 14,
    "lat": -33.7951295,
    "lng": 151.2054276,
    "place_id": "ChIJ1z4j7zmpEmsRYIv5hWx3k_g",
    "maps_url": "https://www.google.com/maps/place/?q=place_id:ChIJ1z4j7zmpEmsRYIv5hWx3k_g"
  },
  {
    "name": "Julia Classical Ballet Coaching Academy",
    "address": "1/370 Victoria Ave, Chatswood NSW 2067, Australia",
    "suburb": "Chatswood NSW 2067",
    "state": "NSW",
    "rating": 5,
    "reviews": 55,
    "lat": -33.7962003,
    "lng": 151.1835579,
    "place_id": "ChIJvzPnhZ2vEmsRww2z36M-fKQ",
    "maps_url": "https://www.google.com/maps/place/?q=place_id:ChIJvzPnhZ2vEmsRww2z36M-fKQ"
  },
  {
    "name": "Kinetic Dance Studio Chatswood",
    "address": "765 Pacific Hwy, Chatswood NSW 2067, Australia",
    "suburb": "Chatswood NSW 2067",
    "state": "NSW",
    "rating": null,
    "reviews": 0,
    "lat": -33.7990348,
    "lng": 151.1791476,
    "place_id": "ChIJv1ZerCmpEmsRRZR5pVdNKGs",
    "maps_url": "https://www.google.com/maps/place/?q=place_id:ChIJv1ZerCmpEmsRRZR5pVdNKGs"
  },
  {
    "name": "Monsters Of Dance",
    "address": "Unit B4/1/3 Rodborough Rd, Frenchs Forest NSW 2086, Australia",
    "suburb": "Frenchs Forest NSW 2086",
    "state": "NSW",
    "rating": 5,
    "reviews": 153,
    "lat": -33.7539336,
    "lng": 151.2416937,
    "place_id": "ChIJm7yBhBiqEmsR8NBid3uUZ94",
    "maps_url": "https://www.google.com/maps/place/?q=place_id:ChIJm7yBhBiqEmsR8NBid3uUZ94"
  },
  {
    "name": "Dance Classes Sydney Crows Nest Dance Studio",
    "address": "1/441 Pacific Hwy, Crows Nest NSW 2065, Australia",
    "suburb": "Crows Nest NSW 2065",
    "state": "NSW",
    "rating": 5,
    "reviews": 41,
    "lat": -33.8269867,
    "lng": 151.2002291,
    "place_id": "ChIJ_6WF92CqEmsRRWBkGXeo1ew",
    "maps_url": "https://www.google.com/maps/place/?q=place_id:ChIJ_6WF92CqEmsRRWBkGXeo1ew"
  },
  {
    "name": "The One Dance - Extreme Force",
    "address": "22 Thomas St, Chatswood NSW 2067, Australia",
    "suburb": "Chatswood NSW 2067",
    "state": "NSW",
    "rating": null,
    "reviews": 0,
    "lat": -33.7984266,
    "lng": 151.1794393,
    "place_id": "ChIJ2Y5HQ0GpEmsR--P6iPyhfHI",
    "maps_url": "https://www.google.com/maps/place/?q=place_id:ChIJ2Y5HQ0GpEmsR--P6iPyhfHI"
  },
  {
    "name": "El Sabor Latin Dance Chatswood",
    "address": "50 Johnson St, Chatswood NSW 2067, Australia",
    "suburb": "Chatswood NSW 2067",
    "state": "NSW",
    "rating": 4,
    "reviews": 4,
    "lat": -33.7999187,
    "lng": 151.1857073,
    "place_id": "ChIJta3MxSKpEmsRmFU0apA7NG0",
    "maps_url": "https://www.google.com/maps/place/?q=place_id:ChIJta3MxSKpEmsRmFU0apA7NG0"
  },
  {
    "name": "Dance Element Studios",
    "address": "Hornsby, Asquith, Wahroonga, West Pymble NSW 2077, Australia",
    "suburb": "Asquith",
    "state": "NSW",
    "rating": 5,
    "reviews": 28,
    "lat": -33.7049016,
    "lng": 151.0990683,
    "place_id": "ChIJVVXlboKnEmsRHuYmecYnHfA",
    "maps_url": "https://www.google.com/maps/place/?q=place_id:ChIJVVXlboKnEmsRHuYmecYnHfA"
  },
  {
    "name": "Kinetic Dance Studio",
    "address": "Suite 105 Floor 1/206/208 Liverpool Rd, Ashfield NSW 2131, Australia",
    "suburb": "Ashfield NSW 2131",
    "state": "NSW",
    "rating": 5,
    "reviews": 67,
    "lat": -33.8897006,
    "lng": 151.1256194,
    "place_id": "ChIJfaTZZUq7EmsR4QP45kPHRFQ",
    "maps_url": "https://www.google.com/maps/place/?q=place_id:ChIJfaTZZUq7EmsR4QP45kPHRFQ"
  },
  {
    "name": "Evolution Performance Centre",
    "address": "Level 2/575-597 Pacific Hwy, St Leonards NSW 2065, Australia",
    "suburb": "St Leonards NSW 2065",
    "state": "NSW",
    "rating": 4.8,
    "reviews": 47,
    "lat": -33.8240083,
    "lng": 151.1976385,
    "place_id": "ChIJnTT9rOmuEmsRW3vBYhIsPbE",
    "maps_url": "https://www.google.com/maps/place/?q=place_id:ChIJnTT9rOmuEmsRW3vBYhIsPbE"
  },
  {
    "name": "Burns Bay Dance Studios",
    "address": "Units F24 & F25, Studio access on Lincoln, 16 Mars Rd, Lane Cove NSW 2066, Australia",
    "suburb": "Studio access on Lincoln",
    "state": "NSW",
    "rating": 5,
    "reviews": 6,
    "lat": -33.8111287,
    "lng": 151.1475808,
    "place_id": "ChIJsy_ka0CvEmsRetHsuRS3IY0",
    "maps_url": "https://www.google.com/maps/place/?q=place_id:ChIJsy_ka0CvEmsRetHsuRS3IY0"
  },
  {
    "name": "L.I.K.E. Dance Studio",
    "address": "Technopark/6 Herbert St, St Leonards NSW 2065, Australia",
    "suburb": "St Leonards NSW 2065",
    "state": "NSW",
    "rating": 4.6,
    "reviews": 57,
    "lat": -33.8181351,
    "lng": 151.1916834,
    "place_id": "ChIJ9f21bt2uEmsRr3MGQLql0ZM",
    "maps_url": "https://www.google.com/maps/place/?q=place_id:ChIJ9f21bt2uEmsRr3MGQLql0ZM"
  },
  {
    "name": "Inspire Bellydance & ZumbaFitness - Chatswood Studio",
    "address": "50 Johnson St, Chatswood NSW 2057, Australia",
    "suburb": "Chatswood NSW 2057",
    "state": "NSW",
    "rating": 5,
    "reviews": 2,
    "lat": -33.7999408,
    "lng": 151.1857367,
    "place_id": "ChIJJxn5_cavEmsRXe59JwfB1mY",
    "maps_url": "https://www.google.com/maps/place/?q=place_id:ChIJJxn5_cavEmsRXe59JwfB1mY"
  },
  {
    "name": "Dancique School of Dance",
    "address": "7A Lord St, Roseville NSW 2069, Australia",
    "suburb": "Roseville NSW 2069",
    "state": "NSW",
    "rating": 4.9,
    "reviews": 16,
    "lat": -33.78419900000001,
    "lng": 151.179234,
    "place_id": "ChIJEYcelt6oEmsRCpfT1zviKyY",
    "maps_url": "https://www.google.com/maps/place/?q=place_id:ChIJEYcelt6oEmsRCpfT1zviKyY"
  },
  {
    "name": "Terpsichore Dance Company",
    "address": "Shop 2/1311 Pacific Hwy, Turramurra NSW 2074, Australia",
    "suburb": "Turramurra NSW 2074",
    "state": "NSW",
    "rating": 5,
    "reviews": 56,
    "lat": -33.733176,
    "lng": 151.1277356,
    "place_id": "ChIJ8Tp30-ynEmsRH9FB8Ek7gm4",
    "maps_url": "https://www.google.com/maps/place/?q=place_id:ChIJ8Tp30-ynEmsRH9FB8Ek7gm4"
  },
  {
    "name": "Motif Dance Studios",
    "address": "4 Shirley Rd, Roseville NSW 2069, Australia",
    "suburb": "Roseville NSW 2069",
    "state": "NSW",
    "rating": 4.7,
    "reviews": 14,
    "lat": -33.7842912,
    "lng": 151.1742515,
    "place_id": "ChIJ_dtXuMSoEmsR-OhqxwaCd6g",
    "maps_url": "https://www.google.com/maps/place/?q=place_id:ChIJ_dtXuMSoEmsR-OhqxwaCd6g"
  },
  {
    "name": "Dancing Through Life Studios",
    "address": "Hornsby Leisure & Learning Centre, 25 Edgeworth David Ave, Hornsby NSW 2077, Australia",
    "suburb": "25 Edgeworth David Ave",
    "state": "NSW",
    "rating": 5,
    "reviews": 134,
    "lat": -33.7055692,
    "lng": 151.1046702,
    "place_id": "ChIJ61lWiYWnEmsRKzyNgTPnDMY",
    "maps_url": "https://www.google.com/maps/place/?q=place_id:ChIJ61lWiYWnEmsRKzyNgTPnDMY"
  },
  {
    "name": "Arthur Murray Hornsby - Dance Studio",
    "address": "2/97 Hunter St, Hornsby NSW 2077, Australia",
    "suburb": "Hornsby NSW 2077",
    "state": "NSW",
    "rating": 5,
    "reviews": 38,
    "lat": -33.6992497,
    "lng": 151.1011806,
    "place_id": "ChIJ38_BWgGnEmsRydXBGN8kWpo",
    "maps_url": "https://www.google.com/maps/place/?q=place_id:ChIJ38_BWgGnEmsRydXBGN8kWpo"
  },
  {
    "name": "GLM Dance Studio",
    "address": "6/65 Jersey St, Hornsby NSW 2077, Australia",
    "suburb": "Hornsby NSW 2077",
    "state": "NSW",
    "rating": 5,
    "reviews": 25,
    "lat": -33.697839,
    "lng": 151.0987939,
    "place_id": "ChIJD1vMpICnEmsRb4vnpVOuw_E",
    "maps_url": "https://www.google.com/maps/place/?q=place_id:ChIJD1vMpICnEmsRb4vnpVOuw_E"
  },
  {
    "name": "Footloose Performance Studios",
    "address": "93 Hunter St, Hornsby NSW 2077, Australia",
    "suburb": "Hornsby NSW 2077",
    "state": "NSW",
    "rating": 4.9,
    "reviews": 81,
    "lat": -33.6995906,
    "lng": 151.1011145,
    "place_id": "ChIJj-KpQNunEmsR1YWyTDEwuXo",
    "maps_url": "https://www.google.com/maps/place/?q=place_id:ChIJj-KpQNunEmsR1YWyTDEwuXo"
  },
  {
    "name": "Future Gems Dance Studio Hornsby Wahroonga",
    "address": "13 Stuart St, Wahroonga NSW 2076, Australia",
    "suburb": "Wahroonga NSW 2076",
    "state": "NSW",
    "rating": 5,
    "reviews": 130,
    "lat": -33.715554,
    "lng": 151.1174202,
    "place_id": "ChIJ8Tp30-ynEmsRYHhPcj8Bqo8",
    "maps_url": "https://www.google.com/maps/place/?q=place_id:ChIJ8Tp30-ynEmsRYHhPcj8Bqo8"
  },
  {
    "name": "Industry Performing Arts",
    "address": "Factory 4/65-67 Hunter Ln, Hornsby NSW 2077, Australia",
    "suburb": "Hornsby NSW 2077",
    "state": "NSW",
    "rating": 5,
    "reviews": 32,
    "lat": -33.7011768,
    "lng": 151.1005718,
    "place_id": "ChIJb3IFw4anEmsRD8OWk--EcSM",
    "maps_url": "https://www.google.com/maps/place/?q=place_id:ChIJb3IFw4anEmsRD8OWk--EcSM"
  },
  {
    "name": "AuStar Dance Academy - Hornsby",
    "address": "Suite 3/143 Peats Ferry Rd, Hornsby NSW 2077, Australia",
    "suburb": "Hornsby NSW 2077",
    "state": "NSW",
    "rating": 5,
    "reviews": 3,
    "lat": -33.7042171,
    "lng": 151.0973726,
    "place_id": "ChIJrYszgDenEmsRnWQqFreX7hY",
    "maps_url": "https://www.google.com/maps/place/?q=place_id:ChIJrYszgDenEmsRnWQqFreX7hY"
  },
  {
    "name": "Future Gems Dance Studio Asquith",
    "address": "12 Old Berowra Rd, Hornsby NSW 2077, Australia",
    "suburb": "Hornsby NSW 2077",
    "state": "NSW",
    "rating": 5,
    "reviews": 1,
    "lat": -33.6888316,
    "lng": 151.1006595,
    "place_id": "ChIJlztC56xZDWsRFI_nbPIjGWw",
    "maps_url": "https://www.google.com/maps/place/?q=place_id:ChIJlztC56xZDWsRFI_nbPIjGWw"
  },
  {
    "name": "Action Dance Academy",
    "address": "5A Pioneer Ave, Thornleigh NSW 2120, Australia",
    "suburb": "Thornleigh NSW 2120",
    "state": "NSW",
    "rating": 5,
    "reviews": 37,
    "lat": -33.7239501,
    "lng": 151.0840244,
    "place_id": "ChIJTROEIaenEmsROfNqjNhALxY",
    "maps_url": "https://www.google.com/maps/place/?q=place_id:ChIJTROEIaenEmsROfNqjNhALxY"
  },
  {
    "name": "Future Gems Creative Dance Hornsby Heights",
    "address": "St Lukes Church, 155 Galston Rd, Hornsby Heights NSW 2077, Australia",
    "suburb": "155 Galston Rd",
    "state": "NSW",
    "rating": 5,
    "reviews": 9,
    "lat": -33.6738511,
    "lng": 151.0967191,
    "place_id": "ChIJ3fm8a2VZDWsRP_4VY9FVhpQ",
    "maps_url": "https://www.google.com/maps/place/?q=place_id:ChIJ3fm8a2VZDWsRP_4VY9FVhpQ"
  },
  {
    "name": "Future Gems Dance Classes Hornsby",
    "address": "Hornsby War Memorial Hall, 2 High St, Hornsby NSW 2077, Australia",
    "suburb": "2 High St",
    "state": "NSW",
    "rating": null,
    "reviews": 0,
    "lat": -33.7044674,
    "lng": 151.0971285,
    "place_id": "ChIJT__EOKynEmsRstba9xfZhuA",
    "maps_url": "https://www.google.com/maps/place/?q=place_id:ChIJT__EOKynEmsRstba9xfZhuA"
  },
  {
    "name": "Taal Dance Academy Bharatnatyam Bollywood Bhangra Semiclassical Carnatic Fusion",
    "address": "Hornsby RSL War Memorial Hall, 2 High Street, Hornsby NSW 2077, Australia",
    "suburb": "2 High Street",
    "state": "NSW",
    "rating": 4,
    "reviews": 2,
    "lat": -33.704467,
    "lng": 151.097129,
    "place_id": "ChIJ-V9QdI-nEmsRpaqvfOJFNMM",
    "maps_url": "https://www.google.com/maps/place/?q=place_id:ChIJ-V9QdI-nEmsRpaqvfOJFNMM"
  },
  {
    "name": "Helen's School of Ballet",
    "address": "157 Galston Rd, Hornsby Heights NSW 2077, Australia",
    "suburb": "Hornsby Heights NSW 2077",
    "state": "NSW",
    "rating": 5,
    "reviews": 3,
    "lat": -33.67352,
    "lng": 151.096801,
    "place_id": "ChIJYdVWTwJZDWsRQ2fYpeLpyLQ",
    "maps_url": "https://www.google.com/maps/place/?q=place_id:ChIJYdVWTwJZDWsRQ2fYpeLpyLQ"
  },
  {
    "name": "Mango Dance Studio",
    "address": "Hornsby 247 Gym, 100-102 George St, Hornsby NSW 2077, Australia",
    "suburb": "100-102 George St",
    "state": "NSW",
    "rating": 4,
    "reviews": 1,
    "lat": -33.7008807,
    "lng": 151.100133,
    "place_id": "ChIJZZh-CvSuEmsReUFIe8XjTB8",
    "maps_url": "https://www.google.com/maps/place/?q=place_id:ChIJZZh-CvSuEmsReUFIe8XjTB8"
  },
  {
    "name": "Wahroonga Dance Classes - Future Gems",
    "address": "Wahroonga Public School, 71 Burns Rd, Wahroonga NSW 2076, Australia",
    "suburb": "71 Burns Rd",
    "state": "NSW",
    "rating": 5,
    "reviews": 3,
    "lat": -33.7156527,
    "lng": 151.128441,
    "place_id": "ChIJOfQWMIunEmsRpfuQ-_Becqs",
    "maps_url": "https://www.google.com/maps/place/?q=place_id:ChIJOfQWMIunEmsRpfuQ-_Becqs"
  },
  {
    "name": "Evolution Dance School",
    "address": "Level 2/7 Sefton Rd, Thornleigh NSW 2120, Australia",
    "suburb": "Thornleigh NSW 2120",
    "state": "NSW",
    "rating": 5,
    "reviews": 9,
    "lat": -33.7227389,
    "lng": 151.0853548,
    "place_id": "ChIJ52Y8l2NYDWsRaTbgPPC0-MU",
    "maps_url": "https://www.google.com/maps/place/?q=place_id:ChIJ52Y8l2NYDWsRaTbgPPC0-MU"
  },
  {
    "name": "Studio ARTES",
    "address": "33 Jersey St, Hornsby NSW 2077, Australia",
    "suburb": "Hornsby NSW 2077",
    "state": "NSW",
    "rating": 4.7,
    "reviews": 41,
    "lat": -33.6997951,
    "lng": 151.0984617,
    "place_id": "ChIJ6VlWiYWnEmsRf0bdl8K4HGM",
    "maps_url": "https://www.google.com/maps/place/?q=place_id:ChIJ6VlWiYWnEmsRf0bdl8K4HGM"
  },
  {
    "name": "Omkaram School of Indian Dance",
    "address": "24 William St, Hornsby NSW 2077, Australia",
    "suburb": "Hornsby NSW 2077",
    "state": "NSW",
    "rating": 4.7,
    "reviews": 9,
    "lat": -33.7031077,
    "lng": 151.0945851,
    "place_id": "ChIJD32xHcqnEmsRV0nB9lAaiXo",
    "maps_url": "https://www.google.com/maps/place/?q=place_id:ChIJD32xHcqnEmsRV0nB9lAaiXo"
  },
  {
    "name": "The Dance House",
    "address": "Kangaroo St, Manly NSW 2095, Australia",
    "suburb": "Manly NSW 2095",
    "state": "NSW",
    "rating": 5,
    "reviews": 4,
    "lat": -33.7945927,
    "lng": 151.2842679,
    "place_id": "ChIJ3QMiKw-rEmsRy3Sa0wmiv_Y",
    "maps_url": "https://www.google.com/maps/place/?q=place_id:ChIJ3QMiKw-rEmsRy3Sa0wmiv_Y"
  },
  {
    "name": "Dance North Academy",
    "address": "2/2/4 William St, North Manly NSW 2100, Australia",
    "suburb": "North Manly NSW 2100",
    "state": "NSW",
    "rating": 5,
    "reviews": 2,
    "lat": -33.767901,
    "lng": 151.269006,
    "place_id": "ChIJCWyebV-qEmsRhhHpS4E3WPo",
    "maps_url": "https://www.google.com/maps/place/?q=place_id:ChIJCWyebV-qEmsRhhHpS4E3WPo"
  },
  {
    "name": "THE A.M - Morning Dance Club",
    "address": "95a N Steyne, Manly NSW 2095, Australia",
    "suburb": "Manly NSW 2095",
    "state": "NSW",
    "rating": 5,
    "reviews": 5,
    "lat": -33.790994,
    "lng": 151.2867539,
    "place_id": "ChIJj5kkNTzKG48RAlQeaQrosbg",
    "maps_url": "https://www.google.com/maps/place/?q=place_id:ChIJj5kkNTzKG48RAlQeaQrosbg"
  },
  {
    "name": "Van Loon Dance Academy",
    "address": "Manly Congregational Church Cnr Road &, Whistler St, Manly NSW 2095, Australia",
    "suburb": "Whistler St",
    "state": "NSW",
    "rating": 5,
    "reviews": 16,
    "lat": -33.79676380000001,
    "lng": 151.2858939,
    "place_id": "ChIJMfzhswirEmsRw5n6DJUEU8g",
    "maps_url": "https://www.google.com/maps/place/?q=place_id:ChIJMfzhswirEmsRw5n6DJUEU8g"
  },
  {
    "name": "Manly Salsa",
    "address": "Kangaroo St, Manly NSW 2095, Australia",
    "suburb": "Manly NSW 2095",
    "state": "NSW",
    "rating": 5,
    "reviews": 38,
    "lat": -33.7948416,
    "lng": 151.284243,
    "place_id": "ChIJV18PMpWrEmsRZukvcX3mDCk",
    "maps_url": "https://www.google.com/maps/place/?q=place_id:ChIJV18PMpWrEmsRZukvcX3mDCk"
  },
  {
    "name": "Ferocity Dance Centre Brookvale",
    "address": "3/7 Orchard Rd, Brookvale NSW 2100, Australia",
    "suburb": "Brookvale NSW 2100",
    "state": "NSW",
    "rating": 4.9,
    "reviews": 48,
    "lat": -33.7650322,
    "lng": 151.2719228,
    "place_id": "ChIJ6_gHBUGqEmsR9X4atISyvUI",
    "maps_url": "https://www.google.com/maps/place/?q=place_id:ChIJ6_gHBUGqEmsR9X4atISyvUI"
  },
  {
    "name": "Elite Performance Studios",
    "address": "2/3 Green St, Brookvale NSW 2100, Australia",
    "suburb": "Brookvale NSW 2100",
    "state": "NSW",
    "rating": 4.8,
    "reviews": 48,
    "lat": -33.7636067,
    "lng": 151.2668528,
    "place_id": "ChIJPw7J80aqEmsRKGsZXQdmhhM",
    "maps_url": "https://www.google.com/maps/place/?q=place_id:ChIJPw7J80aqEmsRKGsZXQdmhhM"
  },
  {
    "name": "The Basement Dance Studios",
    "address": "9/36 Campbell Ave, Cromer NSW 2099, Australia",
    "suburb": "Cromer NSW 2099",
    "state": "NSW",
    "rating": 5,
    "reviews": 7,
    "lat": -33.7413019,
    "lng": 151.2877627,
    "place_id": "ChIJE5S79gpVDWsR19fLK9ggdk4",
    "maps_url": "https://www.google.com/maps/place/?q=place_id:ChIJE5S79gpVDWsR19fLK9ggdk4"
  },
  {
    "name": "Illusion dance company pty ltd",
    "address": "6 Wattle Rd, Brookvale NSW 2100, Australia",
    "suburb": "Brookvale NSW 2100",
    "state": "NSW",
    "rating": 4.9,
    "reviews": 11,
    "lat": -33.768009,
    "lng": 151.2783091,
    "place_id": "ChIJr_O1D-irEmsRwZwG_bjEfmg",
    "maps_url": "https://www.google.com/maps/place/?q=place_id:ChIJr_O1D-irEmsRwZwG_bjEfmg"
  },
  {
    "name": "Dance with D Zumba Fitness",
    "address": "1 Darley Rd, Manly NSW 2095, Australia",
    "suburb": "Manly NSW 2095",
    "state": "NSW",
    "rating": 5,
    "reviews": 38,
    "lat": -33.7984656,
    "lng": 151.2863722,
    "place_id": "ChIJE86xeAGrEmsRoIo8RaS_2AE",
    "maps_url": "https://www.google.com/maps/place/?q=place_id:ChIJE86xeAGrEmsRoIo8RaS_2AE"
  },
  {
    "name": "Bluebird Studio",
    "address": "94 Crown Rd, Queenscliff NSW 2096, Australia",
    "suburb": "Queenscliff NSW 2096",
    "state": "NSW",
    "rating": 5,
    "reviews": 105,
    "lat": -33.7811463,
    "lng": 151.2837654,
    "place_id": "ChIJbSpPEfmqEmsRqvAWWML-K64",
    "maps_url": "https://www.google.com/maps/place/?q=place_id:ChIJbSpPEfmqEmsRqvAWWML-K64"
  },
  {
    "name": "Dance North Academy",
    "address": "Number 3, Level 1/114 Old Pittwater Rd, Brookvale NSW 2100, Australia",
    "suburb": "Level 1/114 Old Pittwater Rd",
    "state": "NSW",
    "rating": 5,
    "reviews": 7,
    "lat": -33.7646244,
    "lng": 151.260598,
    "place_id": "ChIJqfhEmGOqEmsRpTiIZbKa0JY",
    "maps_url": "https://www.google.com/maps/place/?q=place_id:ChIJqfhEmGOqEmsRpTiIZbKa0JY"
  },
  {
    "name": "Pure Performance HQ",
    "address": "9 Chard Rd, Brookvale NSW 2100, Australia",
    "suburb": "Brookvale NSW 2100",
    "state": "NSW",
    "rating": 5,
    "reviews": 21,
    "lat": -33.763337,
    "lng": 151.2729898,
    "place_id": "ChIJ7T14wF2qEmsR38jB5uLWq4I",
    "maps_url": "https://www.google.com/maps/place/?q=place_id:ChIJ7T14wF2qEmsR38jB5uLWq4I"
  },
  {
    "name": "Bourne 2 Dance",
    "address": "24 Middleton Rd, Cromer NSW 2099, Australia",
    "suburb": "Cromer NSW 2099",
    "state": "NSW",
    "rating": 5,
    "reviews": 59,
    "lat": -33.7352239,
    "lng": 151.2852789,
    "place_id": "ChIJA9Au8HlVDWsR0Mk_nSu4Gj4",
    "maps_url": "https://www.google.com/maps/place/?q=place_id:ChIJA9Au8HlVDWsR0Mk_nSu4Gj4"
  },
  {
    "name": "Dancexcel Performance Studio",
    "address": "Ground 360/364 Sydney Rd, Balgowlah NSW 2093, Australia",
    "suburb": "Balgowlah NSW 2093",
    "state": "NSW",
    "rating": 5,
    "reviews": 2,
    "lat": -33.793951,
    "lng": 151.264196,
    "place_id": "ChIJNwjLo7urEmsRBoM_BF39Cvc",
    "maps_url": "https://www.google.com/maps/place/?q=place_id:ChIJNwjLo7urEmsRBoM_BF39Cvc"
  },
  {
    "name": "Footworks Dance Co",
    "address": "272 Condamine St, Manly Vale NSW 2093, Australia",
    "suburb": "Manly Vale NSW 2093",
    "state": "NSW",
    "rating": 5,
    "reviews": 2,
    "lat": -33.7829881,
    "lng": 151.2679707,
    "place_id": "ChIJBaDLmrKrEmsRrgONlWjL1qg",
    "maps_url": "https://www.google.com/maps/place/?q=place_id:ChIJBaDLmrKrEmsRrgONlWjL1qg"
  },
  {
    "name": "Caribbean Dance Studio",
    "address": "Unit 11c/106 Old Pittwater Rd, Brookvale NSW 2100, Australia",
    "suburb": "Brookvale NSW 2100",
    "state": "NSW",
    "rating": 5,
    "reviews": 31,
    "lat": -33.7633165,
    "lng": 151.2614706,
    "place_id": "ChIJSTGnfY6rEmsRD9YP6aSPANI",
    "maps_url": "https://www.google.com/maps/place/?q=place_id:ChIJSTGnfY6rEmsRD9YP6aSPANI"
  },
  {
    "name": "HUBPAC: The leading performing arts hub in Sydney’s North",
    "address": "4-6 Aquatic Dr, Frenchs Forest NSW 2086, Australia",
    "suburb": "Frenchs Forest NSW 2086",
    "state": "NSW",
    "rating": 5,
    "reviews": 13,
    "lat": -33.7549983,
    "lng": 151.2414325,
    "place_id": "ChIJqap6LoapEmsRB660TWtCEOE",
    "maps_url": "https://www.google.com/maps/place/?q=place_id:ChIJqap6LoapEmsRB660TWtCEOE"
  },