[
  {
    "name": "High Demand Electrical",
    "address": "Level 36/1 Macquarie Pl, Sydney NSW 2000, Australia",
    "suburb": "Sydney NSW 2000",
    "state": "NSW",
    "rating": 5,
    "reviews": 321,
    "lat": -33.8619522,
    "lng": 151.2098107,
    "place_id": "ChIJ15JrOne5EmsRp_lwFs7o_H4",
    "maps_url": "https://www.google.com/maps/place/?q=place_id:ChIJ15JrOne5EmsRp_lwFs7o_H4"
  },
  {
    "name": "Sydney Electrical Service",
    "address": "2 Chifley Square, Sydney NSW 2000, Australia",
    "suburb": "Sydney NSW 2000",
    "state": "NSW",
    "rating": 4.8,
    "reviews": 98,
    "lat": -33.8658594,
    "lng": 151.2116714,
    "place_id": "ChIJq6p20dC9EmsRyiDtumEA3Xs",
    "maps_url": "https://www.google.com/maps/place/?q=place_id:ChIJq6p20dC9EmsRyiDtumEA3Xs"
  },
  {
    "name": "Just Electrical Sydney Pty Ltd",
    "address": "1.04/18-30 Faversham St, Marrickville NSW 2204, Australia",
    "suburb": "Marrickville NSW 2204",
    "state": "NSW",
    "rating": 5,
    "reviews": 158,
    "lat": -33.9095073,
    "lng": 151.1641251,
    "place_id": "ChIJax3r4py7EmsRUcTKKKl4c64",
    "maps_url": "https://www.google.com/maps/place/?q=place_id:ChIJax3r4py7EmsRUcTKKKl4c64"
  },
  {
    "name": "Sparky Nearby",
    "address": "5 Napoleon St, Rosebery NSW 2018, Australia",
    "suburb": "Rosebery NSW 2018",
    "state": "NSW",
    "rating": 4.9,
    "reviews": 362,
    "lat": -33.9239818,
    "lng": 151.2006662,
    "place_id": "ChIJE__-BX2xEmsRi3UDLez1n24",
    "maps_url": "https://www.google.com/maps/place/?q=place_id:ChIJE__-BX2xEmsRi3UDLez1n24"
  },
  {
    "name": "i-ELEC",
    "address": "130-140 Mitchell Rd, Alexandria NSW 2015, Australia",
    "suburb": "Alexandria NSW 2015",
    "state": "NSW",
    "rating": 5,
    "reviews": 272,
    "lat": -33.9021838,
    "lng": 151.1923475,
    "place_id": "ChIJFQxUWwiwEmsRXD3aZQuLLsU",
    "maps_url": "https://www.google.com/maps/place/?q=place_id:ChIJFQxUWwiwEmsRXD3aZQuLLsU"
  },
  {
    "name": "360 Degrees Sydney Electrical",
    "address": "1a/42 Whiting St, Artarmon NSW 2064, Australia",
    "suburb": "Artarmon NSW 2064",
    "state": "NSW",
    "rating": 5,
    "reviews": 120,
    "lat": -33.8157968,
    "lng": 151.1827492,
    "place_id": "ChIJ9Z4HyyavEmsRZ_p28zw_XrQ",
    "maps_url": "https://www.google.com/maps/place/?q=place_id:ChIJ9Z4HyyavEmsRZ_p28zw_XrQ"
  },
  {
    "name": "Scott Electrics",
    "address": "235, Eastern Suburbs, Shop 32/285 New South Head Rd, Edgecliff NSW 2027, Australia",
    "suburb": "Eastern Suburbs",
    "state": "NSW",
    "rating": 5,
    "reviews": 363,
    "lat": -33.8794195,
    "lng": 151.236656,
    "place_id": "ChIJS4LqIbilEmsRfl0PU8hWEzU",
    "maps_url": "https://www.google.com/maps/place/?q=place_id:ChIJS4LqIbilEmsRfl0PU8hWEzU"
  },
  {
    "name": "Beyond Electrical",
    "address": "211 Coxs Rd, Ryde NSW 2113, Australia",
    "suburb": "Ryde NSW 2113",
    "state": "NSW",
    "rating": 5,
    "reviews": 80,
    "lat": -33.7942532,
    "lng": 151.1208251,
    "place_id": "ChIJjZNcLUyaUYwRKKdP09wQltY",
    "maps_url": "https://www.google.com/maps/place/?q=place_id:ChIJjZNcLUyaUYwRKKdP09wQltY"
  },
  {
    "name": "Sydney Electrical Contractors",
    "address": "George St, Parramatta NSW 2150, Australia",
    "suburb": "Parramatta NSW 2150",
    "state": "NSW",
    "rating": 5,
    "reviews": 36,
    "lat": -33.81507,
    "lng": 151.0093552,
    "place_id": "ChIJeXT0fLOfEmsRJINpu5k3nPI",
    "maps_url": "https://www.google.com/maps/place/?q=place_id:ChIJeXT0fLOfEmsRJINpu5k3nPI"
  },
  {
    "name": "Electrician To The Rescue",
    "address": "86A May St, St Peters NSW 2044, Australia",
    "suburb": "St Peters NSW 2044",
    "state": "NSW",
    "rating": 4.8,
    "reviews": 119,
    "lat": -33.9097945,
    "lng": 151.1778705,
    "place_id": "ChIJJ_lALD-uEmsRnf-GZsxz5SQ",
    "maps_url": "https://www.google.com/maps/place/?q=place_id:ChIJJ_lALD-uEmsRnf-GZsxz5SQ"
  },
  {
    "name": "EAS Electrical",
    "address": "Great N Rd, Five Dock NSW 2046, Australia",
    "suburb": "Five Dock NSW 2046",
    "state": "NSW",
    "rating": 5,
    "reviews": 299,
    "lat": -33.865379,
    "lng": 151.1302537,
    "place_id": "ChIJQ3MGdYSvEmsRdXh6tUgEhcI",
    "maps_url": "https://www.google.com/maps/place/?q=place_id:ChIJQ3MGdYSvEmsRdXh6tUgEhcI"
  },
  {
    "name": "Newcastle Electricians",
    "address": "35 Goundry St, Gateshead NSW 2290, Australia",
    "suburb": "Gateshead NSW 2290",
    "state": "NSW",
    "rating": 5,
    "reviews": 84,
    "lat": -32.9795381,
    "lng": 151.6884062,
    "place_id": "ChIJQz1ndSKLoAsRuUqXZb10i_w",
    "maps_url": "https://www.google.com/maps/place/?q=place_id:ChIJQz1ndSKLoAsRuUqXZb10i_w"
  },
  {
    "name": "Newcastle Emergency Electrical",
    "address": "1D George St, Mayfield East NSW 2304, Australia",
    "suburb": "Mayfield East NSW 2304",
    "state": "NSW",
    "rating": 4.9,
    "reviews": 141,
    "lat": -32.8995409,
    "lng": 151.7514164,
    "place_id": "ChIJOxpIJGIVc2sRcYuYaj1DFbc",
    "maps_url": "https://www.google.com/maps/place/?q=place_id:ChIJOxpIJGIVc2sRcYuYaj1DFbc"
  },
  {
    "name": "Barrack Electrical",
    "address": "Unit 48/8 Spit Island Cl, Mayfield West NSW 2304, Australia",
    "suburb": "Mayfield West NSW 2304",
    "state": "NSW",
    "rating": 5,
    "reviews": 195,
    "lat": -32.8778146,
    "lng": 151.7242834,
    "place_id": "ChIJFW3lp595WocRRzS2VCWVNhg",
    "maps_url": "https://www.google.com/maps/place/?q=place_id:ChIJFW3lp595WocRRzS2VCWVNhg"
  },
  {
    "name": "JD Electrical & Construction",
    "address": "184 Bridges Rd, New Lambton NSW 2305, Australia",
    "suburb": "New Lambton NSW 2305",
    "state": "NSW",
    "rating": 5,
    "reviews": 82,
    "lat": -32.9347975,
    "lng": 151.7128462,
    "place_id": "ChIJEW35sc-xEmsRApSDflUeExY",
    "maps_url": "https://www.google.com/maps/place/?q=place_id:ChIJEW35sc-xEmsRApSDflUeExY"
  },
  {
    "name": "Wilton Electrical",
    "address": "79 Parkway Ave, Cooks Hill NSW 2300, Australia",
    "suburb": "Cooks Hill NSW 2300",
    "state": "NSW",
    "rating": 5,
    "reviews": 22,
    "lat": -32.9369549,
    "lng": 151.7631577,
    "place_id": "ChIJT5MclzgUc2sRQIqZjLIyTz8",
    "maps_url": "https://www.google.com/maps/place/?q=place_id:ChIJT5MclzgUc2sRQIqZjLIyTz8"
  },
  {
    "name": "Kendal Electricians",
    "address": "Unit 2/139 Brooks St, Bar Beach NSW 2300, Australia",
    "suburb": "Bar Beach NSW 2300",
    "state": "NSW",
    "rating": 5,
    "reviews": 112,
    "lat": -32.9363817,
    "lng": 151.7693833,
    "place_id": "ChIJ46VYLZYjc2sRudjmqhAQg3k",
    "maps_url": "https://www.google.com/maps/place/?q=place_id:ChIJ46VYLZYjc2sRudjmqhAQg3k"
  },
  {
    "name": "All Sight Electrical - Level 2 Electrician",
    "address": "41 Fifth St, North Lambton NSW 2299, Australia",
    "suburb": "North Lambton NSW 2299",
    "state": "NSW",
    "rating": 5,
    "reviews": 129,
    "lat": -32.9039595,
    "lng": 151.7015146,
    "place_id": "ChIJT-be0ToVc2sRkwYlGvRRus8",
    "maps_url": "https://www.google.com/maps/place/?q=place_id:ChIJT-be0ToVc2sRkwYlGvRRus8"
  },
  {
    "name": "Coopers 24HR Electrical - Residential Electrician | Newcastle & Merewether",
    "address": "41 Selwyn St, Merewether NSW 2291, Australia",
    "suburb": "Merewether NSW 2291",
    "state": "NSW",
    "rating": 4.9,
    "reviews": 110,
    "lat": -32.9401665,
    "lng": 151.7462265,
    "place_id": "ChIJVcVbalwVc2sRkpYU6AnXO_Y",
    "maps_url": "https://www.google.com/maps/place/?q=place_id:ChIJVcVbalwVc2sRkpYU6AnXO_Y"
  },
  {
    "name": "NewSpark Electrical Solutions",
    "address": "Lookout Rd, New Lambton Heights NSW 2300, Australia",
    "suburb": "New Lambton Heights NSW 2300",
    "state": "NSW",
    "rating": 5,
    "reviews": 52,
    "lat": -32.9281041,
    "lng": 151.6950947,
    "place_id": "ChIJQ2bJfzp1JkURKs-EAjzS1jE",
    "maps_url": "https://www.google.com/maps/place/?q=place_id:ChIJQ2bJfzp1JkURKs-EAjzS1jE"
  },
  {
    "name": "ECC Level 2 Electrician Newcastle",
    "address": "136 Hunter St, Newcastle NSW 2300, Australia",
    "suburb": "Newcastle NSW 2300",
    "state": "NSW",
    "rating": 5,
    "reviews": 33,
    "lat": -32.9269186,
    "lng": 151.7819389,
    "place_id": "ChIJsTOOiSIVc2sRqFOG1_3O8MQ",
    "maps_url": "https://www.google.com/maps/place/?q=place_id:ChIJsTOOiSIVc2sRqFOG1_3O8MQ"
  },
  {
    "name": "Platinum Electricians Newcastle, Lake Macquarie & Maitland",
    "address": "294 Turton Rd, Broadmeadow NSW 2292, Australia",
    "suburb": "Broadmeadow NSW 2292",
    "state": "NSW",
    "rating": 4.7,
    "reviews": 42,
    "lat": -32.9186052,
    "lng": 151.7261264,
    "place_id": "ChIJA5sPGyw5c2sRg0_53u7XrpI",
    "maps_url": "https://www.google.com/maps/place/?q=place_id:ChIJA5sPGyw5c2sRg0_53u7XrpI"
  },
  {
    "name": "Helix Electrical",
    "address": "569 Hunter St, Newcastle West NSW 2302, Australia",
    "suburb": "Newcastle West NSW 2302",
    "state": "NSW",
    "rating": 5,
    "reviews": 8,
    "lat": -32.9275982,
    "lng": 151.7660229,
    "place_id": "ChIJEaKhjMkY60oR1IjSmXIUWqA",
    "maps_url": "https://www.google.com/maps/place/?q=place_id:ChIJEaKhjMkY60oR1IjSmXIUWqA"
  },
  {
    "name": "Delta Electrical & Solar LEVEL 2",
    "address": "2/8 Arnott St, Newcastle West NSW 2304, Australia",
    "suburb": "Newcastle West NSW 2304",
    "state": "NSW",
    "rating": 4.9,
    "reviews": 63,
    "lat": -32.9305936,
    "lng": 151.7646196,
    "place_id": "ChIJy7dDIe09c2sRwO2N-bUPIgE",
    "maps_url": "https://www.google.com/maps/place/?q=place_id:ChIJy7dDIe09c2sRwO2N-bUPIgE"
  },
  {
    "name": "33 Electrical",
    "address": "2/3 Edge St, Boolaroo NSW 2284, Australia",
    "suburb": "Boolaroo NSW 2284",
    "state": "NSW",
    "rating": 5,
    "reviews": 122,
    "lat": -32.9410847,
    "lng": 151.6361366,
    "place_id": "ChIJz5su8_4U1gYR-aN3h1x2T90",
    "maps_url": "https://www.google.com/maps/place/?q=place_id:ChIJz5su8_4U1gYR-aN3h1x2T90"
  },
  {
    "name": "C Mack Electrical",
    "address": "23 Llewellyn St, Merewether NSW 2291, Australia",
    "suburb": "Merewether NSW 2291",
    "state": "NSW",
    "rating": 4.8,
    "reviews": 26,
    "lat": -32.9433898,
    "lng": 151.7519289,
    "place_id": "ChIJ-zrXZyQVc2sRm5ER5vbuhes",
    "maps_url": "https://www.google.com/maps/place/?q=place_id:ChIJ-zrXZyQVc2sRm5ER5vbuhes"
  },
  {
    "name": "Mitchell Electric - Electrician Newcastle 24/7 Emergency Repairs",
    "address": "35 Apple St, Fern Bay NSW 2295, Australia",
    "suburb": "Fern Bay NSW 2295",
    "state": "NSW",
    "rating": 5,
    "reviews": 17,
    "lat": -32.8555256,
    "lng": 151.8187546,
    "place_id": "ChIJhSpWxWsVc2sR9Cy5xdfuT04",
    "maps_url": "https://www.google.com/maps/place/?q=place_id:ChIJhSpWxWsVc2sR9Cy5xdfuT04"
  },
  {
    "name": "Powellect Pty Ltd",
    "address": "Unit 3/83 Broadmeadow Rd, Broadmeadow NSW 2292, Australia",
    "suburb": "Broadmeadow NSW 2292",
    "state": "NSW",
    "rating": 4.9,
    "reviews": 30,
    "lat": -32.9160834,
    "lng": 151.7326427,
    "place_id": "ChIJmwI9m1NAc2sRpuO7egsAHL8",
    "maps_url": "https://www.google.com/maps/place/?q=place_id:ChIJmwI9m1NAc2sRpuO7egsAHL8"
  },
  {
    "name": "56 Electrical - Newcastle Electrical Contractor",
    "address": "56 John Darling Ave, Belmont North NSW 2280, Australia",
    "suburb": "Belmont North NSW 2280",
    "state": "NSW",
    "rating": 5,
    "reviews": 79,
    "lat": -33.025615,
    "lng": 151.6744231,
    "place_id": "ChIJUQ1Evq0jc2sRJcLYVlaIPI0",
    "maps_url": "https://www.google.com/maps/place/?q=place_id:ChIJUQ1Evq0jc2sRJcLYVlaIPI0"
  },
  {
    "name": "Illawarra Electrical & Security",
    "address": "Crown St, Wollongong NSW 2500, Australia",
    "suburb": "Wollongong NSW 2500",
    "state": "NSW",
    "rating": 5,
    "reviews": 236,
    "lat": -34.4271208,
    "lng": 150.8936718,
    "place_id": "ChIJqUajX9Z1Mq8Rs1mQobBeTbg",
    "maps_url": "https://www.google.com/maps/place/?q=place_id:ChIJqUajX9Z1Mq8Rs1mQobBeTbg"
  },
  {
    "name": "HOTT Electrics",
    "address": "Suite 1/1 Burelli St, Wollongong NSW 2500, Australia",
    "suburb": "Wollongong NSW 2500",
    "state": "NSW",
    "rating": 5,
    "reviews": 1026,
    "lat": -34.4274701,
    "lng": 150.9015112,
    "place_id": "ChIJ3Uq5Li3wEmsRCw8phb0YN24",
    "maps_url": "https://www.google.com/maps/place/?q=place_id:ChIJ3Uq5Li3wEmsRCw8phb0YN24"
  },
  {
    "name": "TL Electricians Wollongong",
    "address": "11 Alban St, Corrimal NSW 2518, Australia",
    "suburb": "Corrimal NSW 2518",
    "state": "NSW",
    "rating": 5,
    "reviews": 43,
    "lat": -34.3692896,
    "lng": 150.8985802,
    "place_id": "ChIJNUf0M5ofE2sRrlzHLVsGc1c",
    "maps_url": "https://www.google.com/maps/place/?q=place_id:ChIJNUf0M5ofE2sRrlzHLVsGc1c"
  },
  {
    "name": "ATD Electrical",
    "address": "5/19-21 Ralph Black Dr, North Wollongong NSW 2500, Australia",
    "suburb": "North Wollongong NSW 2500",
    "state": "NSW",
    "rating": 4.9,
    "reviews": 200,
    "lat": -34.4091381,
    "lng": 150.8940694,
    "place_id": "ChIJOWN3EEQZE2sRDs70srDsWaI",
    "maps_url": "https://www.google.com/maps/place/?q=place_id:ChIJOWN3EEQZE2sRDs70srDsWaI"
  },
  {
    "name": "Watt Mate Electrical",
    "address": "23 Iris Ave, Coniston NSW 2500, Australia",
    "suburb": "Coniston NSW 2500",
    "state": "NSW",
    "rating": 4.9,
    "reviews": 27,
    "lat": -34.4371884,
    "lng": 150.8759515,
    "place_id": "ChIJiZSnfeEZE2sRSdv9w90bh2M",
    "maps_url": "https://www.google.com/maps/place/?q=place_id:ChIJiZSnfeEZE2sRSdv9w90bh2M"
  },
  {
    "name": "Lumos Electrical & Solar",
    "address": "Enterprise 1 Innovation Campus, Suite 1, Ground Floor Squires Way, North Wollongong NSW 2500, Australia",
    "suburb": "Suite 1",
    "state": "NSW",
    "rating": 5,
    "reviews": 237,
    "lat": -34.4030897,
    "lng": 150.8985608,
    "place_id": "ChIJFXlccL_aAqoRGHkGMjtk0KE",
    "maps_url": "https://www.google.com/maps/place/?q=place_id:ChIJFXlccL_aAqoRGHkGMjtk0KE"
  },
  {
    "name": "Sparking Larkings Electrical Contractors",
    "address": "19 Wright St, Fernhill NSW 2519, Australia",
    "suburb": "Fernhill NSW 2519",
    "state": "NSW",
    "rating": 5,
    "reviews": 40,
    "lat": -34.3836253,
    "lng": 150.8840014,
    "place_id": "ChIJcdbDPKIZE2sRji0TSsAJEsU",
    "maps_url": "https://www.google.com/maps/place/?q=place_id:ChIJcdbDPKIZE2sRji0TSsAJEsU"
  },
  {
    "name": "Bredlec Electrical Pty Ltd",
    "address": "219 Princes Hwy, Unanderra NSW 2526, Australia",
    "suburb": "Unanderra NSW 2526",
    "state": "NSW",
    "rating": 5,
    "reviews": 39,
    "lat": -34.4595941,
    "lng": 150.8407884,
    "place_id": "ChIJG3wJA4cRE2sRUbLJgUcwZeE",
    "maps_url": "https://www.google.com/maps/place/?q=place_id:ChIJG3wJA4cRE2sRUbLJgUcwZeE"
  },
  {
    "name": "Logan Turk Electrical",
    "address": "285a Princes Hwy, Dapto NSW 2530, Australia",
    "suburb": "Dapto NSW 2530",
    "state": "NSW",
    "rating": 4.9,
    "reviews": 72,
    "lat": -34.5110189,
    "lng": 150.7858045,
    "place_id": "ChIJmabK_v1CUqcRwrPiPkmlelA",
    "maps_url": "https://www.google.com/maps/place/?q=place_id:ChIJmabK_v1CUqcRwrPiPkmlelA"
  },
  {
    "name": "Willeni Electrical Solutions",
    "address": "49 Urunga Parade, Wollongong NSW 2500, Australia",
    "suburb": "Wollongong NSW 2500",
    "state": "NSW",
    "rating": 5,
    "reviews": 13,
    "lat": -34.42533570000001,
    "lng": 150.8778241,
    "place_id": "ChIJaSu50D-lJKURJgkdUwuLdJY",
    "maps_url": "https://www.google.com/maps/place/?q=place_id:ChIJaSu50D-lJKURJgkdUwuLdJY"
  },
  {
    "name": "Mylec Electrical Solutions",
    "address": "Unit 7/6/8 Ralph Black Dr, North Wollongong NSW 2500, Australia",
    "suburb": "North Wollongong NSW 2500",
    "state": "NSW",
    "rating": 5,
    "reviews": 84,
    "lat": -34.4064175,
    "lng": 150.8929828,
    "place_id": "ChIJUeCgHgYZE2sRVkl_LzGiy1o",
    "maps_url": "https://www.google.com/maps/place/?q=place_id:ChIJUeCgHgYZE2sRVkl_LzGiy1o"
  },
  {
    "name": "Better Future Electrical",
    "address": "132 Keira St, Wollongong NSW 2500, Australia",
    "suburb": "Wollongong NSW 2500",
    "state": "NSW",
    "rating": 5,
    "reviews": 1,
    "lat": -34.4222727,
    "lng": 150.8935224,
    "place_id": "ChIJr03CewQZE2sR7WbX-XV-EJg",
    "maps_url": "https://www.google.com/maps/place/?q=place_id:ChIJr03CewQZE2sR7WbX-XV-EJg"
  },
  {
    "name": "Easther Electrical Pty Ltd",
    "address": "4 Industrial Ln, Oak Flats NSW 2529, Australia",
    "suburb": "Oak Flats NSW 2529",
    "state": "NSW",
    "rating": 4.8,
    "reviews": 56,
    "lat": -34.5682898,
    "lng": 150.8137207,
    "place_id": "ChIJMSIEvAATE2sRn9gpDIhqFDM",
    "maps_url": "https://www.google.com/maps/place/?q=place_id:ChIJMSIEvAATE2sRn9gpDIhqFDM"
  },
  {
    "name": "Shell Cove Electrical",
    "address": "Cove Blvd, Shell Cove NSW 2529, Australia",
    "suburb": "Shell Cove NSW 2529",
    "state": "NSW",
    "rating": 5,
    "reviews": 72,
    "lat": -34.5878876,
    "lng": 150.8655735,
    "place_id": "ChIJHz4ONxCXCkoRRKcmFAVGN-g",
    "maps_url": "https://www.google.com/maps/place/?q=place_id:ChIJHz4ONxCXCkoRRKcmFAVGN-g"
  },
  {
    "name": "Impact Electrical Contractors | Central Coast Electrician",
    "address": "189 Main Rd, Toukley NSW 2263, Australia",
    "suburb": "Toukley NSW 2263",
    "state": "NSW",
    "rating": 5,
    "reviews": 607,
    "lat": -33.2634471,
    "lng": 151.5366659,
    "place_id": "ChIJqVsFwsXbcmsRoaHmlowHqaY",
    "maps_url": "https://www.google.com/maps/place/?q=place_id:ChIJqVsFwsXbcmsRoaHmlowHqaY"
  },
  {
    "name": "TB Electrical & Communications",
    "address": "Unit 10/13 Jusfrute Dr, West Gosford NSW 2250, Australia",
    "suburb": "West Gosford NSW 2250",
    "state": "NSW",
    "rating": 5,
    "reviews": 240,
    "lat": -33.4290069,
    "lng": 151.3106367,
    "place_id": "ChIJD1_uWc21cmsRDlLvBZ4lGF8",
    "maps_url": "https://www.google.com/maps/place/?q=place_id:ChIJD1_uWc21cmsRDlLvBZ4lGF8"
  },
  {
    "name": "Terrigal Electrical Services",
    "address": "334 Scenic Hwy, Terrigal NSW 2260, Australia",
    "suburb": "Terrigal NSW 2260",
    "state": "NSW",
    "rating": 4.9,
    "reviews": 775,
    "lat": -33.459634,
    "lng": 151.418583,
    "place_id": "ChIJoUXd6-PJcmsRVfSIOitfAJg",
    "maps_url": "https://www.google.com/maps/place/?q=place_id:ChIJoUXd6-PJcmsRVfSIOitfAJg"
  },
  {
    "name": "First Choice Electrical & Maintenance",
    "address": "47/90 The Entrance Rd, Erina NSW 2250, Australia",
    "suburb": "Erina NSW 2250",
    "state": "NSW",
    "rating": 5,
    "reviews": 412,
    "lat": -33.4378108,
    "lng": 151.3719068,
    "place_id": "ChIJlQP6dDnJcmsRAalNfcwrPF0",
    "maps_url": "https://www.google.com/maps/place/?q=place_id:ChIJlQP6dDnJcmsRAalNfcwrPF0"
  },
  {
    "name": "Fraser Electrical Enterprises",
    "address": "7/2 Carnarvon Rd, West Gosford NSW 2250, Australia",
    "suburb": "West Gosford NSW 2250",
    "state": "NSW",
    "rating": 4.9,
    "reviews": 254,
    "lat": -33.419571,
    "lng": 151.3190711,
    "place_id": "ChIJQ7hfloqnEmsRSA0jD1DLuT4",
    "maps_url": "https://www.google.com/maps/place/?q=place_id:ChIJQ7hfloqnEmsRSA0jD1DLuT4"
  },
  {
    "name": "Home Electrical Services - Central Coast",
    "address": "22 Tumbi Creek Rd, Berkeley Vale NSW 2261, Australia",
    "suburb": "Berkeley Vale NSW 2261",
    "state": "NSW",
    "rating": 5,
    "reviews": 47,
    "lat": -33.359883,
    "lng": 151.4451206,
    "place_id": "ChIJp-_gIPsFcq8RNXFOgy1pURU",
    "maps_url": "https://www.google.com/maps/place/?q=place_id:ChIJp-_gIPsFcq8RNXFOgy1pURU"
  },
  {
    "name": "Langshaw Electrical",
    "address": "33a Riviera Ave, Terrigal NSW 2260, Australia",
    "suburb": "Terrigal NSW 2260",
    "state": "NSW",
    "rating": 5,
    "reviews": 59,
    "lat": -33.4495247,
    "lng": 151.4385543,
    "place_id": "ChIJtzs1TeHJcmsR4ttFrokTLzk",
    "maps_url": "https://www.google.com/maps/place/?q=place_id:ChIJtzs1TeHJcmsR4ttFrokTLzk"
  },
  {
    "name": "Dove’s Electrical",
    "address": "Georgia Dr, Hamlyn Terrace NSW 2259, Australia",
    "suburb": "Hamlyn Terrace NSW 2259",
    "state": "NSW",
    "rating": 5,
    "reviews": 20,
    "lat": -33.2563389,
    "lng": 151.4818034,
    "place_id": "ChIJyVpoqOroSKAR0Ve9tA3FYL0",
    "maps_url": "https://www.google.com/maps/place/?q=place_id:ChIJyVpoqOroSKAR0Ve9tA3FYL0"
  },
  {
    "name": "Central Coast Level 2 Electrician",
    "address": "57 Soldiers Point Dr, Norah Head NSW 2263, Australia",
    "suburb": "Norah Head NSW 2263",
    "state": "NSW",
    "rating": 5,
    "reviews": 43,
    "lat": -33.2820315,
    "lng": 151.5665546,
    "place_id": "ChIJTcf5H-TbcmsRYW8y0D6dWFQ",
    "maps_url": "https://www.google.com/maps/place/?q=place_id:ChIJTcf5H-TbcmsRYW8y0D6dWFQ"
  },
  {
    "name": "Bailey Platt Electrical - Central Coast Electricians",
    "address": "29 Braemar Dr, Wamberal NSW 2260, Australia",
    "suburb": "Wamberal NSW 2260",
    "state": "NSW",
    "rating": 5,
    "reviews": 16,
    "lat": -33.4170787,
    "lng": 151.4451338,
    "place_id": "ChIJ897OCt90PSoR4eg4x6aH-yE",
    "maps_url": "https://www.google.com/maps/place/?q=place_id:ChIJ897OCt90PSoR4eg4x6aH-yE"
  },
  {
    "name": "Insight Electrical & Communications - Electrician Berkeley Vale & Central Coast",
    "address": "383 Lakedge Ave, Berkeley Vale NSW 2261, Australia",
    "suburb": "Berkeley Vale NSW 2261",
    "state": "NSW",
    "rating": 5,
    "reviews": 20,
    "lat": -33.3307619,
    "lng": 151.4403326,
    "place_id": "ChIJN5myQ9fPcmsRieYwNuUszas",
    "maps_url": "https://www.google.com/maps/place/?q=place_id:ChIJN5myQ9fPcmsRieYwNuUszas"
  },
  {
    "name": "Household Electrical - Central Coast Electrician",
    "address": "Unit 6/6 Bon-Mace Cl, Berkeley Vale NSW 2259, Australia",
    "suburb": "Berkeley Vale NSW 2259",
    "state": "NSW",
    "rating": 5,
    "reviews": 29,
    "lat": -33.3593692,
    "lng": 151.4430588,
    "place_id": "ChIJbYX9mJnPcmsRbL8N2Uw4k4M",
    "maps_url": "https://www.google.com/maps/place/?q=place_id:ChIJbYX9mJnPcmsRbL8N2Uw4k4M"
  },
  {
    "name": "Brian Brothers Electrical",
    "address": "4/60 Macquarie St, Parramatta NSW 2150, Australia",
    "suburb": "Parramatta NSW 2150",
    "state": "NSW",
    "rating": 4.1,
    "reviews": 183,
    "lat": -33.8150938,
    "lng": 151.0044296,
    "place_id": "ChIJS_EZEx-jEmsRlCX-v7VLhIs",
    "maps_url": "https://www.google.com/maps/place/?q=place_id:ChIJS_EZEx-jEmsRlCX-v7VLhIs"
  },
  {
    "name": "SBS Electrical Service",
    "address": "9 Frances St, Northmead NSW 2152, Australia",
    "suburb": "Northmead NSW 2152",
    "state": "NSW",
    "rating": 5,
    "reviews": 187,
    "lat": -33.7904625,
    "lng": 150.9951258,
    "place_id": "ChIJPV0qpQGjEmsRdxJ4CpZcstM",
    "maps_url": "https://www.google.com/maps/place/?q=place_id:ChIJPV0qpQGjEmsRdxJ4CpZcstM"
  },
  {
    "name": "Amazed Electrical",
    "address": "103 George St, Parramatta NSW 2150, Australia",
    "suburb": "Parramatta NSW 2150",
    "state": "NSW",
    "rating": 5,
    "reviews": 20,
    "lat": -33.8153895,
    "lng": 151.0094169,
    "place_id": "ChIJK4UcKxSjEmsRvS57skn8Yo0",
    "maps_url": "https://www.google.com/maps/place/?q=place_id:ChIJK4UcKxSjEmsRvS57skn8Yo0"
  },
  {
    "name": "Pasha Electrical Services",
    "address": "2/165-167 Spurway St, Ermington NSW 2115, Australia",
    "suburb": "Ermington NSW 2115",
    "state": "NSW",
    "rating": 5,
    "reviews": 78,
    "lat": -33.8035196,
    "lng": 151.0541993,
    "place_id": "ChIJwYXMh06lEmsRxXhfNiABc4I",
    "maps_url": "https://www.google.com/maps/place/?q=place_id:ChIJwYXMh06lEmsRxXhfNiABc4I"
  },
  {
    "name": "EasyChoice Electrical PTY LTD",
    "address": "540 Guildford Rd, Guildford West NSW 2161, Australia",
    "suburb": "Guildford West NSW 2161",
    "state": "NSW",
    "rating": 5,
    "reviews": 152,
    "lat": -33.8512656,
    "lng": 150.9710326,
    "place_id": "ChIJ1c5HSBq9EmsRaKbhUDB4Vmw",
    "maps_url": "https://www.google.com/maps/place/?q=place_id:ChIJ1c5HSBq9EmsRaKbhUDB4Vmw"
  },
  {
    "name": "Wilco Electrical Services",
    "address": "15/103 George St, Parramatta NSW 2150, Australia",
    "suburb": "Parramatta NSW 2150",
    "state": "NSW",
    "rating": 3,
    "reviews": 2,
    "lat": -33.815203,
    "lng": 151.009461,
    "place_id": "ChIJOyXMKB6jEmsRaI6tdRgNcec",
    "maps_url": "https://www.google.com/maps/place/?q=place_id:ChIJOyXMKB6jEmsRaI6tdRgNcec"
  },
  {
    "name": "Electrician Sydney",
    "address": "49th Floor/8 Parramatta Sq, Parramatta NSW 2150, Australia",
    "suburb": "Parramatta NSW 2150",
    "state": "NSW",
    "rating": null,
    "reviews": 0,
    "lat": -33.8163072,
    "lng": 151.0036056,
    "place_id": "ChIJ4YPltJmjEmsRCfyKKkr-7tA",
    "maps_url": "https://www.google.com/maps/place/?q=place_id:ChIJ4YPltJmjEmsRCfyKKkr-7tA"
  },
  {
    "name": "Melbourne General Electrical Services",
    "address": "Office 12/24-26 Francis St, Melbourne VIC 3000, Australia",
    "suburb": "Melbourne VIC 3000",
    "state": "VIC",
    "rating": 5,
    "reviews": 313,
    "lat": -37.8179579,
    "lng": 144.9554164,
    "place_id": "ChIJMYvLqrBa1moRhp9qHFmYL_w",
    "maps_url": "https://www.google.com/maps/place/?q=place_id:ChIJMYvLqrBa1moRhp9qHFmYL_w"
  },
  {
    "name": "Millerwatts Electricians",
    "address": "Office 7/24/26 Francis St, Melbourne VIC 3000, Australia",
    "suburb": "Melbourne VIC 3000",
    "state": "VIC",
    "rating": 4.9,
    "reviews": 586,
    "lat": -37.8179547,
    "lng": 144.9554259,
    "place_id": "ChIJKa31RIBf1moRbxA8w-JM0DA",
    "maps_url": "https://www.google.com/maps/place/?q=place_id:ChIJKa31RIBf1moRbxA8w-JM0DA"
  },
  {
    "name": "Melbourne Wide Electrical & Plumbing",
    "address": "2/120 Northgate Dr, Thomastown VIC 3087, Australia",
    "suburb": "Thomastown VIC 3087",
    "state": "VIC",
    "rating": 5,
    "reviews": 612,
    "lat": -37.6882478,
    "lng": 145.0304523,
    "place_id": "ChIJkZEZK0VJ1moRyzmeO99yYqk",
    "maps_url": "https://www.google.com/maps/place/?q=place_id:ChIJkZEZK0VJ1moRyzmeO99yYqk"
  },
  {
    "name": "Eastern Melbourne Electricians",
    "address": "98 Allambanan Dr, Bayswater North VIC 3153, Australia",
    "suburb": "Bayswater North VIC 3153",
    "state": "VIC",
    "rating": 5,
    "reviews": 252,
    "lat": -37.8323754,
    "lng": 145.2901883,
    "place_id": "ChIJzyKuuGUw1moRsIn2AFf8wIM",
    "maps_url": "https://www.google.com/maps/place/?q=place_id:ChIJzyKuuGUw1moRsIn2AFf8wIM"
  },
  {
    "name": "Melbourne Electrical Co",
    "address": "16 Margaret St, Oak Park VIC 3046, Australia",
    "suburb": "Oak Park VIC 3046",
    "state": "VIC",
    "rating": 5,
    "reviews": 231,
    "lat": -37.7230941,
    "lng": 144.9191127,
    "place_id": "ChIJS3DhBROVAKkR4H6wjtelDtg",
    "maps_url": "https://www.google.com/maps/place/?q=place_id:ChIJS3DhBROVAKkR4H6wjtelDtg"
  },
  {
    "name": "Adtec Electrical",
    "address": "23/139 Cardigan St, Carlton VIC 3053, Australia",
    "suburb": "Carlton VIC 3053",
    "state": "VIC",
    "rating": 5,
    "reviews": 215,
    "lat": -37.80339499999999,
    "lng": 144.9647181,
    "place_id": "ChIJ-7mUPNxD1moRON03COj4g-c",
    "maps_url": "https://www.google.com/maps/place/?q=place_id:ChIJ-7mUPNxD1moRON03COj4g-c"
  },
  {
    "name": "Electrx",
    "address": "2a/46-50 Buchanan Rd, Brooklyn VIC 3012, Australia",
    "suburb": "Brooklyn VIC 3012",
    "state": "VIC",
    "rating": 5,
    "reviews": 424,
    "lat": -37.8241782,
    "lng": 144.8313326,
    "place_id": "ChIJg9sCT41h1moRdVaLcn5zqOg",
    "maps_url": "https://www.google.com/maps/place/?q=place_id:ChIJg9sCT41h1moRdVaLcn5zqOg"
  },
  {
    "name": "Melbourne Electrical & Air-Conditioning",
    "address": "837 Bourke St, Docklands VIC 3008, Australia",
    "suburb": "Docklands VIC 3008",
    "state": "VIC",
    "rating": 5,
    "reviews": 55,
    "lat": -37.820251,
    "lng": 144.943023,
    "place_id": "ChIJrSmIIJtt1moRI_BoBBkgVrU",
    "maps_url": "https://www.google.com/maps/place/?q=place_id:ChIJrSmIIJtt1moRI_BoBBkgVrU"
  },
  {
    "name": "Lime Electrics",
    "address": "11/46 Graingers Rd, West Footscray VIC 3012, Australia",
    "suburb": "West Footscray VIC 3012",
    "state": "VIC",
    "rating": 4.9,
    "reviews": 290,
    "lat": -37.8050381,
    "lng": 144.8798695,
    "place_id": "ChIJVXwwfHln1moR7NLMfGjExgw",
    "maps_url": "https://www.google.com/maps/place/?q=place_id:ChIJVXwwfHln1moR7NLMfGjExgw"
  },
  {
    "name": "Electrex",
    "address": "Suite 23038/837 Bourke St, Docklands VIC 3008, Australia",
    "suburb": "Docklands VIC 3008",
    "state": "VIC",
    "rating": 5,
    "reviews": 158,
    "lat": -37.820251,
    "lng": 144.943023,
    "place_id": "ChIJ2wRNVD6P1moRDsLuiyl8H88",
    "maps_url": "https://www.google.com/maps/place/?q=place_id:ChIJ2wRNVD6P1moRDsLuiyl8H88"
  },
  {
    "name": "Square Electrical Solutions",
    "address": "4204/33 Rose Ln, Melbourne VIC 3000, Australia",
    "suburb": "Melbourne VIC 3000",
    "state": "VIC",
    "rating": 5,
    "reviews": 75,
    "lat": -37.814958,
    "lng": 144.9539747,
    "place_id": "ChIJaSkw9F-l5oMRmG6J2wiumfc",
    "maps_url": "https://www.google.com/maps/place/?q=place_id:ChIJaSkw9F-l5oMRmG6J2wiumfc"
  },
  {
    "name": "Naarm Electric",
    "address": "265 Exhibition St, Melbourne VIC 3000, Australia",
    "suburb": "Melbourne VIC 3000",
    "state": "VIC",
    "rating": 5,
    "reviews": 15,
    "lat": -37.8094377,
    "lng": 144.9692223,
    "place_id": "ChIJ1-AQgSRD1moRDzgLtJvHNjs",
    "maps_url": "https://www.google.com/maps/place/?q=place_id:ChIJ1-AQgSRD1moRDzgLtJvHNjs"
  },
  {
    "name": "O'Shea Electrical - Electrician Melbourne",
    "address": "15 Cato St, Hawthorn East VIC 3122, Australia",
    "suburb": "Hawthorn East VIC 3122",
    "state": "VIC",
    "rating": 5,
    "reviews": 66,
    "lat": -37.8428797,
    "lng": 145.0437048,
    "place_id": "ChIJ8V3Z-rJD1moRYQ_6RTGQ5hQ",
    "maps_url": "https://www.google.com/maps/place/?q=place_id:ChIJ8V3Z-rJD1moRYQ_6RTGQ5hQ"
  },
  {
    "name": "Jenson Electrical",
    "address": "555 St Kilda Rd, Melbourne VIC 3004, Australia",
    "suburb": "Melbourne VIC 3004",
    "state": "VIC",
    "rating": 5,
    "reviews": 14,
    "lat": -37.8472188,
    "lng": 144.9800944,
    "place_id": "ChIJ5-e7tNBp1moR1AYfTEgydrA",
    "maps_url": "https://www.google.com/maps/place/?q=place_id:ChIJ5-e7tNBp1moR1AYfTEgydrA"
  },
  {
    "name": "Innovative Electrical Contractors",
    "address": "12 Gilcambon Wy, Clyde North VIC 3978, Australia",
    "suburb": "Clyde North VIC 3978",
    "state": "VIC",
    "rating": 4.9,
    "reviews": 74,
    "lat": -38.1156125,
    "lng": 145.3420468,
    "place_id": "ChIJXQ_POBMF1moR8WCm01lU4nE",
    "maps_url": "https://www.google.com/maps/place/?q=place_id:ChIJXQ_POBMF1moR8WCm01lU4nE"
  },
  {
    "name": "Check Safe Electrical",
    "address": "4 Park Rd, Hillside VIC 3037, Australia",
    "suburb": "Hillside VIC 3037",
    "state": "VIC",
    "rating": 5,
    "reviews": 116,
    "lat": -37.6848231,
    "lng": 144.7408174,
    "place_id": "ChIJ28SWnIGTnKERjJbxbj6NBiM",
    "maps_url": "https://www.google.com/maps/place/?q=place_id:ChIJ28SWnIGTnKERjJbxbj6NBiM"
  },
  {
    "name": "Salford Electrical Services",
    "address": "17/1 Graham St, Port Melbourne VIC 3207, Australia",
    "suburb": "Port Melbourne VIC 3207",
    "state": "VIC",
    "rating": 5,
    "reviews": 28,
    "lat": -37.84270739999999,
    "lng": 144.9445652,
    "place_id": "ChIJdYaAo4NQ1YURSFbGKWWFe3w",
    "maps_url": "https://www.google.com/maps/place/?q=place_id:ChIJdYaAo4NQ1YURSFbGKWWFe3w"
  },
  {
    "name": "Super Electrician Geelong",
    "address": "5 Florence Ct, Wandana Heights VIC 3216, Australia",
    "suburb": "Wandana Heights VIC 3216",
    "state": "VIC",
    "rating": 5,
    "reviews": 74,
    "lat": -38.17516,
    "lng": 144.3042606,
    "place_id": "ChIJcfHsLJS_1moRnlmygTXWN_k",
    "maps_url": "https://www.google.com/maps/place/?q=place_id:ChIJcfHsLJS_1moRnlmygTXWN_k"
  },
  {
    "name": "CabledIn Electrical Solutions",
    "address": "Warehouse 28/282 Thompson Rd, North Geelong VIC 3215, Australia",
    "suburb": "North Geelong VIC 3215",
    "state": "VIC",
    "rating": 5,
    "reviews": 1850,
    "lat": -38.1081191,
    "lng": 144.3457125,
    "place_id": "ChIJjU3veExkfwwRMXi9XTnnto8",
    "maps_url": "https://www.google.com/maps/place/?q=place_id:ChIJjU3veExkfwwRMXi9XTnnto8"
  },
  {
    "name": "LEKTRIX",
    "address": "87 Little Malop St, Geelong VIC 3220, Australia",
    "suburb": "Geelong VIC 3220",
    "state": "VIC",
    "rating": 5,
    "reviews": 354,
    "lat": -38.1479597,
    "lng": 144.3593713,
    "place_id": "ChIJY5Za1LvTFG8ROR4tnmIxeqA",
    "maps_url": "https://www.google.com/maps/place/?q=place_id:ChIJY5Za1LvTFG8ROR4tnmIxeqA"
  },
  {
    "name": "Stack Electrical & Data",
    "address": "59 W Fyans St, Newtown VIC 3220, Australia",
    "suburb": "Newtown VIC 3220",
    "state": "VIC",
    "rating": 4.7,
    "reviews": 13,
    "lat": -38.1597271,
    "lng": 144.3453021,
    "place_id": "ChIJs3pRbrhiJwARNxXOL8vf73s",
    "maps_url": "https://www.google.com/maps/place/?q=place_id:ChIJs3pRbrhiJwARNxXOL8vf73s"
  },
  {
    "name": "Kings of Electrical",
    "address": "Unit 19/158 Fyans St, South Geelong VIC 3220, Australia",
    "suburb": "South Geelong VIC 3220",
    "state": "VIC",
    "rating": 5,
    "reviews": 86,
    "lat": -38.1666878,
    "lng": 144.3627811,
    "place_id": "ChIJ0dyOJZ4Z1GoRW7jmtHh89tE",
    "maps_url": "https://www.google.com/maps/place/?q=place_id:ChIJ0dyOJZ4Z1GoRW7jmtHh89tE"
  },
  {
    "name": "Ardour Electrical",
    "address": "59 Little Fyans St, South Geelong VIC 3220, Australia",
    "suburb": "South Geelong VIC 3220",
    "state": "VIC",
    "rating": 5,
    "reviews": 2,
    "lat": -38.1644389,
    "lng": 144.3602242,
    "place_id": "ChIJ7Woy-DYV1GoR10UpHRWXIlU",
    "maps_url": "https://www.google.com/maps/place/?q=place_id:ChIJ7Woy-DYV1GoR10UpHRWXIlU"
  },
  {
    "name": "Alan Popping Electrician",
    "address": "Ryrie St, Geelong VIC 3215, Australia",
    "suburb": "Geelong VIC 3215",
    "state": "VIC",
    "rating": 5,
    "reviews": 49,
    "lat": -38.1527717,
    "lng": 144.3731612,
    "place_id": "ChIJZ9lZYQsT1GoR6Da59kzwzn8",
    "maps_url": "https://www.google.com/maps/place/?q=place_id:ChIJZ9lZYQsT1GoR6Da59kzwzn8"
  },
  {
    "name": "Wired by Whitley",
    "address": "21 Laurel Bank Parade, Newtown VIC 3220, Australia",
    "suburb": "Newtown VIC 3220",
    "state": "VIC",
    "rating": 5,
    "reviews": 10,
    "lat": -38.1511451,
    "lng": 144.348952,
    "place_id": "ChIJd363AlBxGqsR06bXonxw2E4",
    "maps_url": "https://www.google.com/maps/place/?q=place_id:ChIJd363AlBxGqsR06bXonxw2E4"
  },
  {
    "name": "Fenton Electrical Contractors Pty Ltd",
    "address": "194 Latrobe Terrace, Geelong West VIC 3218, Australia",
    "suburb": "Geelong West VIC 3218",
    "state": "VIC",
    "rating": 4.8,
    "reviews": 47,
    "lat": -38.1432048,
    "lng": 144.3531858,
    "place_id": "ChIJGyLIFwIU1GoR7r8lwKRWHLs",
    "maps_url": "https://www.google.com/maps/place/?q=place_id:ChIJGyLIFwIU1GoR7r8lwKRWHLs"
  },
  {
    "name": "N-Tech Electrical",
    "address": "26 Country Gardens Dr, Lara VIC 3212, Australia",
    "suburb": "Lara VIC 3212",
    "state": "VIC",
    "rating": 5,
    "reviews": 130,
    "lat": -38.0304891,
    "lng": 144.3916418,
    "place_id": "ChIJnYbBwisZ1GoRz5tUiNoSkTU",
    "maps_url": "https://www.google.com/maps/place/?q=place_id:ChIJnYbBwisZ1GoRz5tUiNoSkTU"
  },
  {
    "name": "Hi-Tech Electrical Services",
    "address": "141-143 Victoria St, North Geelong VIC 3215, Australia",
    "suburb": "North Geelong VIC 3215",
    "state": "VIC",
    "rating": 5,
    "reviews": 2,
    "lat": -38.1221991,
    "lng": 144.3462494,
    "place_id": "ChIJWxEiuUoR1GoRdhWzrkkc4TE",
    "maps_url": "https://www.google.com/maps/place/?q=place_id:ChIJWxEiuUoR1GoRdhWzrkkc4TE"
  },
  {
    "name": "MJ Electrical & Solar",
    "address": "Shed 12A/102 Fussell St, Ballarat East VIC 3350, Australia",
    "suburb": "Ballarat East VIC 3350",
    "state": "VIC",
    "rating": 4.8,
    "reviews": 76,
    "lat": -37.5612833,
    "lng": 143.8916477,
    "place_id": "ChIJY6l-DJdF0WoRkHDfmKMdE6Q",
    "maps_url": "https://www.google.com/maps/place/?q=place_id:ChIJY6l-DJdF0WoRkHDfmKMdE6Q"
  },
  {
    "name": "Tudor Electrical",
    "address": "67 Humffray St N, Bakery Hill VIC 3350, Australia",
    "suburb": "Bakery Hill VIC 3350",
    "state": "VIC",
    "rating": 5,
    "reviews": 23,
    "lat": -37.5602022,
    "lng": 143.8664971,
    "place_id": "ChIJaSfqttxF0WoRrhFeuWJmkz8",
    "maps_url": "https://www.google.com/maps/place/?q=place_id:ChIJaSfqttxF0WoRrhFeuWJmkz8"
  },
  {
    "name": "LRE Electrical",
    "address": "14 Tanderra Court, Miners Rest VIC 3352, Australia",
    "suburb": "Miners Rest VIC 3352",
    "state": "VIC",
    "rating": 5,
    "reviews": 12,
    "lat": -37.4971221,
    "lng": 143.8039319,
    "place_id": "ChIJE9V6pQc45asRjy8GzyTRBzk",
    "maps_url": "https://www.google.com/maps/place/?q=place_id:ChIJE9V6pQc45asRjy8GzyTRBzk"
  },
  {
    "name": "Ballarat Electrical Co.",
    "address": "1322 Dana St, Ballarat Central VIC 3350, Australia",
    "suburb": "Ballarat Central VIC 3350",
    "state": "VIC",
    "rating": 5,
    "reviews": 6,
    "lat": -37.561729,
    "lng": 143.839188,
    "place_id": "ChIJVVVVVQVF0WoR4bPGyPMJ8qY",
    "maps_url": "https://www.google.com/maps/place/?q=place_id:ChIJVVVVVQVF0WoR4bPGyPMJ8qY"
  },
  {
    "name": "HARTIGAN ELECTRICAL",
    "address": "3 Skyline Dr, Alfredton VIC 3350, Australia",
    "suburb": "Alfredton VIC 3350",
    "state": "VIC",
    "rating": 5,
    "reviews": 3,
    "lat": -37.5457435,
    "lng": 143.8058252,
    "place_id": "ChIJt9FPrXVD0WoRLbFU6VVTvbQ",
    "maps_url": "https://www.google.com/maps/place/?q=place_id:ChIJt9FPrXVD0WoRLbFU6VVTvbQ"
  },
  {
    "name": "SMA Electrical",
    "address": "62 Merino Dr, Alfredton VIC 3350, Australia",
    "suburb": "Alfredton VIC 3350",
    "state": "VIC",
    "rating": 5,
    "reviews": 26,
    "lat": -37.5597594,
    "lng": 143.7968926,
    "place_id": "ChIJh-H4Qoxh0WoRUKwF9v6V8i4",
    "maps_url": "https://www.google.com/maps/place/?q=place_id:ChIJh-H4Qoxh0WoRUKwF9v6V8i4"
  },
  {
    "name": "Ballarat Central Auto Electrics PTY LTD",
    "address": "39/41 Scott Parade, Ballarat East VIC 3350, Australia",
    "suburb": "Ballarat East VIC 3350",
    "state": "VIC",
    "rating": 4.8,
    "reviews": 132,
    "lat": -37.5591548,
    "lng": 143.8650808,
    "place_id": "ChIJhz_4EelE0WoRuOK6SnYjPVU",
    "maps_url": "https://www.google.com/maps/place/?q=place_id:ChIJhz_4EelE0WoRuOK6SnYjPVU"
  },
  {
    "name": "Hower Power Electrical",
    "address": "Ballarat Central VIC 3350, Australia",
    "suburb": "Australia",
    "state": "VIC",
    "rating": 5,
    "reviews": 1,
    "lat": -37.5621587,
    "lng": 143.8502556,
    "place_id": "ChIJ4e25UT1F0WoROvTe6eZNoPk",
    "maps_url": "https://www.google.com/maps/place/?q=place_id:ChIJ4e25UT1F0WoROvTe6eZNoPk"
  },
  {
    "name": "Mark Kelly Electrical",
    "address": "43 Jasmine Dr, Delacombe VIC 3356, Australia",
    "suburb": "Delacombe VIC 3356",
    "state": "VIC",
    "rating": 5,
    "reviews": 92,
    "lat": -37.5844652,
    "lng": 143.8116817,
    "place_id": "ChIJPbM5BLeJFGsRluttne8rhtE",
    "maps_url": "https://www.google.com/maps/place/?q=place_id:ChIJPbM5BLeJFGsRluttne8rhtE"
  },
  {
    "name": "O'Brien Electrical & Air Conditioning Bendigo",
    "address": "18 Mcdowalls Rd, East Bendigo VIC 3550, Australia",
    "suburb": "East Bendigo VIC 3550",
    "state": "VIC",
    "rating": 4.8,
    "reviews": 252,
    "lat": -36.7481561,
    "lng": 144.3167022,
    "place_id": "ChIJG-3uluFY12oR8vNvWioDvhE",
    "maps_url": "https://www.google.com/maps/place/?q=place_id:ChIJG-3uluFY12oR8vNvWioDvhE"
  },
  {
    "name": "Lahn Electrics",
    "address": "Honeysuckle St, Bendigo VIC 3550, Australia",
    "suburb": "Bendigo VIC 3550",
    "state": "VIC",
    "rating": 5,
    "reviews": 8,
    "lat": -36.7648733,
    "lng": 144.2676471,
    "place_id": "ChIJVVVVVYVZ12oRhqK-aG5hm6g",
    "maps_url": "https://www.google.com/maps/place/?q=place_id:ChIJVVVVVYVZ12oRhqK-aG5hm6g"
  },
  {
    "name": "Stanalec Electrical Contractors",
    "address": "60 Powells Ave, East Bendigo VIC 3550, Australia",
    "suburb": "East Bendigo VIC 3550",
    "state": "VIC",
    "rating": 4.7,
    "reviews": 48,
    "lat": -36.7535363,
    "lng": 144.3182861,
    "place_id": "ChIJEYCCJxPi2WoRs6jaStxTGK8",
    "maps_url": "https://www.google.com/maps/place/?q=place_id:ChIJEYCCJxPi2WoRs6jaStxTGK8"
  },
  {
    "name": "Eascom Electrical Bendigo",
    "address": "Unit 1/17 Deborah St, Golden Square VIC 3555, Australia",
    "suburb": "Golden Square VIC 3555",
    "state": "VIC",
    "rating": 5,
    "reviews": 1,
    "lat": -36.7738253,
    "lng": 144.2729912,
    "place_id": "ChIJ_XA0HQZZ12oRxIQcDoNJ_88",
    "maps_url": "https://www.google.com/maps/place/?q=place_id:ChIJ_XA0HQZZ12oRxIQcDoNJ_88"
  },
  {
    "name": "Ampy Electrical",
    "address": "132A Lily St, Bendigo VIC 3551, Australia",
    "suburb": "Bendigo VIC 3551",
    "state": "VIC",
    "rating": 5,
    "reviews": 189,
    "lat": -36.7621831,
    "lng": 144.2645832,
    "place_id": "ChIJy5gCxMziwC4RlQxMUrfUonk",
    "maps_url": "https://www.google.com/maps/place/?q=place_id:ChIJy5gCxMziwC4RlQxMUrfUonk"
  },
  {
    "name": "Think Electrical Solutions",
    "address": "1/4 Contempo Ct, East Bendigo VIC 3550, Australia",
    "suburb": "East Bendigo VIC 3550",
    "state": "VIC",
    "rating": 5,
    "reviews": 49,
    "lat": -36.7533267,
    "lng": 144.3161046,
    "place_id": "ChIJA4DQzAvl1moRoXJS89uKLQw",
    "maps_url": "https://www.google.com/maps/place/?q=place_id:ChIJA4DQzAvl1moRoXJS89uKLQw"
  },
  {
    "name": "Goldfields Electrical Services",
    "address": "12 Grattan St, North Bendigo VIC 3550, Australia",
    "suburb": "North Bendigo VIC 3550",
    "state": "VIC",
    "rating": 5,
    "reviews": 5,
    "lat": -36.7473645,
    "lng": 144.2816875,
    "place_id": "ChIJ4-yyqjJZ12oRnxc5OFIVABY",
    "maps_url": "https://www.google.com/maps/place/?q=place_id:ChIJ4-yyqjJZ12oRnxc5OFIVABY"
  },
  {
    "name": "HJ Miller Electrical",
    "address": "12B Stafford St, California Gully VIC 3556, Australia",
    "suburb": "California Gully VIC 3556",
    "state": "VIC",
    "rating": 5,
    "reviews": 27,
    "lat": -36.7322118,
    "lng": 144.2598023,
    "place_id": "ChIJCw738SRY12oR5vzRp5GYib0",
    "maps_url": "https://www.google.com/maps/place/?q=place_id:ChIJCw738SRY12oR5vzRp5GYib0"
  },
  {
    "name": "TCA Electrical Contractors",
    "address": "102 A MacDougall Rd, Golden Gully VIC 3555, Australia",
    "suburb": "Golden Gully VIC 3555",
    "state": "VIC",
    "rating": 5,
    "reviews": 22,
    "lat": -36.7847445,
    "lng": 144.2619898,
    "place_id": "ChIJb9vha15d12oR4K4aDQN0ewo",
    "maps_url": "https://www.google.com/maps/place/?q=place_id:ChIJb9vha15d12oR4K4aDQN0ewo"
  },
  {
    "name": "Cam Carter Electrical",
    "address": "Kennington VIC 3550, 47 Mill St, Bendigo VIC 3550, Australia",
    "suburb": "47 Mill St",
    "state": "VIC",
    "rating": 5,
    "reviews": 1,
    "lat": -36.7618178,
    "lng": 144.3044099,
    "place_id": "ChIJtc0sNnVZ12oRbp_la3Vs50g",
    "maps_url": "https://www.google.com/maps/place/?q=place_id:ChIJtc0sNnVZ12oRbp_la3Vs50g"
  },
  {
    "name": "Mr Eco",
    "address": "68 Beischer St, East Bendigo VIC 3550, Australia",
    "suburb": "East Bendigo VIC 3550",
    "state": "VIC",
    "rating": 5,
    "reviews": 17,
    "lat": -36.7522717,
    "lng": 144.3081415,
    "place_id": "ChIJDb4LkQRc12oRGXSexAxcHXI",
    "maps_url": "https://www.google.com/maps/place/?q=place_id:ChIJDb4LkQRc12oRGXSexAxcHXI"
  },
  {
    "name": "JD Data and Electrical",
    "address": "Unit 4/10 Matchett Dr, East Bendigo VIC 3550, Australia",
    "suburb": "East Bendigo VIC 3550",
    "state": "VIC",
    "rating": 3.8,
    "reviews": 4,
    "lat": -36.7526146,
    "lng": 144.3193857,
    "place_id": "ChIJjyrqr8NZ12oRhFrOOXwQJoc",
    "maps_url": "https://www.google.com/maps/place/?q=place_id:ChIJjyrqr8NZ12oRhFrOOXwQJoc"
  },
  {
    "name": "Your Electrical Expert",
    "address": "Unit 9-11/23 Breene Pl, Morningside QLD 4170, Australia",
    "suburb": "Morningside QLD 4170",
    "state": "QLD",
    "rating": 4.9,
    "reviews": 1058,
    "lat": -27.4583857,
    "lng": 153.0833241,
    "place_id": "ChIJZ9N1aLlZkWsR_kUdMgiNsDI",
    "maps_url": "https://www.google.com/maps/place/?q=place_id:ChIJZ9N1aLlZkWsR_kUdMgiNsDI"
  },
  {
    "name": "Audem Electrical",
    "address": "Unit 3/44 Leonard St, Woolloongabba QLD 4102, Australia",
    "suburb": "Woolloongabba QLD 4102",
    "state": "QLD",
    "rating": 4.9,
    "reviews": 708,
    "lat": -27.4937322,
    "lng": 153.0468644,
    "place_id": "ChIJw5Kf1UdakWsRMxVj0op0ahA",
    "maps_url": "https://www.google.com/maps/place/?q=place_id:ChIJw5Kf1UdakWsRMxVj0op0ahA"
  },
  {
    "name": "Orange Electrical",
    "address": "Unit 11/130 East-West Arterial Rd, Hendra QLD 4011, Australia",
    "suburb": "Hendra QLD 4011",
    "state": "QLD",
    "rating": 4.9,
    "reviews": 81,
    "lat": -27.4097111,
    "lng": 153.0726482,
    "place_id": "ChIJ09X3yb1ZkWsR6SQoX2un-i8",
    "maps_url": "https://www.google.com/maps/place/?q=place_id:ChIJ09X3yb1ZkWsR6SQoX2un-i8"
  },
  {
    "name": "Brisbane Power Electricians",
    "address": "Unit 3/84 Newmarket Rd, Windsor QLD 4030, Australia",
    "suburb": "Windsor QLD 4030",
    "state": "QLD",
    "rating": 5,
    "reviews": 113,
    "lat": -27.4377375,
    "lng": 153.0260352,
    "place_id": "ChIJCw0jA_dRkWsRIHjyXiVSviE",
    "maps_url": "https://www.google.com/maps/place/?q=place_id:ChIJCw0jA_dRkWsRIHjyXiVSviE"
  },
  {
    "name": "Just-In Time Electrical",
    "address": "Unit 16/38 Limestone St, Darra QLD 4076, Australia",
    "suburb": "Darra QLD 4076",
    "state": "QLD",
    "rating": 4.9,
    "reviews": 252,
    "lat": -27.5629275,
    "lng": 152.949872,
    "place_id": "ChIJQd4064JPkWsR_JbtIxW4n0k",
    "maps_url": "https://www.google.com/maps/place/?q=place_id:ChIJQd4064JPkWsR_JbtIxW4n0k"
  },
  {
    "name": "Jetset Electrical",
    "address": "49 Montpelier Rd, Bowen Hills QLD 4006, Australia",
    "suburb": "Bowen Hills QLD 4006",
    "state": "QLD",
    "rating": 4.9,
    "reviews": 594,
    "lat": -27.4484401,
    "lng": 153.0392295,
    "place_id": "ChIJcRv8-_QDkWsRU98mExcxX4Q",
    "maps_url": "https://www.google.com/maps/place/?q=place_id:ChIJcRv8-_QDkWsRU98mExcxX4Q"
  },
  {
    "name": "Jo Electrical Works",
    "address": "1 Gragin Pl, Parkinson QLD 4115, Australia",
    "suburb": "Parkinson QLD 4115",
    "state": "QLD",
    "rating": 4.9,
    "reviews": 342,
    "lat": -27.6293108,
    "lng": 153.0315138,
    "place_id": "ChIJn0wfah9FkWsRtV_GvYRUxn8",
    "maps_url": "https://www.google.com/maps/place/?q=place_id:ChIJn0wfah9FkWsRtV_GvYRUxn8"
  },
  {
    "name": "Electrician Brisbane Pty Ltd",
    "address": "12 Hinterwood Ct, Edens Landing QLD 4207, Australia",
    "suburb": "Edens Landing QLD 4207",
    "state": "QLD",
    "rating": 5,
    "reviews": 94,
    "lat": -27.7017064,
    "lng": 153.1744251,
    "place_id": "ChIJy3cS5JRCk0YRiuHIWOyRE3I",
    "maps_url": "https://www.google.com/maps/place/?q=place_id:ChIJy3cS5JRCk0YRiuHIWOyRE3I"
  },
  {
    "name": "Static Electrics Brisbane",
    "address": "Unit 7/50 Northlink Pl, Virginia QLD 4014, Australia",
    "suburb": "Virginia QLD 4014",
    "state": "QLD",
    "rating": 4.8,
    "reviews": 877,
    "lat": -27.3850492,
    "lng": 153.06982,
    "place_id": "ChIJG9b3kXjik2sRqPiqakhNqTw",
    "maps_url": "https://www.google.com/maps/place/?q=place_id:ChIJG9b3kXjik2sRqPiqakhNqTw"
  },
  {
    "name": "Dawson Electric",
    "address": "7/25 Lerna St, Woolloongabba QLD 4102, Australia",
    "suburb": "Woolloongabba QLD 4102",
    "state": "QLD",
    "rating": 4.9,
    "reviews": 384,
    "lat": -27.4919531,
    "lng": 153.0455247,
    "place_id": "ChIJc4ToaqtbkWsRw2-2cu2Rm_E",
    "maps_url": "https://www.google.com/maps/place/?q=place_id:ChIJc4ToaqtbkWsRw2-2cu2Rm_E"
  },
  {
    "name": "Electrical Embassy",
    "address": "Corporate Park South, 171Y/49 Station Rd, Yeerongpilly QLD 4105, Australia",
    "suburb": "171Y/49 Station Rd",
    "state": "QLD",
    "rating": 5,
    "reviews": 225,
    "lat": -27.5294832,
    "lng": 153.0150451,
    "place_id": "ChIJE33trHJbkWsRA8jc0eJv6AE",
    "maps_url": "https://www.google.com/maps/place/?q=place_id:ChIJE33trHJbkWsRA8jc0eJv6AE"
  },
  {
    "name": "Speedy Electrical",
    "address": "12 Eastwood Pl, McDowall QLD 4053, Australia",
    "suburb": "McDowall QLD 4053",
    "state": "QLD",
    "rating": 4.8,
    "reviews": 126,
    "lat": -27.3757414,
    "lng": 152.9904637,
    "place_id": "ChIJZSxCXpXik2sRXVIzhDyIAJE",
    "maps_url": "https://www.google.com/maps/place/?q=place_id:ChIJZSxCXpXik2sRXVIzhDyIAJE"
  },
  {
    "name": "Holliday Electrical",
    "address": "22/254 S Pine Rd, Enoggera QLD 4051, Australia",
    "suburb": "Enoggera QLD 4051",
    "state": "QLD",
    "rating": 5,
    "reviews": 87,
    "lat": -27.4177846,
    "lng": 152.9941217,
    "place_id": "ChIJUVv_zlGSlCsRC3BnWncit-c",
    "maps_url": "https://www.google.com/maps/place/?q=place_id:ChIJUVv_zlGSlCsRC3BnWncit-c"
  },
  {
    "name": "Copper Bull Electrical Services",
    "address": "71 Garro St, Sunnybank Hills QLD 4109, Australia",
    "suburb": "Sunnybank Hills QLD 4109",
    "state": "QLD",
    "rating": 4.7,
    "reviews": 230,
    "lat": -27.5902335,
    "lng": 153.0532117,
    "place_id": "ChIJce81FvzFkQURPt7wWPd5IuE",
    "maps_url": "https://www.google.com/maps/place/?q=place_id:ChIJce81FvzFkQURPt7wWPd5IuE"
  },
  {
    "name": "Elite Electrical Maintenance and Airconditioning",
    "address": "Unit 4/58 Pritchard Rd, Virginia QLD 4034, Australia",
    "suburb": "Virginia QLD 4034",
    "state": "QLD",
    "rating": 5,
    "reviews": 153,
    "lat": -27.3745399,
    "lng": 153.0585306,
    "place_id": "ChIJb1h9OFfHTysRhJzRqdK1FS4",
    "maps_url": "https://www.google.com/maps/place/?q=place_id:ChIJb1h9OFfHTysRhJzRqdK1FS4"
  },
  {
    "name": "𝗚𝗼𝗹𝗱 𝗖𝗼𝗮𝘀𝘁 𝗘𝗹𝗲𝗰𝘁𝗿𝗶𝗰𝗶𝗮𝗻 𝗦𝗲𝗿𝘃𝗶𝗰𝗲𝘀",
    "address": "3 Concourse Dr, Mermaid Waters QLD 4218, Australia",
    "suburb": "Mermaid Waters QLD 4218",
    "state": "QLD",
    "rating": 4.9,
    "reviews": 58,
    "lat": -28.0377225,
    "lng": 153.4128547,
    "place_id": "ChIJ_bpSEMUFkWsRqBL6npmrcB4",
    "maps_url": "https://www.google.com/maps/place/?q=place_id:ChIJ_bpSEMUFkWsRqBL6npmrcB4"
  },
  {
    "name": "Gold Coast Better Electrical",
    "address": "28 Peter Senior Ct, Parkwood QLD 4214, Australia",
    "suburb": "Parkwood QLD 4214",
    "state": "QLD",
    "rating": 5,
    "reviews": 63,
    "lat": -27.9620091,
    "lng": 153.3660605,
    "place_id": "ChIJaUdGDaYRkWsRBsJFpn2Dh7I",
    "maps_url": "https://www.google.com/maps/place/?q=place_id:ChIJaUdGDaYRkWsRBsJFpn2Dh7I"
  },
  {
    "name": "ESL Electrical Services",
    "address": "Montville Ct, Varsity Lakes QLD 4227, Australia",
    "suburb": "Varsity Lakes QLD 4227",
    "state": "QLD",
    "rating": 5,
    "reviews": 266,
    "lat": -28.0838348,
    "lng": 153.4017578,
    "place_id": "ChIJkb7VSFYFkWsRA7Dt5pdn7DA",
    "maps_url": "https://www.google.com/maps/place/?q=place_id:ChIJkb7VSFYFkWsRA7Dt5pdn7DA"
  },
  {
    "name": "EJ Electrical",
    "address": "4/6 Wheeler Cres, Currumbin QLD 4223, Australia",
    "suburb": "Currumbin QLD 4223",
    "state": "QLD",
    "rating": 4.7,
    "reviews": 383,
    "lat": -28.1497766,
    "lng": 153.471531,
    "place_id": "ChIJXcvh7QgDkWsRYxdmIu1n8QM",
    "maps_url": "https://www.google.com/maps/place/?q=place_id:ChIJXcvh7QgDkWsRYxdmIu1n8QM"
  },
  {
    "name": "DARK ELECTRICAL",
    "address": "78-80 Stanhill Dr, Surfers Paradise QLD 4217, Australia",
    "suburb": "Surfers Paradise QLD 4217",
    "state": "QLD",
    "rating": 4.9,
    "reviews": 71,
    "lat": -27.9957475,
    "lng": 153.4214812,
    "place_id": "ChIJYTap2qYFkWsRuZzqp_tR5S4",
    "maps_url": "https://www.google.com/maps/place/?q=place_id:ChIJYTap2qYFkWsRuZzqp_tR5S4"
  },
  {
    "name": "Emos Electrical",
    "address": "14 River Cres, Broadbeach Waters QLD 4218, Australia",
    "suburb": "Broadbeach Waters QLD 4218",
    "state": "QLD",
    "rating": 4.8,
    "reviews": 265,
    "lat": -28.0290227,
    "lng": 153.396004,
    "place_id": "ChIJOUKJddIEkWsR5xnft-W8mQM",
    "maps_url": "https://www.google.com/maps/place/?q=place_id:ChIJOUKJddIEkWsR5xnft-W8mQM"
  },
  {
    "name": "Good Vibes Electrical",
    "address": "21 Nineteenth Ave, Palm Beach QLD 4221, Australia",
    "suburb": "Palm Beach QLD 4221",
    "state": "QLD",
    "rating": 5,
    "reviews": 42,
    "lat": -28.1101657,
    "lng": 153.4641166,
    "place_id": "ChIJd3eJR8gDkWsRbhDwsSRAQwY",
    "maps_url": "https://www.google.com/maps/place/?q=place_id:ChIJd3eJR8gDkWsRbhDwsSRAQwY"
  },
  {
    "name": "JL Electrical Solutions",
    "address": "20 Tourangeau Cres, Varsity Lakes QLD 4227, Australia",
    "suburb": "Varsity Lakes QLD 4227",
    "state": "QLD",
    "rating": 5,
    "reviews": 50,
    "lat": -28.0806523,
    "lng": 153.4094924,
    "place_id": "ChIJh8M9CLRuygwRpvxV5RT_kjg",
    "maps_url": "https://www.google.com/maps/place/?q=place_id:ChIJh8M9CLRuygwRpvxV5RT_kjg"
  },
  {
    "name": "Crystal Waters Electrical",
    "address": "56 Rapallo Ave, Surfers Paradise QLD 4217, Australia",
    "suburb": "Surfers Paradise QLD 4217",
    "state": "QLD",
    "rating": 5,
    "reviews": 49,
    "lat": -28.0141613,
    "lng": 153.4133981,
    "place_id": "ChIJdQDSbwAFkWsRi7s0OPa_VvA",
    "maps_url": "https://www.google.com/maps/place/?q=place_id:ChIJdQDSbwAFkWsRi7s0OPa_VvA"
  },
  {
    "name": "Vision Electrical",
    "address": "Shed 3/29 Bailey Cres, Southport QLD 4215, Australia",
    "suburb": "Southport QLD 4215",
    "state": "QLD",
    "rating": 5,
    "reviews": 206,
    "lat": -27.9710402,
    "lng": 153.3886043,
    "place_id": "ChIJZ3QSitIRkWsRkn-WufXHME8",
    "maps_url": "https://www.google.com/maps/place/?q=place_id:ChIJZ3QSitIRkWsRkn-WufXHME8"
  },
  {
    "name": "Brown & Co Electrical",
    "address": "Palm Beach QLD 4221, Australia",
    "suburb": "Australia",
    "state": "QLD",
    "rating": 5,
    "reviews": 30,
    "lat": -28.1215751,
    "lng": 153.4717801,
    "place_id": "ChIJj8pHLL0DkWsR-vgZhK7YDSE",
    "maps_url": "https://www.google.com/maps/place/?q=place_id:ChIJj8pHLL0DkWsR-vgZhK7YDSE"
  },
  {
    "name": "HUX Electrical",
    "address": "23/1374 Gold Coast Hwy, Palm Beach QLD 4221, Australia",
    "suburb": "Palm Beach QLD 4221",
    "state": "QLD",
    "rating": 4.9,
    "reviews": 145,
    "lat": -28.1078381,
    "lng": 153.4647405,
    "place_id": "ChIJ83ifQnfJEmsRFiNsEsBi7Fo",
    "maps_url": "https://www.google.com/maps/place/?q=place_id:ChIJ83ifQnfJEmsRFiNsEsBi7Fo"
  },
  {
    "name": "Brux Electrical",
    "address": "5 Grebe Pl, Burleigh Waters QLD 4220, Australia",
    "suburb": "Burleigh Waters QLD 4220",
    "state": "QLD",
    "rating": 5,
    "reviews": 62,
    "lat": -28.0744643,
    "lng": 153.4302111,
    "place_id": "ChIJeaYvuBYDkWsRby4sk7oTYnY",
    "maps_url": "https://www.google.com/maps/place/?q=place_id:ChIJeaYvuBYDkWsRby4sk7oTYnY"
  },
  {
    "name": "Static Electrics Sunshine Coast",
    "address": "173 Ballinger Rd, Buderim QLD 4556, Australia",
    "suburb": "Buderim QLD 4556",
    "state": "QLD",
    "rating": 4.9,
    "reviews": 1380,
    "lat": -26.6971574,
    "lng": 153.0628691,
    "place_id": "ChIJn4iRg4Kdk2sRtVFmBpZSQHc",
    "maps_url": "https://www.google.com/maps/place/?q=place_id:ChIJn4iRg4Kdk2sRtVFmBpZSQHc"
  },
  {
    "name": "Buderim Electrical",
    "address": "10 Royal Dr, Buderim QLD 4556, Australia",
    "suburb": "Buderim QLD 4556",
    "state": "QLD",
    "rating": 4.9,
    "reviews": 74,
    "lat": -26.6882109,
    "lng": 153.0434344,
    "place_id": "ChIJ17xlAXydk2sRGH3TJ7pceKE",
    "maps_url": "https://www.google.com/maps/place/?q=place_id:ChIJ17xlAXydk2sRGH3TJ7pceKE"
  },
  {
    "name": "Sunshine Coast Projects & Electrical",
    "address": "Mountain Creek QLD 4557, Australia",
    "suburb": "Australia",
    "state": "QLD",
    "rating": 5,
    "reviews": 21,
    "lat": -26.7037543,
    "lng": 153.0964507,
    "place_id": "ChIJW2jKRwGek2sRnZs7zaqMJfQ",
    "maps_url": "https://www.google.com/maps/place/?q=place_id:ChIJW2jKRwGek2sRnZs7zaqMJfQ"
  },
  {
    "name": "Axon Electrical",
    "address": "12 Sweep Ct, Birtinya QLD 4575, Australia",
    "suburb": "Birtinya QLD 4575",
    "state": "QLD",
    "rating": 5,
    "reviews": 80,
    "lat": -26.7497024,
    "lng": 153.1204556,
    "place_id": "ChIJg4O-uaHbeEYRWzWEEeynWLU",
    "maps_url": "https://www.google.com/maps/place/?q=place_id:ChIJg4O-uaHbeEYRWzWEEeynWLU"
  },
  {
    "name": "Beaumont Electrical",
    "address": "18 MacDonald St, Caloundra QLD 4551, Australia",
    "suburb": "Caloundra QLD 4551",
    "state": "QLD",
    "rating": 4.8,
    "reviews": 71,
    "lat": -26.7872299,
    "lng": 153.1358604,
    "place_id": "ChIJXxfSs8uek2sRqDBsG1-C_F8",
    "maps_url": "https://www.google.com/maps/place/?q=place_id:ChIJXxfSs8uek2sRqDBsG1-C_F8"
  },
  {
    "name": "Astill's Electrical Services",
    "address": "28 Kessling Ave, Kunda Park QLD 4556, Australia",
    "suburb": "Kunda Park QLD 4556",
    "state": "QLD",
    "rating": 4.9,
    "reviews": 78,
    "lat": -26.6686877,
    "lng": 153.0311996,
    "place_id": "ChIJqafcbYd3k2sRLlKB4cBB29A",
    "maps_url": "https://www.google.com/maps/place/?q=place_id:ChIJqafcbYd3k2sRLlKB4cBB29A"
  },
  {
    "name": "All Sunshine Electrical",
    "address": "141 Parsons Rd, Forest Glen QLD 4556, Australia",
    "suburb": "Forest Glen QLD 4556",
    "state": "QLD",
    "rating": 5,
    "reviews": 228,
    "lat": -26.6869028,
    "lng": 153.0132178,
    "place_id": "ChIJI5ElpZ6YWSYR-5sqhD8UOuU",
    "maps_url": "https://www.google.com/maps/place/?q=place_id:ChIJI5ElpZ6YWSYR-5sqhD8UOuU"
  },
  {
    "name": "Ben Miles Electrical",
    "address": "37 Bando St, Pacific Paradise QLD 4564, Australia",
    "suburb": "Pacific Paradise QLD 4564",
    "state": "QLD",
    "rating": 5,
    "reviews": 20,
    "lat": -26.6193638,
    "lng": 153.0783664,
    "place_id": "ChIJoTYsFL5CsooRfjMKQ5lFz9E",
    "maps_url": "https://www.google.com/maps/place/?q=place_id:ChIJoTYsFL5CsooRfjMKQ5lFz9E"
  },
  {
    "name": "Sunshine Beach Electrical",
    "address": "28 Solway Dr, Sunshine Beach QLD 4567, Australia",
    "suburb": "Sunshine Beach QLD 4567",
    "state": "QLD",
    "rating": 5,
    "reviews": 1,
    "lat": -26.4008904,
    "lng": 153.1056301,
    "place_id": "ChIJrfOknRJpk2sRBx_VzvWbyeQ",
    "maps_url": "https://www.google.com/maps/place/?q=place_id:ChIJrfOknRJpk2sRBx_VzvWbyeQ"
  },
  {
    "name": "Keith Atkinson Electrical",
    "address": "Unit 3/37 Advance Rd, Kuluin QLD 4558, Australia",
    "suburb": "Kuluin QLD 4558",
    "state": "QLD",
    "rating": 4.9,
    "reviews": 117,
    "lat": -26.6535025,
    "lng": 153.0560527,
    "place_id": "ChIJd8qxWfx3k2sRS3mFui_HPtY",
    "maps_url": "https://www.google.com/maps/place/?q=place_id:ChIJd8qxWfx3k2sRS3mFui_HPtY"
  },
  {
    "name": "Trusted Electrical",
    "address": "118 Sunshine Cove Way, Maroochydore QLD 4558, Australia",
    "suburb": "Maroochydore QLD 4558",
    "state": "QLD",
    "rating": 5,
    "reviews": 99,
    "lat": -26.6650637,
    "lng": 153.0749369,
    "place_id": "ChIJ-VFEnq6Fk2sR77ZRhm26POM",
    "maps_url": "https://www.google.com/maps/place/?q=place_id:ChIJ-VFEnq6Fk2sR77ZRhm26POM"
  },
  {
    "name": "J & P Electrical",
    "address": "U8/9 Dual Ave, Warana QLD 4575, Australia",
    "suburb": "Warana QLD 4575",
    "state": "QLD",
    "rating": 5,
    "reviews": 162,
    "lat": -26.7284209,
    "lng": 153.1222286,
    "place_id": "ChIJfaor5vB1k2sRH5QfDwPK3vw",
    "maps_url": "https://www.google.com/maps/place/?q=place_id:ChIJfaor5vB1k2sRH5QfDwPK3vw"
  },
  {
    "name": "Voltec Services Pty Ltd",
    "address": "78 Mather St, Garbutt QLD 4814, Australia",
    "suburb": "Garbutt QLD 4814",
    "state": "QLD",
    "rating": 4.9,
    "reviews": 109,
    "lat": -19.2696667,
    "lng": 146.7486893,
    "place_id": "ChIJY8sMU4X51WsRLDT2hzQ7ZBE",
    "maps_url": "https://www.google.com/maps/place/?q=place_id:ChIJY8sMU4X51WsRLDT2hzQ7ZBE"
  },
  {
    "name": "Genesis Industries | Townsville Electrical, Air Conditioning & Construction",
    "address": "2A/88 Hervey Range Rd, Thuringowa Central QLD 4817, Australia",
    "suburb": "Thuringowa Central QLD 4817",
    "state": "QLD",
    "rating": 5,
    "reviews": 482,
    "lat": -19.3201131,
    "lng": 146.7204247,
    "place_id": "ChIJ7dg_rtX51WsRxzY2wPwwjGQ",
    "maps_url": "https://www.google.com/maps/place/?q=place_id:ChIJ7dg_rtX51WsRxzY2wPwwjGQ"
  },
  {
    "name": "K.P. Walsh Electrics",
    "address": "137 Boundary St, Railway Estate QLD 4810, Australia",
    "suburb": "Railway Estate QLD 4810",
    "state": "QLD",
    "rating": 4.8,
    "reviews": 23,
    "lat": -19.2702177,
    "lng": 146.8184875,
    "place_id": "ChIJV_clegT51WsRT5Z3HUwrkYA",
    "maps_url": "https://www.google.com/maps/place/?q=place_id:ChIJV_clegT51WsRT5Z3HUwrkYA"
  },
  {
    "name": "NQ Electrical Townsville",
    "address": "2/39 Webb Dr, Mount St John QLD 4818, Australia",
    "suburb": "Mount St John QLD 4818",
    "state": "QLD",
    "rating": 4.7,
    "reviews": 22,
    "lat": -19.257861,
    "lng": 146.7350295,
    "place_id": "ChIJT7jpIYz51WsRh4GfEg4du4A",
    "maps_url": "https://www.google.com/maps/place/?q=place_id:ChIJT7jpIYz51WsRh4GfEg4du4A"
  },
  {
    "name": "Jesse Kerin Electrical",
    "address": "77 Perkins St, South Townsville QLD 4810, Australia",
    "suburb": "South Townsville QLD 4810",
    "state": "QLD",
    "rating": 5,
    "reviews": 26,
    "lat": -19.264398,
    "lng": 146.8250292,
    "place_id": "ChIJEZmGBL751WsRru8GGOr5N0g",
    "maps_url": "https://www.google.com/maps/place/?q=place_id:ChIJEZmGBL751WsRru8GGOr5N0g"
  },
  {
    "name": "Rolly’s Electrical",
    "address": "47 Leyland St, Garbutt QLD 4814, Australia",
    "suburb": "Garbutt QLD 4814",
    "state": "QLD",
    "rating": 4.6,
    "reviews": 70,
    "lat": -19.2720843,
    "lng": 146.7633512,
    "place_id": "ChIJvf89-5Tw1WsRnEtetxMQkkI",
    "maps_url": "https://www.google.com/maps/place/?q=place_id:ChIJvf89-5Tw1WsRnEtetxMQkkI"
  },
  {
    "name": "Level Electrical Townsville",
    "address": "129 Ingham Rd, West End QLD 4812, Australia",
    "suburb": "West End QLD 4812",
    "state": "QLD",
    "rating": 5,
    "reviews": 9,
    "lat": -19.267321,
    "lng": 146.7944463,
    "place_id": "ChIJpYNNSVf31WsRRZRyfjiT5_A",
    "maps_url": "https://www.google.com/maps/place/?q=place_id:ChIJpYNNSVf31WsRRZRyfjiT5_A"
  },
  {
    "name": "Electrical and Air Conditioning Services Pty Ltd",
    "address": "1/14 Whitehouse St, Garbutt QLD 4814, Australia",
    "suburb": "Garbutt QLD 4814",
    "state": "QLD",
    "rating": 4.8,
    "reviews": 186,
    "lat": -19.2703859,
    "lng": 146.7543276,
    "place_id": "ChIJE-XOOe_51WsRXhSbBaUfQ8o",
    "maps_url": "https://www.google.com/maps/place/?q=place_id:ChIJE-XOOe_51WsRXhSbBaUfQ8o"
  },
  {
    "name": "Waltlec Industries",
    "address": "22 Hugh Ryan Dr, Garbutt QLD 4814, Australia",
    "suburb": "Garbutt QLD 4814",
    "state": "QLD",
    "rating": 5,
    "reviews": 21,
    "lat": -19.2716732,
    "lng": 146.7645592,
    "place_id": "ChIJmR6WZxr51WsRruLATR57gaM",
    "maps_url": "https://www.google.com/maps/place/?q=place_id:ChIJmR6WZxr51WsRruLATR57gaM"
  },
  {
    "name": "Electricians Downunder",
    "address": "1/133 Ingham Rd, West End QLD 4810, Australia",
    "suburb": "West End QLD 4810",
    "state": "QLD",
    "rating": 4.6,
    "reviews": 46,
    "lat": -19.2673599,
    "lng": 146.7940874,
    "place_id": "ChIJL5ENpqv51WsRSJ_Y5TICB5Q",
    "maps_url": "https://www.google.com/maps/place/?q=place_id:ChIJL5ENpqv51WsRSJ_Y5TICB5Q"
  },
  {
    "name": "GSA Group",
    "address": "33 Hugh Ryan Dr, Garbutt QLD 4814, Australia",
    "suburb": "Garbutt QLD 4814",
    "state": "QLD",
    "rating": 4.8,
    "reviews": 68,
    "lat": -19.2709856,
    "lng": 146.7629424,
    "place_id": "ChIJAfuohUj71WsRD9RkWwT1v3g",
    "maps_url": "https://www.google.com/maps/place/?q=place_id:ChIJAfuohUj71WsRD9RkWwT1v3g"
  },
  {
    "name": "Lex Electrix",
    "address": "17 Ingham Rd, Townsville City QLD 4810, Australia",
    "suburb": "Townsville City QLD 4810",
    "state": "QLD",
    "rating": 5,
    "reviews": 9,
    "lat": -19.2687269,
    "lng": 146.805686,
    "place_id": "ChIJC4KQ1x751WsR22EtRf1zkDw",
    "maps_url": "https://www.google.com/maps/place/?q=place_id:ChIJC4KQ1x751WsR22EtRf1zkDw"
  },
  {
    "name": "JET Electrical & Refrigeration Pty Ltd",
    "address": "17 Nova St, Mount Low QLD 4818, Australia",
    "suburb": "Mount Low QLD 4818",
    "state": "QLD",
    "rating": 5,
    "reviews": 31,
    "lat": -19.220354,
    "lng": 146.6668832,
    "place_id": "ChIJY3Nbbrj31WsRPfT49k9Vrg8",
    "maps_url": "https://www.google.com/maps/place/?q=place_id:ChIJY3Nbbrj31WsRPfT49k9Vrg8"
  },
  {
    "name": "Integral Electrics Qld",
    "address": "205 Buchan St, Bungalow QLD 4870, Australia",
    "suburb": "Bungalow QLD 4870",
    "state": "QLD",
    "rating": 4.9,
    "reviews": 621,
    "lat": -16.9295019,
    "lng": 145.7605974,
    "place_id": "ChIJE0MpRz1jeGkRRc9EFeNrJj8",
    "maps_url": "https://www.google.com/maps/place/?q=place_id:ChIJE0MpRz1jeGkRRc9EFeNrJj8"
  },
  {
    "name": "Cairns Electrical & Data Services",
    "address": "5/450 Sheridan St, Cairns North QLD 4870, Australia",
    "suburb": "Cairns North QLD 4870",
    "state": "QLD",
    "rating": 5,
    "reviews": 130,
    "lat": -16.8943977,
    "lng": 145.7543487,
    "place_id": "ChIJeY9y0N5veGkRjF0OuYS7YrE",
    "maps_url": "https://www.google.com/maps/place/?q=place_id:ChIJeY9y0N5veGkRjF0OuYS7YrE"
  },
  {
    "name": "Edgecliff Electrical Services",
    "address": "Unit 12/45-49 Cannon St, Manunda QLD 4870, Australia",
    "suburb": "Manunda QLD 4870",
    "state": "QLD",
    "rating": 5,
    "reviews": 327,
    "lat": -16.9122355,
    "lng": 145.7456701,
    "place_id": "ChIJdUVR_kLCUAgR9qN8rtB0hlg",
    "maps_url": "https://www.google.com/maps/place/?q=place_id:ChIJdUVR_kLCUAgR9qN8rtB0hlg"
  },
  {
    "name": "Botto's Electrical",
    "address": "Unit 14/45-59 Cannon St, Manunda QLD 4870, Australia",
    "suburb": "Manunda QLD 4870",
    "state": "QLD",
    "rating": 5,
    "reviews": 43,
    "lat": -16.9122222,
    "lng": 145.7456778,
    "place_id": "ChIJhaUmHfRjeGkR8bELBua3EpQ",
    "maps_url": "https://www.google.com/maps/place/?q=place_id:ChIJhaUmHfRjeGkR8bELBua3EpQ"
  },
  {
    "name": "Richardson's Electrical Service",
    "address": "1 Rodda St, Bungalow QLD 4870, Australia",
    "suburb": "Bungalow QLD 4870",
    "state": "QLD",
    "rating": 4.5,
    "reviews": 31,
    "lat": -16.937805,
    "lng": 145.7564189,
    "place_id": "ChIJpYtZkN5leGkR724eRUwe218",
    "maps_url": "https://www.google.com/maps/place/?q=place_id:ChIJpYtZkN5leGkR724eRUwe218"
  },
  {
    "name": "Rossgo’s Electrical",
    "address": "14 Purbeck Pl, Edge Hill QLD 4870, Australia",
    "suburb": "Edge Hill QLD 4870",
    "state": "QLD",
    "rating": 5,
    "reviews": 106,
    "lat": -16.9032217,
    "lng": 145.7368934,
    "place_id": "ChIJTUGtWjVkeGkRZs3SUIjeQeI",
    "maps_url": "https://www.google.com/maps/place/?q=place_id:ChIJTUGtWjVkeGkRZs3SUIjeQeI"
  },
  {
    "name": "Pagano Electrics",
    "address": "8/38-42 Pease St, Manoora QLD 4870, Australia",
    "suburb": "Manoora QLD 4870",
    "state": "QLD",
    "rating": 4.9,
    "reviews": 40,
    "lat": -16.9200125,
    "lng": 145.7411959,
    "place_id": "ChIJM06bPMlCHyMRgBPQ5O2ppBA",
    "maps_url": "https://www.google.com/maps/place/?q=place_id:ChIJM06bPMlCHyMRgBPQ5O2ppBA"
  },
  {
    "name": "Remedy Electrical",
    "address": "2 Flindersia St, Redlynch QLD 4870, Australia",
    "suburb": "Redlynch QLD 4870",
    "state": "QLD",
    "rating": 5,
    "reviews": 94,
    "lat": -16.8900643,
    "lng": 145.6930584,
    "place_id": "ChIJDfOqtyWVH6IRAJFCEzwOo0o",
    "maps_url": "https://www.google.com/maps/place/?q=place_id:ChIJDfOqtyWVH6IRAJFCEzwOo0o"
  },
  {
    "name": "Gridline Electrical & Airconditioning",
    "address": "12-14 Victoria St, Cairns City QLD 4870, Australia",
    "suburb": "Cairns City QLD 4870",
    "state": "QLD",
    "rating": 4.7,
    "reviews": 22,
    "lat": -16.9255707,
    "lng": 145.766565,
    "place_id": "ChIJGeYMPmlneGkRz3XRaDstbTw",
    "maps_url": "https://www.google.com/maps/place/?q=place_id:ChIJGeYMPmlneGkRz3XRaDstbTw"
  },
  {
    "name": "Ezwire Electrical",
    "address": "Unit 7/2/4 Stanton Rd, Smithfield QLD 4878, Australia",
    "suburb": "Smithfield QLD 4878",
    "state": "QLD",
    "rating": 4.9,
    "reviews": 17,
    "lat": -16.8309648,
    "lng": 145.6924383,
    "place_id": "ChIJiSf9AlNveGkROjvmUppZDT0",
    "maps_url": "https://www.google.com/maps/place/?q=place_id:ChIJiSf9AlNveGkROjvmUppZDT0"
  },
  {
    "name": "Coops Electrics and Coops Solar",
    "address": "55b/193 Hartley St, Portsmith QLD 4870, Australia",
    "suburb": "Portsmith QLD 4870",
    "state": "QLD",
    "rating": 4.9,
    "reviews": 14,
    "lat": -16.93941,
    "lng": 145.7625856,
    "place_id": "ChIJxyqmDi0VmUIRnthzaX9j1vc",
    "maps_url": "https://www.google.com/maps/place/?q=place_id:ChIJxyqmDi0VmUIRnthzaX9j1vc"
  },
  {
    "name": "Keadeen Electrical, Solar & Air",
    "address": "Unit 12/136 Aumuller St, Bungalow QLD 4870, Australia",
    "suburb": "Bungalow QLD 4870",
    "state": "QLD",
    "rating": 5,
    "reviews": 81,
    "lat": -16.9340544,
    "lng": 145.7627673,
    "place_id": "ChIJxUNdBvlleGkRAAmC2rkY0Q8",
    "maps_url": "https://www.google.com/maps/place/?q=place_id:ChIJxUNdBvlleGkRAAmC2rkY0Q8"
  },
  {
    "name": "De Rose Electrical",
    "address": "Cicero Cl, Mooroobool QLD 4870, Australia",
    "suburb": "Mooroobool QLD 4870",
    "state": "QLD",
    "rating": 5,
    "reviews": 5,
    "lat": -16.9439708,
    "lng": 145.7248368,
    "place_id": "ChIJ4YkGTlhjeGkRywy4Vy_jIlE",
    "maps_url": "https://www.google.com/maps/place/?q=place_id:ChIJ4YkGTlhjeGkRywy4Vy_jIlE"
  },
  {
    "name": "Buzzed Energy - Cairns Solar & Electrical",
    "address": "Unit 11/136 Aumuller St, Bungalow QLD 4870, Australia",
    "suburb": "Bungalow QLD 4870",
    "state": "QLD",
    "rating": 5,
    "reviews": 56,
    "lat": -16.9340544,
    "lng": 145.7627673,
    "place_id": "ChIJl99cqH9jeGkRQhmguKQlsjg",
    "maps_url": "https://www.google.com/maps/place/?q=place_id:ChIJl99cqH9jeGkRQhmguKQlsjg"
  },
  {
    "name": "Cairns Excel Electrics",
    "address": "115 Brown St, Bungalow QLD 4870, Australia",
    "suburb": "Bungalow QLD 4870",
    "state": "QLD",
    "rating": 4.5,
    "reviews": 11,
    "lat": -16.940329,
    "lng": 145.759525,
    "place_id": "ChIJMUiSS6hmeGkRqeOJveunhtM",
    "maps_url": "https://www.google.com/maps/place/?q=place_id:ChIJMUiSS6hmeGkRqeOJveunhtM"
  },
  {
    "name": "Response Electricians",
    "address": "Spacecubed/45 St Georges Terrace, Perth WA 6000, Australia",
    "suburb": "Perth WA 6000",
    "state": "WA",
    "rating": 4.9,
    "reviews": 1995,
    "lat": -31.9557731,
    "lng": 115.8590695,
    "place_id": "ChIJG9igLMqlMioRvD_24Cn2cpQ",
    "maps_url": "https://www.google.com/maps/place/?q=place_id:ChIJG9igLMqlMioRvD_24Cn2cpQ"
  },
  {
    "name": "Westline Electricians Perth",
    "address": "215 Stirling St, Perth WA 6000, Australia",
    "suburb": "Perth WA 6000",
    "state": "WA",
    "rating": 5,
    "reviews": 531,
    "lat": -31.9456141,
    "lng": 115.8663852,
    "place_id": "ChIJa61UQrGxMioR-Xrg-p1Jx3Q",
    "maps_url": "https://www.google.com/maps/place/?q=place_id:ChIJa61UQrGxMioR-Xrg-p1Jx3Q"
  },
  {
    "name": "Brillare Perth Electricians",
    "address": "285 Lord St, Perth WA 6000, Australia",
    "suburb": "Perth WA 6000",
    "state": "WA",
    "rating": 5,
    "reviews": 510,
    "lat": -31.9438581,
    "lng": 115.8730278,
    "place_id": "ChIJF_1MN667MioRVxbVv9h8Qm0",
    "maps_url": "https://www.google.com/maps/place/?q=place_id:ChIJF_1MN667MioRVxbVv9h8Qm0"
  },
  {
    "name": "Eclipse Electrical Services",
    "address": "69 Limetree Cct, Mindarie WA 6030, Australia",
    "suburb": "Mindarie WA 6030",
    "state": "WA",
    "rating": 5,
    "reviews": 166,
    "lat": -31.68602739999999,
    "lng": 115.711647,
    "place_id": "ChIJV81fv4BWzSsRH9zIZcU0UwA",
    "maps_url": "https://www.google.com/maps/place/?q=place_id:ChIJV81fv4BWzSsRH9zIZcU0UwA"
  },
  {
    "name": "On Point Electrical Perth",
    "address": "Oswald St, Innaloo WA 6018, Australia",
    "suburb": "Innaloo WA 6018",
    "state": "WA",
    "rating": 5,
    "reviews": 216,
    "lat": -31.8981947,
    "lng": 115.8002517,
    "place_id": "ChIJN9zyqQ6vMioRUzIGvnycmi8",
    "maps_url": "https://www.google.com/maps/place/?q=place_id:ChIJN9zyqQ6vMioRUzIGvnycmi8"
  },
  {
    "name": "Adz Electrical Services",
    "address": "Shepherds Bush Dr, Kingsley WA 6026, Australia",
    "suburb": "Kingsley WA 6026",
    "state": "WA",
    "rating": 5,
    "reviews": 115,
    "lat": -31.8100806,
    "lng": 115.7891351,
    "place_id": "ChIJqU8IuBytMioRpsFd1MZvu8w",
    "maps_url": "https://www.google.com/maps/place/?q=place_id:ChIJqU8IuBytMioRpsFd1MZvu8w"
  },
  {
    "name": "DC Wired Electrical & Air Conditioning PTY LTD",
    "address": "Unit 15/21 Global Rd, Neerabup WA 6031, Australia",
    "suburb": "Neerabup WA 6031",
    "state": "WA",
    "rating": 5,
    "reviews": 456,
    "lat": -31.6862837,
    "lng": 115.7784017,
    "place_id": "ChIJS9SeRfBVzSsRML16iCGaI8w",
    "maps_url": "https://www.google.com/maps/place/?q=place_id:ChIJS9SeRfBVzSsRML16iCGaI8w"
  },
  {
    "name": "Web X Electricians Perth",
    "address": "249/50 St Georges Terrace, Perth WA 6000, Australia",
    "suburb": "Perth WA 6000",
    "state": "WA",
    "rating": 5,
    "reviews": 322,
    "lat": -31.9551184,
    "lng": 115.8590618,
    "place_id": "ChIJB9Ob9iE6qiARf5JEGwCGseU",
    "maps_url": "https://www.google.com/maps/place/?q=place_id:ChIJB9Ob9iE6qiARf5JEGwCGseU"
  },
  {
    "name": "Boyan Electrical",
    "address": "5/52 Frobisher St, Osborne Park WA 6017, Australia",
    "suburb": "Osborne Park WA 6017",
    "state": "WA",
    "rating": 5,
    "reviews": 234,
    "lat": -31.9090414,
    "lng": 115.8201474,
    "place_id": "ChIJY8eQU5CvMioRJrv406XAFMI",
    "maps_url": "https://www.google.com/maps/place/?q=place_id:ChIJY8eQU5CvMioRJrv406XAFMI"
  },
  {
    "name": "Prime Time Electrical",
    "address": "Unit 1/65 Distinction Rd, Wangara WA 6065, Australia",
    "suburb": "Wangara WA 6065",
    "state": "WA",
    "rating": 4.9,
    "reviews": 186,
    "lat": -31.79494339999999,
    "lng": 115.8424031,
    "place_id": "ChIJx0AjnYStMioRUoYnndO9xGY",
    "maps_url": "https://www.google.com/maps/place/?q=place_id:ChIJx0AjnYStMioRUoYnndO9xGY"
  },
  {
    "name": "Westside Electrical Contracting",
    "address": "119/7 Wunderlich Rd, Subiaco WA 6008, Australia",
    "suburb": "Subiaco WA 6008",
    "state": "WA",
    "rating": 5,
    "reviews": 18,
    "lat": -31.9466815,
    "lng": 115.818475,
    "place_id": "ChIJ9agM9QsUpQsRrnlebHQHow8",
    "maps_url": "https://www.google.com/maps/place/?q=place_id:ChIJ9agM9QsUpQsRrnlebHQHow8"
  },
  {
    "name": "Power Source Solar Batteries Perth",
    "address": "24 Wadhurst Rd, Butler WA 6036, Australia",
    "suburb": "Butler WA 6036",
    "state": "WA",
    "rating": 5,
    "reviews": 158,
    "lat": -31.6468938,
    "lng": 115.6976257,
    "place_id": "ChIJUVLQqj5TzSsRzVk-b3k0uwM",
    "maps_url": "https://www.google.com/maps/place/?q=place_id:ChIJUVLQqj5TzSsRzVk-b3k0uwM"
  },
  {
    "name": "AJ Coast Electrical",
    "address": "2/103 Flora Terrace, North Beach WA 6020, Australia",
    "suburb": "North Beach WA 6020",
    "state": "WA",
    "rating": 5,
    "reviews": 418,
    "lat": -31.8554228,
    "lng": 115.7543299,
    "place_id": "ChIJBzpA_O6rMioRqQBs08XDwHY",
    "maps_url": "https://www.google.com/maps/place/?q=place_id:ChIJBzpA_O6rMioRqQBs08XDwHY"
  },
  {
    "name": "Power Play Solutions",
    "address": "10/16-18 Keegan St, O'Connor WA 6163, Australia",
    "suburb": "O'Connor WA 6163",
    "state": "WA",
    "rating": 4.8,
    "reviews": 24,
    "lat": -32.0615022,
    "lng": 115.7958162,
    "place_id": "ChIJ3cvlayajMioRGPC1vzwopbk",
    "maps_url": "https://www.google.com/maps/place/?q=place_id:ChIJ3cvlayajMioRGPC1vzwopbk"
  },
  {
    "name": "Premier Electrical Services (WA)",
    "address": "Unit 2/12 Keegan St, O'Connor WA 6163, Australia",
    "suburb": "O'Connor WA 6163",
    "state": "WA",
    "rating": 4.8,
    "reviews": 34,
    "lat": -32.0608221,
    "lng": 115.7960743,
    "place_id": "ChIJ6afF-majMioRz86Fg-cYFhM",
    "maps_url": "https://www.google.com/maps/place/?q=place_id:ChIJ6afF-majMioRz86Fg-cYFhM"
  },
  {
    "name": "Crown Electrical Service WA",
    "address": "120 Petra St, Bicton WA 6157, Australia",
    "suburb": "Bicton WA 6157",
    "state": "WA",
    "rating": 5,
    "reviews": 44,
    "lat": -32.0321764,
    "lng": 115.7764369,
    "place_id": "ChIJn5tl9OujMioRovV6reyec54",
    "maps_url": "https://www.google.com/maps/place/?q=place_id:ChIJn5tl9OujMioRovV6reyec54"
  },
  {
    "name": "AMY Electrical",
    "address": "Unit 4/16 Ashburton Terrace, Fremantle WA 6160, Australia",
    "suburb": "Fremantle WA 6160",
    "state": "WA",
    "rating": 4.9,
    "reviews": 31,
    "lat": -32.0613926,
    "lng": 115.75802,
    "place_id": "ChIJ_____2-XMioRU5fr30CZmq4",
    "maps_url": "https://www.google.com/maps/place/?q=place_id:ChIJ_____2-XMioRU5fr30CZmq4"
  },
  {
    "name": "Urban Wire",
    "address": "44 Carnac St, Fremantle WA 6160, Australia",
    "suburb": "Fremantle WA 6160",
    "state": "WA",
    "rating": 5,
    "reviews": 6,
    "lat": -32.0627768,
    "lng": 115.7537439,
    "place_id": "ChIJyUYlCGShMioRPStRLv7tMXo",
    "maps_url": "https://www.google.com/maps/place/?q=place_id:ChIJyUYlCGShMioRPStRLv7tMXo"
  },
  {
    "name": "Delavale Electrical Contracting",
    "address": "Unit 2b/125 Garling St, O'Connor WA 6163, Australia",
    "suburb": "O'Connor WA 6163",
    "state": "WA",
    "rating": 5,
    "reviews": 555,
    "lat": -32.056998,
    "lng": 115.7964102,
    "place_id": "ChIJ96E6lvOjMioRIJdrb-A3W34",
    "maps_url": "https://www.google.com/maps/place/?q=place_id:ChIJ96E6lvOjMioRIJdrb-A3W34"
  },
  {
    "name": "Arrow Electrical Services Pty. Ltd.",
    "address": "17 Douro Rd, South Fremantle WA 6162, Australia",
    "suburb": "South Fremantle WA 6162",
    "state": "WA",
    "rating": 5,
    "reviews": 1,
    "lat": -32.074107,
    "lng": 115.7553363,
    "place_id": "ChIJQw90cIihMioR-6nGoD7Vf1Y",
    "maps_url": "https://www.google.com/maps/place/?q=place_id:ChIJQw90cIihMioR-6nGoD7Vf1Y"
  },
  {
    "name": "PRF Electrical",
    "address": "Factory 16/5 Hines Rd, O'Connor WA 6163, Australia",
    "suburb": "O'Connor WA 6163",
    "state": "WA",
    "rating": 4.9,
    "reviews": 35,
    "lat": -32.0580794,
    "lng": 115.7832206,
    "place_id": "ChIJO8nG6BKjMioRv9Ty8e0qTbE",
    "maps_url": "https://www.google.com/maps/place/?q=place_id:ChIJO8nG6BKjMioRv9Ty8e0qTbE"
  },
  {
    "name": "East Fremantle Electrical EC10861",
    "address": "552 Marmion St, Booragoon WA 6154, Australia",
    "suburb": "Booragoon WA 6154",
    "state": "WA",
    "rating": 5,
    "reviews": 1,
    "lat": -32.0379519,
    "lng": 115.8298771,
    "place_id": "ChIJk5f3NJ6jMioR7kWHnq-mtEU",
    "maps_url": "https://www.google.com/maps/place/?q=place_id:ChIJk5f3NJ6jMioR7kWHnq-mtEU"
  },
  {
    "name": "First Choice Electrics",
    "address": "1/7 Packard St, Joondalup WA 6027, Australia",
    "suburb": "Joondalup WA 6027",
    "state": "WA",
    "rating": 4.8,
    "reviews": 89,
    "lat": -31.748986,
    "lng": 115.762951,
    "place_id": "ChIJwfiENBxRrwERKYbzhMIEiak",
    "maps_url": "https://www.google.com/maps/place/?q=place_id:ChIJwfiENBxRrwERKYbzhMIEiak"
  },
  {
    "name": "Gen. Electrical",
    "address": "35 Macedon Pl, Craigie WA 6025, Australia",
    "suburb": "Craigie WA 6025",
    "state": "WA",
    "rating": 5,
    "reviews": 87,
    "lat": -31.7936728,
    "lng": 115.7547677,
    "place_id": "ChIJQSX-mQU3m4ARWv-BOLrewa8",
    "maps_url": "https://www.google.com/maps/place/?q=place_id:ChIJQSX-mQU3m4ARWv-BOLrewa8"
  },
  {
    "name": "Wirewest Electrical",
    "address": "9 Outlook Dr, Edgewater WA 6027, Australia",
    "suburb": "Edgewater WA 6027",
    "state": "WA",
    "rating": 5,
    "reviews": 78,
    "lat": -31.7639289,
    "lng": 115.7817647,
    "place_id": "ChIJr2rTDRKxMioRuVftZmJbN8w",
    "maps_url": "https://www.google.com/maps/place/?q=place_id:ChIJr2rTDRKxMioRuVftZmJbN8w"
  },
  {
    "name": "ACS Electrical",
    "address": "Manitoba Ct, Joondalup WA 6027, Australia",
    "suburb": "Joondalup WA 6027",
    "state": "WA",
    "rating": 5,
    "reviews": 29,
    "lat": -31.72044679999999,
    "lng": 115.7666764,
    "place_id": "ChIJB7W0R7NTzSsR9ElHWXkvY2U",
    "maps_url": "https://www.google.com/maps/place/?q=place_id:ChIJB7W0R7NTzSsR9ElHWXkvY2U"
  },
  {
    "name": "Emerald Electrical Contractors EC010918",
    "address": "15 Vosnacos Way, Tapping WA 6065, Australia",
    "suburb": "Tapping WA 6065",
    "state": "WA",
    "rating": 5,
    "reviews": 24,
    "lat": -31.7233698,
    "lng": 115.8036042,
    "place_id": "ChIJz37RHNhTzSsRXbs3GikIWZY",
    "maps_url": "https://www.google.com/maps/place/?q=place_id:ChIJz37RHNhTzSsRXbs3GikIWZY"
  },
  {
    "name": "Auto Electrical Services",
    "address": "420 Joondalup Dr, Joondalup WA 6027, Australia",
    "suburb": "Joondalup WA 6027",
    "state": "WA",
    "rating": 5,
    "reviews": 10,
    "lat": -31.7409776,
    "lng": 115.7640444,
    "place_id": "ChIJdd6tBF5uXGURluANmhr6ZyE",
    "maps_url": "https://www.google.com/maps/place/?q=place_id:ChIJdd6tBF5uXGURluANmhr6ZyE"
  },
  {
    "name": "Mandin Electrical, Electrician Mandurah",
    "address": "7 Blossom Pl, Coodanup WA 6210, Australia",
    "suburb": "Coodanup WA 6210",
    "state": "WA",
    "rating": 5,
    "reviews": 277,
    "lat": -32.552405,
    "lng": 115.7475806,
    "place_id": "ChIJv950lmd5MioR5kgflvEg14c",
    "maps_url": "https://www.google.com/maps/place/?q=place_id:ChIJv950lmd5MioR5kgflvEg14c"
  },
  {
    "name": "Intelli-Gen Electrical Solutions",
    "address": "22 Coquette Pass, Dudley Park WA 6210, Australia",
    "suburb": "Dudley Park WA 6210",
    "state": "WA",
    "rating": 4.9,
    "reviews": 118,
    "lat": -32.5538136,
    "lng": 115.7431194,
    "place_id": "ChIJLw1HR6NX6GQR_wJZOvleLh0",
    "maps_url": "https://www.google.com/maps/place/?q=place_id:ChIJLw1HR6NX6GQR_wJZOvleLh0"
  },
  {
    "name": "SEAA Electrical",
    "address": "22 Caspar Rd, Madora Bay WA 6210, Australia",
    "suburb": "Madora Bay WA 6210",
    "state": "WA",
    "rating": 5,
    "reviews": 117,
    "lat": -32.4656227,
    "lng": 115.7517642,
    "place_id": "ChIJ9dQQhmt_MioRASTawMfyhvQ",
    "maps_url": "https://www.google.com/maps/place/?q=place_id:ChIJ9dQQhmt_MioRASTawMfyhvQ"
  },
  {
    "name": "Oceanside Electrical Contractors",
    "address": "16 Balingup Loop, Dawesville WA 6211, Australia",
    "suburb": "Dawesville WA 6211",
    "state": "WA",
    "rating": 5,
    "reviews": 115,
    "lat": -32.6260297,
    "lng": 115.6383845,
    "place_id": "ChIJOf3zIL-HLSoR_lgkhOVp-lY",
    "maps_url": "https://www.google.com/maps/place/?q=place_id:ChIJOf3zIL-HLSoR_lgkhOVp-lY"
  },
  {
    "name": "RMW PowerPlus",
    "address": "69 Oaklands Ave, Halls Head WA 6210, Australia",
    "suburb": "Halls Head WA 6210",
    "state": "WA",
    "rating": 5,
    "reviews": 38,
    "lat": -32.5410989,
    "lng": 115.6961204,
    "place_id": "ChIJFcns29d_MioRhEs_x8dh5lg",
    "maps_url": "https://www.google.com/maps/place/?q=place_id:ChIJFcns29d_MioRhEs_x8dh5lg"
  },
  {
    "name": "Silver Sands Electrical Services",
    "address": "4/14 Tindale St, Mandurah WA 6210, Australia",
    "suburb": "Mandurah WA 6210",
    "state": "WA",
    "rating": 5,
    "reviews": 113,
    "lat": -32.5183482,
    "lng": 115.740338,
    "place_id": "ChIJu8mzyVN_MioR7KIejVA3vFE",
    "maps_url": "https://www.google.com/maps/place/?q=place_id:ChIJu8mzyVN_MioR7KIejVA3vFE"
  },
  {
    "name": "NIXON Mandurah - Electrical | Air | Solar (Formerly Dodds Electrical)",
    "address": "5/6 Dollyup St, Stake Hill WA 6181, Australia",
    "suburb": "Stake Hill WA 6181",
    "state": "WA",
    "rating": 4.9,
    "reviews": 852,
    "lat": -32.5105277,
    "lng": 115.8165525,
    "place_id": "ChIJpWC8Ygh-MioR0NyK8YTa4As",
    "maps_url": "https://www.google.com/maps/place/?q=place_id:ChIJpWC8Ygh-MioR0NyK8YTa4As"
  },
  {
    "name": "Rick's Electrics",
    "address": "4A Janis St, Halls Head WA 6210, Australia",
    "suburb": "Halls Head WA 6210",
    "state": "WA",
    "rating": 4.8,
    "reviews": 16,
    "lat": -32.5222097,
    "lng": 115.7054245,
    "place_id": "ChIJD5ygYMhp1moRKSb663yhSeI",
    "maps_url": "https://www.google.com/maps/place/?q=place_id:ChIJD5ygYMhp1moRKSb663yhSeI"
  },
  {
    "name": "Gen Y Electrical - Electrician Rockingham",
    "address": "2 Yanrey St, Golden Bay WA 6174, Australia",
    "suburb": "Golden Bay WA 6174",
    "state": "WA",
    "rating": 5,
    "reviews": 216,
    "lat": -32.4312309,
    "lng": 115.7554891,
    "place_id": "ChIJZQl_HpeBMioRPS0OyrlQk1Q",
    "maps_url": "https://www.google.com/maps/place/?q=place_id:ChIJZQl_HpeBMioRPS0OyrlQk1Q"
  },
  {
    "name": "Peel Electrical Service",
    "address": "2/7 Kulin Way, Mandurah WA 6210, Australia",
    "suburb": "Mandurah WA 6210",
    "state": "WA",
    "rating": 4.8,
    "reviews": 114,
    "lat": -32.5127731,
    "lng": 115.7404859,
    "place_id": "ChIJk2PK_J17MioRHLi5EMl3G3o",
    "maps_url": "https://www.google.com/maps/place/?q=place_id:ChIJk2PK_J17MioRHLi5EMl3G3o"
  },
  {
    "name": "Bay Electrical Service",
    "address": "2/1 Rafferty Cl, Mandurah WA 6210, Australia",
    "suburb": "Mandurah WA 6210",
    "state": "WA",
    "rating": 4.9,
    "reviews": 64,
    "lat": -32.51763,
    "lng": 115.74612,
    "place_id": "ChIJ5ZL5u6Z-MioRw-y_WJaLLWc",
    "maps_url": "https://www.google.com/maps/place/?q=place_id:ChIJ5ZL5u6Z-MioRw-y_WJaLLWc"
  },
  {
    "name": "Elite Electrical and Pumps",
    "address": "4/14 Thornborough Rd, Greenfields WA 6210, Australia",
    "suburb": "Greenfields WA 6210",
    "state": "WA",
    "rating": 4.9,
    "reviews": 121,
    "lat": -32.5137472,
    "lng": 115.7528763,
    "place_id": "ChIJVVVlt6Z-MioR226xAZX6OQA",
    "maps_url": "https://www.google.com/maps/place/?q=place_id:ChIJVVVlt6Z-MioR226xAZX6OQA"
  },
  {
    "name": "JFK Electrical, Solar & Air",
    "address": "36 Kulin Way, Mandurah WA 6210, Australia",
    "suburb": "Mandurah WA 6210",
    "state": "WA",
    "rating": 4.9,
    "reviews": 249,
    "lat": -32.51325,
    "lng": 115.73857,
    "place_id": "ChIJ79Nkccx4MioRjfibVat1Ht8",
    "maps_url": "https://www.google.com/maps/place/?q=place_id:ChIJ79Nkccx4MioRjfibVat1Ht8"
  },
  {
    "name": "Dalectrix Electricial Services",
    "address": "32 Roy Rd, Coodanup WA 6210, Australia",
    "suburb": "Coodanup WA 6210",
    "state": "WA",
    "rating": 4.9,
    "reviews": 54,
    "lat": -32.559858,
    "lng": 115.747359,
    "place_id": "ChIJkeZYEmV5MioRUeYtJ-jMsRI",
    "maps_url": "https://www.google.com/maps/place/?q=place_id:ChIJkeZYEmV5MioRUeYtJ-jMsRI"
  },
  {
    "name": "Rise Electrics",
    "address": "2 Martyn Rd, Mandurah WA 6210, Australia",
    "suburb": "Mandurah WA 6210",
    "state": "WA",
    "rating": 4.7,
    "reviews": 63,
    "lat": -32.5179387,
    "lng": 115.7386078,
    "place_id": "ChIJBW5VFfh7MioRvqpqkI1wHFM",
    "maps_url": "https://www.google.com/maps/place/?q=place_id:ChIJBW5VFfh7MioRvqpqkI1wHFM"
  },
  {
    "name": "Tiger Spark Electrical - Mandurah",
    "address": "129 Bortolo Dr, Greenfields WA 6210, Australia",
    "suburb": "Greenfields WA 6210",
    "state": "WA",
    "rating": 5,
    "reviews": 2,
    "lat": -32.5129074,
    "lng": 115.7621106,
    "place_id": "ChIJQ-AKv1F9MioRY_78cZAskHE",
    "maps_url": "https://www.google.com/maps/place/?q=place_id:ChIJQ-AKv1F9MioRY_78cZAskHE"
  },
  {
    "name": "South Coast Auto Electrics",
    "address": "3/33 Thornborough Rd, Greenfields WA 6210, Australia",
    "suburb": "Greenfields WA 6210",
    "state": "WA",
    "rating": 4.7,
    "reviews": 513,
    "lat": -32.5172926,
    "lng": 115.7511827,
    "place_id": "ChIJdUrIgE55MioRU9E5RFrFFHY",
    "maps_url": "https://www.google.com/maps/place/?q=place_id:ChIJdUrIgE55MioRU9E5RFrFFHY"
  },
  {
    "name": "VDW Electrical",
    "address": "1/15 Gibbons Rd, Davenport WA 6230, Australia",
    "suburb": "Davenport WA 6230",
    "state": "WA",
    "rating": 4.9,
    "reviews": 189,
    "lat": -33.3614957,
    "lng": 115.6734033,
    "place_id": "ChIJaQnbDwsdLioRsYvsMqj-LRs",
    "maps_url": "https://www.google.com/maps/place/?q=place_id:ChIJaQnbDwsdLioRsYvsMqj-LRs"
  },
  {
    "name": "Inghams Electrical",
    "address": "1/90 King Rd, Bunbury WA 6230, Australia",
    "suburb": "Bunbury WA 6230",
    "state": "WA",
    "rating": 4.9,
    "reviews": 104,
    "lat": -33.3390028,
    "lng": 115.6542714,
    "place_id": "ChIJcS8HIoEdLioRaPqChf0brI4",
    "maps_url": "https://www.google.com/maps/place/?q=place_id:ChIJcS8HIoEdLioRaPqChf0brI4"
  },
  {
    "name": "DEZ Electrical & Security",
    "address": "12 Argyle Ave, Withers WA 6230, Australia",
    "suburb": "Withers WA 6230",
    "state": "WA",
    "rating": 5,
    "reviews": 101,
    "lat": -33.3650002,
    "lng": 115.6267813,
    "place_id": "ChIJMbWomfBWzqkRab9M87oIabY",
    "maps_url": "https://www.google.com/maps/place/?q=place_id:ChIJMbWomfBWzqkRab9M87oIabY"
  },
  {
    "name": "Integrity Electrical South West",
    "address": "1/32 Denning Rd, East Bunbury WA 6230, Australia",
    "suburb": "East Bunbury WA 6230",
    "state": "WA",
    "rating": 5,
    "reviews": 91,
    "lat": -33.3398867,
    "lng": 115.6522402,
    "place_id": "ChIJxcRa9_sdLioReV5QFTuRofc",
    "maps_url": "https://www.google.com/maps/place/?q=place_id:ChIJxcRa9_sdLioReV5QFTuRofc"
  },
  {
    "name": "Direct Connect Electrical Contracting & Air Conditioning - Electrician Bunbury",
    "address": "Unit 1/89 Albert Rd, South Bunbury WA 6230, Australia",
    "suburb": "South Bunbury WA 6230",
    "state": "WA",
    "rating": 5,
    "reviews": 29,
    "lat": -33.3382876,
    "lng": 115.6487255,
    "place_id": "ChIJRdSazM4dLioRuDFeE_qWPhQ",
    "maps_url": "https://www.google.com/maps/place/?q=place_id:ChIJRdSazM4dLioRuDFeE_qWPhQ"
  },
  {
    "name": "Austral Energy Solutions",
    "address": "12a Sherlock Way, Davenport WA 6230, Australia",
    "suburb": "Davenport WA 6230",
    "state": "WA",
    "rating": 5,
    "reviews": 213,
    "lat": -33.3633906,
    "lng": 115.678506,
    "place_id": "ChIJoTMoAHyDjkcRmcuUaE9XjVU",
    "maps_url": "https://www.google.com/maps/place/?q=place_id:ChIJoTMoAHyDjkcRmcuUaE9XjVU"
  },
  {
    "name": "Pro Fuse Electrical Pty Ltd",
    "address": "123 Forrest Ave, South Bunbury WA 6230, Australia",
    "suburb": "South Bunbury WA 6230",
    "state": "WA",
    "rating": 5,
    "reviews": 23,
    "lat": -33.343335,
    "lng": 115.6544044,
    "place_id": "ChIJQSKDcYt43IcRyMmHeO5UTYQ",
    "maps_url": "https://www.google.com/maps/place/?q=place_id:ChIJQSKDcYt43IcRyMmHeO5UTYQ"
  },
  {
    "name": "NIXON Bunbury - Electrical | Air | Solar",
    "address": "11 Dodson Rd, Bunbury WA 6230, Australia",
    "suburb": "Bunbury WA 6230",
    "state": "WA",
    "rating": 4.9,
    "reviews": 672,
    "lat": -33.3538752,
    "lng": 115.6761401,
    "place_id": "ChIJ-7ogLOr9MSoRfEBsFZnI60c",
    "maps_url": "https://www.google.com/maps/place/?q=place_id:ChIJ-7ogLOr9MSoRfEBsFZnI60c"
  },
  {
    "name": "Broad Electrical and Air Conditioning",
    "address": "24B Sweny Dr, Australind WA 6233, Australia",
    "suburb": "Australind WA 6233",
    "state": "WA",
    "rating": 5,
    "reviews": 174,
    "lat": -33.2781794,
    "lng": 115.745777,
    "place_id": "ChIJEW25TGjlMSoRuFcyO_7q6EU",
    "maps_url": "https://www.google.com/maps/place/?q=place_id:ChIJEW25TGjlMSoRuFcyO_7q6EU"
  },
  {
    "name": "Electrical Experts",
    "address": "21 Strickland St, Bunbury WA 6230, Australia",
    "suburb": "Bunbury WA 6230",
    "state": "WA",
    "rating": 4.8,
    "reviews": 11,
    "lat": -33.336498,
    "lng": 115.6439391,
    "place_id": "ChIJW5yxPwUdLioRqbuyrKehn70",
    "maps_url": "https://www.google.com/maps/place/?q=place_id:ChIJW5yxPwUdLioRqbuyrKehn70"
  },
  {
    "name": "Amplified electrical",
    "address": "89 Albert Rd, East Bunbury WA 6230, Australia",
    "suburb": "East Bunbury WA 6230",
    "state": "WA",
    "rating": 5,
    "reviews": 9,
    "lat": -33.3382577,
    "lng": 115.6486848,
    "place_id": "ChIJlVu2bvkdLioROniYzVZxKtY",
    "maps_url": "https://www.google.com/maps/place/?q=place_id:ChIJlVu2bvkdLioROniYzVZxKtY"
  },
  {
    "name": "JCW Electrical Group",
    "address": "7A Stuart St, Bunbury WA 6230, Australia",
    "suburb": "Bunbury WA 6230",
    "state": "WA",
    "rating": 4.6,
    "reviews": 14,
    "lat": -33.3338972,
    "lng": 115.6417001,
    "place_id": "ChIJAQAAANAdLioR3OtXJnezBqw",
    "maps_url": "https://www.google.com/maps/place/?q=place_id:ChIJAQAAANAdLioR3OtXJnezBqw"
  },
  {
    "name": "BESC Engineering Electrical",
    "address": "10 Verschuer Pl, Davenport WA 6230, Australia",
    "suburb": "Davenport WA 6230",
    "state": "WA",
    "rating": 5,
    "reviews": 1,
    "lat": -33.356352,
    "lng": 115.6759165,
    "place_id": "ChIJTwUQCX7jMSoR00TaME8ufWU",
    "maps_url": "https://www.google.com/maps/place/?q=place_id:ChIJTwUQCX7jMSoR00TaME8ufWU"
  },
  {
    "name": "Sparkymics Electrical Contracting",
    "address": "Unit 4/5 Major St, Davenport WA 6230, Australia",
    "suburb": "Davenport WA 6230",
    "state": "WA",
    "rating": 5,
    "reviews": 5,
    "lat": -33.3569878,
    "lng": 115.6797082,
    "place_id": "ChIJ90s-ywPjMSoRqPBTALDrq80",
    "maps_url": "https://www.google.com/maps/place/?q=place_id:ChIJ90s-ywPjMSoRqPBTALDrq80"
  },
  {
    "name": "Barry Allen Electrical Services",
    "address": "9 Juniper Way, Davenport WA 6230, Australia",
    "suburb": "Davenport WA 6230",
    "state": "WA",
    "rating": 3.9,
    "reviews": 14,
    "lat": -33.3670367,
    "lng": 115.6775835,
    "place_id": "ChIJm4Dv4RLiMSoRysqEMphiruc",
    "maps_url": "https://www.google.com/maps/place/?q=place_id:ChIJm4Dv4RLiMSoRysqEMphiruc"
  },
  {
    "name": "Fiegert Electrical & Communications",
    "address": "14 Matilda Ave, Australind WA 6233, Australia",
    "suburb": "Australind WA 6233",
    "state": "WA",
    "rating": 5,
    "reviews": 31,
    "lat": -33.2738132,
    "lng": 115.7248581,
    "place_id": "ChIJS_1lpN79MSoRBGyC4dCEgsU",
    "maps_url": "https://www.google.com/maps/place/?q=place_id:ChIJS_1lpN79MSoRBGyC4dCEgsU"
  },
  {
    "name": "One Stop Auto Electrical",
    "address": "4A Hampton St, Greenfields WA 6210, Australia",
    "suburb": "Greenfields WA 6210",
    "state": "WA",
    "rating": 4.8,
    "reviews": 72,
    "lat": -32.5125964,
    "lng": 115.7502993,
    "place_id": "ChIJc1GR_c7lEWsR4mcPVwT39UI",
    "maps_url": "https://www.google.com/maps/place/?q=place_id:ChIJc1GR_c7lEWsR4mcPVwT39UI"
  },
  {
    "name": "Amped Up Electrical Adelaide",
    "address": "33 Warwick St, Walkerville SA 5081, Australia",
    "suburb": "Walkerville SA 5081",
    "state": "SA",
    "rating": 5,
    "reviews": 41,
    "lat": -34.8965962,
    "lng": 138.617155,
    "place_id": "ChIJA-txS36ypwURfrn6Bk6emk0",
    "maps_url": "https://www.google.com/maps/place/?q=place_id:ChIJA-txS36ypwURfrn6Bk6emk0"
  },
  {
    "name": "Service Today Electrician Adelaide",
    "address": "200 East Terrace, Adelaide SA 5000, Australia",
    "suburb": "Adelaide SA 5000",
    "state": "SA",
    "rating": 4.8,
    "reviews": 58,
    "lat": -34.9302569,
    "lng": 138.6164373,
    "place_id": "ChIJIc_cP-zlc60RrJrnVEbqlcQ",
    "maps_url": "https://www.google.com/maps/place/?q=place_id:ChIJIc_cP-zlc60RrJrnVEbqlcQ"
  },
  {
    "name": "MCL Electrical Installations Pty Ltd",
    "address": "Pridmore Road, Adelaide SA 5064, Australia",
    "suburb": "Adelaide SA 5064",
    "state": "SA",
    "rating": 4.9,
    "reviews": 67,
    "lat": -34.958555,
    "lng": 138.646915,
    "place_id": "ChIJo44g_ibMsGoRvcI0wUebTKc",
    "maps_url": "https://www.google.com/maps/place/?q=place_id:ChIJo44g_ibMsGoRvcI0wUebTKc"
  },
  {
    "name": "Cornell Electrical Pty Ltd",
    "address": "825 South Rd, Clarence Gardens SA 5039, Australia",
    "suburb": "Clarence Gardens SA 5039",
    "state": "SA",
    "rating": 4.9,
    "reviews": 169,
    "lat": -34.9691868,
    "lng": 138.5736139,
    "place_id": "ChIJ-dL1J07PsGoRpoa6RrZbNnU",
    "maps_url": "https://www.google.com/maps/place/?q=place_id:ChIJ-dL1J07PsGoRpoa6RrZbNnU"
  },
  {
    "name": "H. Irwin Electrical Adelaide Electrician",
    "address": "7 Havelock Cl, Novar Gardens SA 5040, Australia",
    "suburb": "Novar Gardens SA 5040",
    "state": "SA",
    "rating": 5,
    "reviews": 103,
    "lat": -34.9586186,
    "lng": 138.5299285,
    "place_id": "ChIJfxcrX5kvhUQRkNK-YNKQGuQ",
    "maps_url": "https://www.google.com/maps/place/?q=place_id:ChIJfxcrX5kvhUQRkNK-YNKQGuQ"
  },
  {
    "name": "SA METRO Electrical",
    "address": "21a Tapleys Hill Rd, Hendon SA 5014, Australia",
    "suburb": "Hendon SA 5014",
    "state": "SA",
    "rating": 4.9,
    "reviews": 119,
    "lat": -34.867542,
    "lng": 138.512418,
    "place_id": "ChIJ-fkzqQTHsGoRN2ki3vOoZEk",
    "maps_url": "https://www.google.com/maps/place/?q=place_id:ChIJ-fkzqQTHsGoRN2ki3vOoZEk"
  },
  {
    "name": "D ELEC Adelaide - Your Local Electrician",
    "address": "Unit 4/77-87 Webb St, Port Adelaide SA 5015, Australia",
    "suburb": "Port Adelaide SA 5015",
    "state": "SA",
    "rating": 5,
    "reviews": 34,
    "lat": -34.8544759,
    "lng": 138.507948,
    "place_id": "ChIJVSmVaLeG3YYR1UyaUp-iqyo",
    "maps_url": "https://www.google.com/maps/place/?q=place_id:ChIJVSmVaLeG3YYR1UyaUp-iqyo"
  },
  {
    "name": "The Adelaide Electrical Co. - Electrician",
    "address": "Unit 5/453 The Parade, Kensington Gardens SA 5068, Australia",
    "suburb": "Kensington Gardens SA 5068",
    "state": "SA",
    "rating": 5,
    "reviews": 173,
    "lat": -34.9191151,
    "lng": 138.6666705,
    "place_id": "ChIJzb7loQTLsGoR5F5-z3jDnog",
    "maps_url": "https://www.google.com/maps/place/?q=place_id:ChIJzb7loQTLsGoR5F5-z3jDnog"
  },
  {
    "name": "Urban Spark Electrical",
    "address": "15D Second St, Brompton SA 5007, Australia",
    "suburb": "Brompton SA 5007",
    "state": "SA",
    "rating": 5,
    "reviews": 137,
    "lat": -34.9015179,
    "lng": 138.5745787,
    "place_id": "ChIJC_C6gePJsGoR9KJ2oqXx-gE",
    "maps_url": "https://www.google.com/maps/place/?q=place_id:ChIJC_C6gePJsGoR9KJ2oqXx-gE"
  },
  {
    "name": "RENELEC ELECTRICAL SERVICES | Residential and Commercial Electrician Adelaide",
    "address": "70 The Grove, Lower Mitcham SA 5062, Australia",
    "suburb": "Lower Mitcham SA 5062",
    "state": "SA",
    "rating": 5,
    "reviews": 123,
    "lat": -34.9827662,
    "lng": 138.6015713,
    "place_id": "ChIJcW6s3D3bsGoRl2pjx6ZmoLw",
    "maps_url": "https://www.google.com/maps/place/?q=place_id:ChIJcW6s3D3bsGoRl2pjx6ZmoLw"
  },