[
  {
    "name": "Jardan Sydney Showroom",
    "address": "42 Oxford St, Paddington NSW 2021, Australia",
    "suburb": "Paddington NSW 2021",
    "state": "NSW",
    "rating": 4.4,
    "reviews": 137,
    "lat": -33.8823678,
    "lng": 151.220288,
    "place_id": "ChIJO1VRRbmxEmsR5UegVolJtwE",
    "maps_url": "https://www.google.com/maps/place/?q=place_id:ChIJO1VRRbmxEmsR5UegVolJtwE"
  },
  {
    "name": "BoConcept Flagship Store NSW",
    "address": "575/597 Pacific Hwy, Crows Nest NSW 2065, Australia",
    "suburb": "Crows Nest NSW 2065",
    "state": "NSW",
    "rating": 4.8,
    "reviews": 554,
    "lat": -33.8240028,
    "lng": 151.1976578,
    "place_id": "ChIJ73oQRd2uEmsRJroOTgN5JSk",
    "maps_url": "https://www.google.com/maps/place/?q=place_id:ChIJ73oQRd2uEmsRJroOTgN5JSk"
  },
  {
    "name": "Fanuli Furniture Sydney",
    "address": "269 Military Rd, Cremorne NSW 2090, Australia",
    "suburb": "Cremorne NSW 2090",
    "state": "NSW",
    "rating": 4.4,
    "reviews": 73,
    "lat": -33.8291195,
    "lng": 151.228503,
    "place_id": "ChIJGy5Ob6GuEmsRbw7LLnEvFRM",
    "maps_url": "https://www.google.com/maps/place/?q=place_id:ChIJGy5Ob6GuEmsRbw7LLnEvFRM"
  },
  {
    "name": "Sydney Home Furnishings Waterloo",
    "address": "201 Botany Rd, Waterloo NSW 2017, Australia",
    "suburb": "Waterloo NSW 2017",
    "state": "NSW",
    "rating": 4.9,
    "reviews": 267,
    "lat": -33.9024607,
    "lng": 151.2020035,
    "place_id": "ChIJCSilWlKxEmsRx65QLFEEySk",
    "maps_url": "https://www.google.com/maps/place/?q=place_id:ChIJCSilWlKxEmsRx65QLFEEySk"
  },
  {
    "name": "More Furniture",
    "address": "26 Regent St, Chippendale NSW 2008, Australia",
    "suburb": "Chippendale NSW 2008",
    "state": "NSW",
    "rating": 4.4,
    "reviews": 61,
    "lat": -33.8846899,
    "lng": 151.2027205,
    "place_id": "ChIJc87s3yGuEmsRReKo2VpbNQw",
    "maps_url": "https://www.google.com/maps/place/?q=place_id:ChIJc87s3yGuEmsRReKo2VpbNQw"
  },
  {
    "name": "Eva Furniture Surry Hills House | Furniture Store Sydney",
    "address": "75 Fitzroy St, Surry Hills NSW 2010, Australia",
    "suburb": "Surry Hills NSW 2010",
    "state": "NSW",
    "rating": 5,
    "reviews": 106,
    "lat": -33.8856507,
    "lng": 151.2165101,
    "place_id": "ChIJ36IKmCOvEmsRoHFvWBvEiOw",
    "maps_url": "https://www.google.com/maps/place/?q=place_id:ChIJ36IKmCOvEmsRoHFvWBvEiOw"
  },
  {
    "name": "RJ Living Sydney Furniture Showroom",
    "address": "The Alex building, 17/40 O'Riordan St, Alexandria NSW 2015, Australia",
    "suburb": "17/40 O'Riordan St",
    "state": "NSW",
    "rating": 4.4,
    "reviews": 439,
    "lat": -33.9113988,
    "lng": 151.1982382,
    "place_id": "ChIJ98gZVwCxEmsRJOezf9-5CKQ",
    "maps_url": "https://www.google.com/maps/place/?q=place_id:ChIJ98gZVwCxEmsRJOezf9-5CKQ"
  },
  {
    "name": "Sydney Furniture Factory",
    "address": "4 Nursery Rd, Campbelltown NSW 2560, Australia",
    "suburb": "Campbelltown NSW 2560",
    "state": "NSW",
    "rating": 4.8,
    "reviews": 511,
    "lat": -34.0574194,
    "lng": 150.8090323,
    "place_id": "ChIJJVR8io6UEmsRFFSNbsSTvcI",
    "maps_url": "https://www.google.com/maps/place/?q=place_id:ChIJJVR8io6UEmsRFFSNbsSTvcI"
  },
  {
    "name": "Trit House - Redfern Showroom",
    "address": "611-613 Elizabeth St, Redfern NSW 2016, Australia",
    "suburb": "Redfern NSW 2016",
    "state": "NSW",
    "rating": 4.1,
    "reviews": 106,
    "lat": -33.8917239,
    "lng": 151.207299,
    "place_id": "ChIJ87RyDrmxEmsRD7KB95nsQTc",
    "maps_url": "https://www.google.com/maps/place/?q=place_id:ChIJ87RyDrmxEmsRD7KB95nsQTc"
  },
  {
    "name": "MUJI The Galeries",
    "address": "1 The Galeries, 500 George St, Sydney NSW 2000, Australia",
    "suburb": "500 George St",
    "state": "NSW",
    "rating": 4.3,
    "reviews": 967,
    "lat": -33.8723781,
    "lng": 151.2071178,
    "place_id": "ChIJxVESiT6uEmsR34Zjga8lX50",
    "maps_url": "https://www.google.com/maps/place/?q=place_id:ChIJxVESiT6uEmsR34Zjga8lX50"
  },
  {
    "name": "Space Furniture Sydney",
    "address": "84 O'Riordan St, Alexandria NSW 2015, Australia",
    "suburb": "Alexandria NSW 2015",
    "state": "NSW",
    "rating": 3.9,
    "reviews": 55,
    "lat": -33.9179605,
    "lng": 151.1938113,
    "place_id": "ChIJB6H9bq6xEmsR7y-aiU9cYuo",
    "maps_url": "https://www.google.com/maps/place/?q=place_id:ChIJB6H9bq6xEmsR7y-aiU9cYuo"
  },
  {
    "name": "James Said | Luxury Furniture | Sydney",
    "address": "180B Oxford St, Paddington NSW 2021, Australia",
    "suburb": "Paddington NSW 2021",
    "state": "NSW",
    "rating": 4.6,
    "reviews": 18,
    "lat": -33.8843605,
    "lng": 151.2240315,
    "place_id": "ChIJ_d6ADQWuEmsRqHCUf0PpESs",
    "maps_url": "https://www.google.com/maps/place/?q=place_id:ChIJ_d6ADQWuEmsRqHCUf0PpESs"
  },
  {
    "name": "MCM House Paddington",
    "address": "16/20 Oxford St, Paddington NSW 2021, Australia",
    "suburb": "Paddington NSW 2021",
    "state": "NSW",
    "rating": 3.7,
    "reviews": 160,
    "lat": -33.881726,
    "lng": 151.2198151,
    "place_id": "ChIJd22UQB6uEmsRTWbU0jEi8i8",
    "maps_url": "https://www.google.com/maps/place/?q=place_id:ChIJd22UQB6uEmsRTWbU0jEi8i8"
  },
  {
    "name": "Sydney Used Furniture",
    "address": "500 Marrickville Rd, Dulwich Hill NSW 2203, Australia",
    "suburb": "Dulwich Hill NSW 2203",
    "state": "NSW",
    "rating": 4.1,
    "reviews": 56,
    "lat": -33.9052269,
    "lng": 151.1439891,
    "place_id": "ChIJcepTpXmwEmsRs7n76p2GUpM",
    "maps_url": "https://www.google.com/maps/place/?q=place_id:ChIJcepTpXmwEmsRs7n76p2GUpM"
  },
  {
    "name": "Orient House",
    "address": "45 Bridge Rd, Glebe NSW 2037, Australia",
    "suburb": "Glebe NSW 2037",
    "state": "NSW",
    "rating": 4.7,
    "reviews": 51,
    "lat": -33.8775313,
    "lng": 151.1878523,
    "place_id": "ChIJqX_0uCyuEmsROeBER28ICIs",
    "maps_url": "https://www.google.com/maps/place/?q=place_id:ChIJqX_0uCyuEmsROeBER28ICIs"
  },
  {
    "name": "HAY Sydney",
    "address": "255 Crown St, Darlinghurst NSW 2010, Australia",
    "suburb": "Darlinghurst NSW 2010",
    "state": "NSW",
    "rating": 3.9,
    "reviews": 62,
    "lat": -33.8797049,
    "lng": 151.2149548,
    "place_id": "ChIJ4_eYSeCxEmsR_TLDiZSiDOg",
    "maps_url": "https://www.google.com/maps/place/?q=place_id:ChIJ4_eYSeCxEmsR_TLDiZSiDOg"
  },
  {
    "name": "Milano Furniture",
    "address": "140 Parramatta Rd, Ashfield NSW 2131, Australia",
    "suburb": "Ashfield NSW 2131",
    "state": "NSW",
    "rating": 4.4,
    "reviews": 67,
    "lat": -33.885456,
    "lng": 151.1369018,
    "place_id": "ChIJ3wslxaa6EmsRyTW-T7vFWxw",
    "maps_url": "https://www.google.com/maps/place/?q=place_id:ChIJ3wslxaa6EmsRyTW-T7vFWxw"
  },
  {
    "name": "Cosh Living - Indoor & Outdoor Furniture",
    "address": "69 O'Riordan St, Alexandria NSW 2015, Australia",
    "suburb": "Alexandria NSW 2015",
    "state": "NSW",
    "rating": 4.9,
    "reviews": 31,
    "lat": -33.9167581,
    "lng": 151.1936374,
    "place_id": "ChIJezx6Iq6xEmsR1RyaN8cg6Uo",
    "maps_url": "https://www.google.com/maps/place/?q=place_id:ChIJezx6Iq6xEmsR1RyaN8cg6Uo"
  },
  {
    "name": "Home HQ",
    "address": "1 Frederick St, Artarmon NSW 2064, Australia",
    "suburb": "Artarmon NSW 2064",
    "state": "NSW",
    "rating": 4.1,
    "reviews": 1072,
    "lat": -33.8172333,
    "lng": 151.1883778,
    "place_id": "ChIJta6_oSevEmsRdI_6s-0Igqs",
    "maps_url": "https://www.google.com/maps/place/?q=place_id:ChIJta6_oSevEmsRdI_6s-0Igqs"
  },
  {
    "name": "Remarkable Outdoor Living Alexandria - Outdoor Furniture Sydney",
    "address": "Unit L/494 Gardeners Rd, Alexandria NSW 2015, Australia",
    "suburb": "Alexandria NSW 2015",
    "state": "NSW",
    "rating": 4.7,
    "reviews": 39,
    "lat": -33.9199304,
    "lng": 151.1914165,
    "place_id": "ChIJM08xc5CxEmsRrZwOV7mzq5g",
    "maps_url": "https://www.google.com/maps/place/?q=place_id:ChIJM08xc5CxEmsRrZwOV7mzq5g"
  },
  {
    "name": "Home Furniture OUTLET",
    "address": "171/173 Parramatta Rd, Granville NSW 2142, Australia",
    "suburb": "Granville NSW 2142",
    "state": "NSW",
    "rating": 4.9,
    "reviews": 225,
    "lat": -33.8291724,
    "lng": 151.009371,
    "place_id": "ChIJV0TC_iajEmsRXCO3jSZRs80",
    "maps_url": "https://www.google.com/maps/place/?q=place_id:ChIJV0TC_iajEmsRXCO3jSZRs80"
  },
  {
    "name": "Santosa Furniture Warehouse",
    "address": "1/142 James Ruse Dr, Parramatta NSW 2150, Australia",
    "suburb": "Parramatta NSW 2150",
    "state": "NSW",
    "rating": 4.9,
    "reviews": 477,
    "lat": -33.817751,
    "lng": 151.021748,
    "place_id": "ChIJdeczqrSIEmsRNa_sH_2XU8c",
    "maps_url": "https://www.google.com/maps/place/?q=place_id:ChIJdeczqrSIEmsRNa_sH_2XU8c"
  },
  {
    "name": "Hot Deal Furniture Parramatta",
    "address": "Shop1/41 Marion St, Parramatta NSW 2150, Australia",
    "suburb": "Parramatta NSW 2150",
    "state": "NSW",
    "rating": 4.3,
    "reviews": 191,
    "lat": -33.8224436,
    "lng": 151.0072648,
    "place_id": "ChIJ93ZGCCSjEmsRW_j7UVAl1Hs",
    "maps_url": "https://www.google.com/maps/place/?q=place_id:ChIJ93ZGCCSjEmsRW_j7UVAl1Hs"
  },
  {
    "name": "Pacific Pavilion Furniture",
    "address": "11 Seville St, North Parramatta NSW 2151, Australia",
    "suburb": "North Parramatta NSW 2151",
    "state": "NSW",
    "rating": 4.7,
    "reviews": 69,
    "lat": -33.7954948,
    "lng": 151.0025835,
    "place_id": "ChIJHwLWiPCtEmsRjV7E1JKGHeI",
    "maps_url": "https://www.google.com/maps/place/?q=place_id:ChIJHwLWiPCtEmsRjV7E1JKGHeI"
  },
  {
    "name": "Lounge Life by Living Unlimited - Auburn",
    "address": "1/243-247 Parramatta Rd, Auburn NSW 2144, Australia",
    "suburb": "Auburn NSW 2144",
    "state": "NSW",
    "rating": 4.7,
    "reviews": 833,
    "lat": -33.8387491,
    "lng": 151.0307809,
    "place_id": "ChIJR70joB2jEmsRdSS2Ji0OufA",
    "maps_url": "https://www.google.com/maps/place/?q=place_id:ChIJR70joB2jEmsRdSS2Ji0OufA"
  },
  {
    "name": "King Living Northmead NSW",
    "address": "No 2 Windsor Road, Corner, James Ruse Dr, Northmead NSW 2152, Australia",
    "suburb": "Corner",
    "state": "NSW",
    "rating": 4.4,
    "reviews": 411,
    "lat": -33.7931011,
    "lng": 150.9986023,
    "place_id": "ChIJF98u-VSiEmsReoxBcw0qn_g",
    "maps_url": "https://www.google.com/maps/place/?q=place_id:ChIJF98u-VSiEmsReoxBcw0qn_g"
  },
  {
    "name": "Seconds Furniture- Clearance Outlet Sydney",
    "address": "6 Burilda Cl, Wetherill Park NSW 2164, Australia",
    "suburb": "Wetherill Park NSW 2164",
    "state": "NSW",
    "rating": 5,
    "reviews": 121,
    "lat": -33.844151,
    "lng": 150.8743234,
    "place_id": "ChIJHazAaCCXEmsRL2Fq9WSkEOo",
    "maps_url": "https://www.google.com/maps/place/?q=place_id:ChIJHazAaCCXEmsRL2Fq9WSkEOo"
  },
  {
    "name": "Home Furniture OUTLET",
    "address": "28 Blaxland Rd, Campbelltown NSW 2560, Australia",
    "suburb": "Campbelltown NSW 2560",
    "state": "NSW",
    "rating": 4.8,
    "reviews": 556,
    "lat": -34.0593951,
    "lng": 150.8148302,
    "place_id": "ChIJq5KNih7vEmsR28Uv8fbp8mc",
    "maps_url": "https://www.google.com/maps/place/?q=place_id:ChIJq5KNih7vEmsR28Uv8fbp8mc"
  },
  {
    "name": "Luxurino Home Decor",
    "address": "2/639 Church St, North Parramatta NSW 2151, Australia",
    "suburb": "North Parramatta NSW 2151",
    "state": "NSW",
    "rating": 4.9,
    "reviews": 69,
    "lat": -33.7939186,
    "lng": 150.9998559,
    "place_id": "ChIJyw6bFGmjEmsR4jUyd-gQITU",
    "maps_url": "https://www.google.com/maps/place/?q=place_id:ChIJyw6bFGmjEmsR4jUyd-gQITU"
  },
  {
    "name": "Auburn Furniture Factory outlet",
    "address": "Unit 2/243-247 Parramatta Rd, Auburn NSW 2144, Australia",
    "suburb": "Auburn NSW 2144",
    "state": "NSW",
    "rating": 4.7,
    "reviews": 59,
    "lat": -33.8387491,
    "lng": 151.0307809,
    "place_id": "ChIJ3cgLSO2jEmsRz_VxWBC2iWs",
    "maps_url": "https://www.google.com/maps/place/?q=place_id:ChIJ3cgLSO2jEmsRz_VxWBC2iWs"
  },
  {
    "name": "LivingStyles",
    "address": "No Showroom, Unit 10/4a Bachell Ave, Lidcombe NSW 2141, Australia",
    "suburb": "Unit 10/4a Bachell Ave",
    "state": "NSW",
    "rating": 4.4,
    "reviews": 702,
    "lat": -33.8615564,
    "lng": 151.0560604,
    "place_id": "ChIJvQ6kmT67EmsRIVUCmPef6TE",
    "maps_url": "https://www.google.com/maps/place/?q=place_id:ChIJvQ6kmT67EmsRIVUCmPef6TE"
  },
  {
    "name": "Berkowitz Furniture – Auburn",
    "address": "Primewest Auburn Megamall, Shop G02 and G03/265 Parramatta Rd, Auburn NSW 2144, Australia",
    "suburb": "Shop G02 and G03/265 Parramatta Rd",
    "state": "NSW",
    "rating": 4.2,
    "reviews": 97,
    "lat": -33.8377201,
    "lng": 151.0280802,
    "place_id": "ChIJjzThwS-jEmsRiOURT46BrY8",
    "maps_url": "https://www.google.com/maps/place/?q=place_id:ChIJjzThwS-jEmsRiOURT46BrY8"
  },
  {
    "name": "Harbour Lane Furniture & Bedding Cabramatta",
    "address": "239 Hume Hwy, Cabramatta NSW 2166, Australia",
    "suburb": "Cabramatta NSW 2166",
    "state": "NSW",
    "rating": 4.4,
    "reviews": 159,
    "lat": -33.8974797,
    "lng": 150.9517822,
    "place_id": "ChIJo0tKsFmXEmsRTmcq4CZdXZc",
    "maps_url": "https://www.google.com/maps/place/?q=place_id:ChIJo0tKsFmXEmsRTmcq4CZdXZc"
  },
  {
    "name": "Divano Furniture",
    "address": "Level 49 10 Darcy Street, 8 Parramatta Sq, Parramatta NSW 2150, Australia",
    "suburb": "8 Parramatta Sq",
    "state": "NSW",
    "rating": 4.8,
    "reviews": 150,
    "lat": -33.8164091,
    "lng": 151.0038161,
    "place_id": "ChIJl8rg1SGjEmsRn78aNJ4N55k",
    "maps_url": "https://www.google.com/maps/place/?q=place_id:ChIJl8rg1SGjEmsRn78aNJ4N55k"
  },
  {
    "name": "King Living Annandale NSW",
    "address": "61 Parramatta Rd, Annandale NSW 2038, Australia",
    "suburb": "Annandale NSW 2038",
    "state": "NSW",
    "rating": 3.9,
    "reviews": 402,
    "lat": -33.8874015,
    "lng": 151.1698608,
    "place_id": "ChIJtZlTmySwEmsR5qbWxozAjYA",
    "maps_url": "https://www.google.com/maps/place/?q=place_id:ChIJtZlTmySwEmsR5qbWxozAjYA"
  },
  {
    "name": "Jodhpur Designs",
    "address": "4/175-179 James Ruse Dr, Camellia NSW 2142, Australia",
    "suburb": "Camellia NSW 2142",
    "state": "NSW",
    "rating": 4.8,
    "reviews": 209,
    "lat": -33.817984,
    "lng": 151.0231118,
    "place_id": "ChIJtYZGvtiYEmsRo2lpztMmUXk",
    "maps_url": "https://www.google.com/maps/place/?q=place_id:ChIJtYZGvtiYEmsRo2lpztMmUXk"
  },
  {
    "name": "Flourish Furniture - leather sofa, fabric sofa, storage bed, marble dining table, home decoration, auburn furniture",
    "address": "5/4-6 Wiltona Pl, Girraween NSW 2145, Australia",
    "suburb": "Girraween NSW 2145",
    "state": "NSW",
    "rating": 4.4,
    "reviews": 23,
    "lat": -33.7939439,
    "lng": 150.9422353,
    "place_id": "ChIJAQDA0E2jEmsRrS1eUeJVnuw",
    "maps_url": "https://www.google.com/maps/place/?q=place_id:ChIJAQDA0E2jEmsRrS1eUeJVnuw"
  },
  {
    "name": "Eureka Furniture Auburn",
    "address": "Centuria Auburn Megamall, Shop A02, Level 1/265 Parramatta Rd, Auburn NSW 2144, Australia",
    "suburb": "Shop A02",
    "state": "NSW",
    "rating": 4.5,
    "reviews": 298,
    "lat": -33.8375927,
    "lng": 151.0281311,
    "place_id": "ChIJzT15HUGjEmsRQH9mEmCqjvg",
    "maps_url": "https://www.google.com/maps/place/?q=place_id:ChIJzT15HUGjEmsRQH9mEmCqjvg"
  },
  {
    "name": "King Living Outlet Annandale NSW",
    "address": "69-73 Parramatta Rd Cnr, Trafalgar St, Annandale NSW 2038, Australia",
    "suburb": "Trafalgar St",
    "state": "NSW",
    "rating": 4.7,
    "reviews": 84,
    "lat": -33.8874343,
    "lng": 151.1693135,
    "place_id": "ChIJ82yuXuyxEmsRrl2G3fFURmg",
    "maps_url": "https://www.google.com/maps/place/?q=place_id:ChIJ82yuXuyxEmsRrl2G3fFURmg"
  },
  {
    "name": "Freedom - Auburn",
    "address": "Primewest Auburn Mega Mall, Shop G01/265 Parramatta Rd, Auburn NSW 2144, Australia",
    "suburb": "Shop G01/265 Parramatta Rd",
    "state": "NSW",
    "rating": 3.3,
    "reviews": 212,
    "lat": -33.8377201,
    "lng": 151.0280802,
    "place_id": "ChIJ2eLh4UujEmsREke9sIBxfBQ",
    "maps_url": "https://www.google.com/maps/place/?q=place_id:ChIJ2eLh4UujEmsREke9sIBxfBQ"
  },
  {
    "name": "insideout",
    "address": "192 Parry St, Newcastle West NSW 2302, Australia",
    "suburb": "Newcastle West NSW 2302",
    "state": "NSW",
    "rating": 5,
    "reviews": 20,
    "lat": -32.925271,
    "lng": 151.756244,
    "place_id": "ChIJN16Uyk8Uc2sRr8KByXS8M6A",
    "maps_url": "https://www.google.com/maps/place/?q=place_id:ChIJN16Uyk8Uc2sRr8KByXS8M6A"
  },
  {
    "name": "King Living Newcastle NSW",
    "address": "85 Parry St, Newcastle West NSW 2302, Australia",
    "suburb": "Newcastle West NSW 2302",
    "state": "NSW",
    "rating": 4.8,
    "reviews": 362,
    "lat": -32.9272705,
    "lng": 151.7582257,
    "place_id": "ChIJ5XKiZVoVc2sRQSWK_yTa2Ks",
    "maps_url": "https://www.google.com/maps/place/?q=place_id:ChIJ5XKiZVoVc2sRQSWK_yTa2Ks"
  },
  {
    "name": "Lounge Lovers Newcastle",
    "address": "22 Wood St, Newcastle West NSW 2302, Australia",
    "suburb": "Newcastle West NSW 2302",
    "state": "NSW",
    "rating": 4.8,
    "reviews": 149,
    "lat": -32.9256946,
    "lng": 151.7569899,
    "place_id": "ChIJY50PILAVc2sR-eap12NHKuU",
    "maps_url": "https://www.google.com/maps/place/?q=place_id:ChIJY50PILAVc2sR-eap12NHKuU"
  },
  {
    "name": "Plush Newcastle",
    "address": "HomeCo Kotara, Unit 15/150 Park Ave, Kotara NSW 2289, Australia",
    "suburb": "Unit 15/150 Park Ave",
    "state": "NSW",
    "rating": 4.5,
    "reviews": 142,
    "lat": -32.9395031,
    "lng": 151.7064493,
    "place_id": "ChIJTXhfuk8Uc2sRw_ZR77BLA-s",
    "maps_url": "https://www.google.com/maps/place/?q=place_id:ChIJTXhfuk8Uc2sRw_ZR77BLA-s"
  },
  {
    "name": "Eureka Furniture Kotara",
    "address": "Home, Shop 1/150 Park Ave, Kotara NSW 2289, Australia",
    "suburb": "Shop 1/150 Park Ave",
    "state": "NSW",
    "rating": 4.6,
    "reviews": 150,
    "lat": -32.9380175,
    "lng": 151.7083305,
    "place_id": "ChIJ_8Ndyb0Vc2sRp4jgUrNBhwg",
    "maps_url": "https://www.google.com/maps/place/?q=place_id:ChIJ_8Ndyb0Vc2sRp4jgUrNBhwg"
  },
  {
    "name": "Freedom - Kotara",
    "address": "Homemaker Centre, 2 Shop 22/150 Park Ave, Kotara NSW 2289, Australia",
    "suburb": "2 Shop 22/150 Park Ave",
    "state": "NSW",
    "rating": 3.1,
    "reviews": 216,
    "lat": -32.9400208,
    "lng": 151.7058857,
    "place_id": "ChIJ6-qtSPwVc2sRpH4x_ksH--s",
    "maps_url": "https://www.google.com/maps/place/?q=place_id:ChIJ6-qtSPwVc2sRpH4x_ksH--s"
  },
  {
    "name": "Early Settler Furniture Store Newcastle",
    "address": "14/150 Park Ave, Kotara NSW 2289, Australia",
    "suburb": "Kotara NSW 2289",
    "state": "NSW",
    "rating": 4,
    "reviews": 76,
    "lat": -32.9392472,
    "lng": 151.7068007,
    "place_id": "ChIJ6-qtSPwVc2sR0YVM6kXz-uI",
    "maps_url": "https://www.google.com/maps/place/?q=place_id:ChIJ6-qtSPwVc2sR0YVM6kXz-uI"
  },
  {
    "name": "Fantastic Furniture",
    "address": "978 Hunter St, Newcastle West NSW 2300, Australia",
    "suburb": "Newcastle West NSW 2300",
    "state": "NSW",
    "rating": 4,
    "reviews": 253,
    "lat": -32.9227789,
    "lng": 151.7544127,
    "place_id": "ChIJma0N6lEUc2sRkLSwVF1BDCM",
    "maps_url": "https://www.google.com/maps/place/?q=place_id:ChIJma0N6lEUc2sRkLSwVF1BDCM"
  },
  {
    "name": "Amart Glendale",
    "address": "1/25 Stockland Dr, Glendale NSW 2285, Australia",
    "suburb": "Glendale NSW 2285",
    "state": "NSW",
    "rating": 3.7,
    "reviews": 388,
    "lat": -32.9325321,
    "lng": 151.6422999,
    "place_id": "ChIJnZfZ6SU8c2sRlud2ow1MfRc",
    "maps_url": "https://www.google.com/maps/place/?q=place_id:ChIJnZfZ6SU8c2sRlud2ow1MfRc"
  },
  {
    "name": "Focus on Furniture - Kotara",
    "address": "150 Park Ave, Kotara NSW 2289, Australia",
    "suburb": "Kotara NSW 2289",
    "state": "NSW",
    "rating": 3.9,
    "reviews": 133,
    "lat": -32.9395548,
    "lng": 151.7061814,
    "place_id": "ChIJL2QVFPwVc2sRWgN0nZFt75Y",
    "maps_url": "https://www.google.com/maps/place/?q=place_id:ChIJL2QVFPwVc2sRWgN0nZFt75Y"
  },
  {
    "name": "OZ Design Kotara",
    "address": "HomeCo. Kotara, Shop 13/150 Park Ave, Kotara NSW 2289, Australia",
    "suburb": "Shop 13/150 Park Ave",
    "state": "NSW",
    "rating": 4.2,
    "reviews": 78,
    "lat": -32.9393239,
    "lng": 151.7067882,
    "place_id": "ChIJ6-qtSPwVc2sReJAOVLWsvyo",
    "maps_url": "https://www.google.com/maps/place/?q=place_id:ChIJ6-qtSPwVc2sReJAOVLWsvyo"
  },
  {
    "name": "Nick Scali Furniture Kotara Newcastle",
    "address": "Corner Park Avenue &, Kullaiba Rd, Kotara NSW 2289, Australia",
    "suburb": "Kullaiba Rd",
    "state": "NSW",
    "rating": 3.9,
    "reviews": 221,
    "lat": -32.9404379,
    "lng": 151.7066525,
    "place_id": "ChIJ0-Fx0v89c2sRkhFqNQprZHA",
    "maps_url": "https://www.google.com/maps/place/?q=place_id:ChIJ0-Fx0v89c2sRkhFqNQprZHA"
  },
  {
    "name": "Lounges Plus",
    "address": "Building B/274 Macquarie Rd, Warners Bay NSW 2282, Australia",
    "suburb": "Warners Bay NSW 2282",
    "state": "NSW",
    "rating": 4.2,
    "reviews": 63,
    "lat": -32.9645915,
    "lng": 151.6542477,
    "place_id": "ChIJYT1dw6w9c2sRnXvQnc5iFZY",
    "maps_url": "https://www.google.com/maps/place/?q=place_id:ChIJYT1dw6w9c2sRnXvQnc5iFZY"
  },
  {
    "name": "Mustard Made",
    "address": "Suite 3/67 Parry St, Newcastle West NSW 2302, Australia",
    "suburb": "Newcastle West NSW 2302",
    "state": "NSW",
    "rating": 4.9,
    "reviews": 80,
    "lat": -32.9278234,
    "lng": 151.7590433,
    "place_id": "ChIJr4FokAsVc2sRuyF1NdSHT7U",
    "maps_url": "https://www.google.com/maps/place/?q=place_id:ChIJr4FokAsVc2sRuyF1NdSHT7U"
  },
  {
    "name": "Lyall Buick Furniture",
    "address": "1/50 Northcott Dr, Kotara NSW 2289, Australia",
    "suburb": "Kotara NSW 2289",
    "state": "NSW",
    "rating": 4.6,
    "reviews": 49,
    "lat": -32.9392174,
    "lng": 151.7115755,
    "place_id": "ChIJB1ajq_wVc2sRKRU6nuyZ77E",
    "maps_url": "https://www.google.com/maps/place/?q=place_id:ChIJB1ajq_wVc2sRKRU6nuyZ77E"
  },
  {
    "name": "Monsoon Living",
    "address": "174 King St, Newcastle NSW 2300, Australia",
    "suburb": "Newcastle NSW 2300",
    "state": "NSW",
    "rating": 5,
    "reviews": 4,
    "lat": -32.9270179,
    "lng": 151.77706,
    "place_id": "ChIJWQt5d2YUc2sRmuY0Pc0VzKQ",
    "maps_url": "https://www.google.com/maps/place/?q=place_id:ChIJWQt5d2YUc2sRmuY0Pc0VzKQ"
  },
  {
    "name": "Harvey Norman - Clearance Centre Broadmeadow",
    "address": "35 Lambton Rd, Broadmeadow NSW 2292, Australia",
    "suburb": "Broadmeadow NSW 2292",
    "state": "NSW",
    "rating": 4,
    "reviews": 332,
    "lat": -32.9247222,
    "lng": 151.7341667,
    "place_id": "ChIJjR-clLkVc2sRWl5-1nDCTDw",
    "maps_url": "https://www.google.com/maps/place/?q=place_id:ChIJjR-clLkVc2sRWl5-1nDCTDw"
  },
  {
    "name": "James Lane Kotara",
    "address": "Home Co. Kotara, 150 Park Ave, Kotara NSW 2289, Australia",
    "suburb": "150 Park Ave",
    "state": "NSW",
    "rating": 4,
    "reviews": 59,
    "lat": -32.940131,
    "lng": 151.7064312,
    "place_id": "ChIJL2QVFPwVc2sRvN7QAWKMvOY",
    "maps_url": "https://www.google.com/maps/place/?q=place_id:ChIJL2QVFPwVc2sRvN7QAWKMvOY"
  },
  {
    "name": "Beds R Us | One Stop Furniture",
    "address": "393a Hillsborough Rd, Warners Bay NSW 2282, Australia",
    "suburb": "Warners Bay NSW 2282",
    "state": "NSW",
    "rating": 4.1,
    "reviews": 103,
    "lat": -32.9657096,
    "lng": 151.6537017,
    "place_id": "ChIJ8RH7rqw9c2sR8scyuLN_KRg",
    "maps_url": "https://www.google.com/maps/place/?q=place_id:ChIJ8RH7rqw9c2sR8scyuLN_KRg"
  },
  {
    "name": "Second Hand City",
    "address": "6/54 Clyde St, Hamilton North NSW 2292, Australia",
    "suburb": "Hamilton North NSW 2292",
    "state": "NSW",
    "rating": 4.1,
    "reviews": 130,
    "lat": -32.9120377,
    "lng": 151.7365233,
    "place_id": "ChIJjVI6YqgVc2sRW1Rf5h3BB-o",
    "maps_url": "https://www.google.com/maps/place/?q=place_id:ChIJjVI6YqgVc2sRW1Rf5h3BB-o"
  },
  {
    "name": "Best Buys Furniture and Bedding",
    "address": "33 Flinders St, Wollongong NSW 2500, Australia",
    "suburb": "Wollongong NSW 2500",
    "state": "NSW",
    "rating": 5,
    "reviews": 94,
    "lat": -34.4178591,
    "lng": 150.8926728,
    "place_id": "ChIJeW2e75IZE2sRV9NDfjcj4AY",
    "maps_url": "https://www.google.com/maps/place/?q=place_id:ChIJeW2e75IZE2sRV9NDfjcj4AY"
  },
  {
    "name": "MEGA FURNITURE & ELECTRICAL new&used",
    "address": "33 Flinders St, Wollongong NSW 2500, Australia",
    "suburb": "Wollongong NSW 2500",
    "state": "NSW",
    "rating": 5,
    "reviews": 39,
    "lat": -34.4178591,
    "lng": 150.8926728,
    "place_id": "ChIJv2JKX7cZE2sR8qJ5Ep2Jnv8",
    "maps_url": "https://www.google.com/maps/place/?q=place_id:ChIJv2JKX7cZE2sR8qJ5Ep2Jnv8"
  },
  {
    "name": "Lounges Plus",
    "address": "Shop 6, 1 Drummond Street, Cnr Masters Rd, Coniston NSW 2500, Australia",
    "suburb": "1 Drummond Street",
    "state": "NSW",
    "rating": 4.7,
    "reviews": 228,
    "lat": -34.4442041,
    "lng": 150.8714493,
    "place_id": "ChIJRXVSq_oZE2sR4pxvDEHlouk",
    "maps_url": "https://www.google.com/maps/place/?q=place_id:ChIJRXVSq_oZE2sR4pxvDEHlouk"
  },
  {
    "name": "OZ Design Wollongong",
    "address": "127 King St, Warrawong NSW 2502, Australia",
    "suburb": "Warrawong NSW 2502",
    "state": "NSW",
    "rating": 3.9,
    "reviews": 85,
    "lat": -34.4942246,
    "lng": 150.8896056,
    "place_id": "ChIJ9z19URkXE2sR38MFaRZuEkQ",
    "maps_url": "https://www.google.com/maps/place/?q=place_id:ChIJ9z19URkXE2sR38MFaRZuEkQ"
  },
  {
    "name": "SEL-f-LESS Furniture Outlet",
    "address": "2/131 King St, Warrawong NSW 2502, Australia",
    "suburb": "Warrawong NSW 2502",
    "state": "NSW",
    "rating": 4.6,
    "reviews": 128,
    "lat": -34.4947531,
    "lng": 150.8894073,
    "place_id": "ChIJw6NOtx4XE2sRI0rNyC3Uujw",
    "maps_url": "https://www.google.com/maps/place/?q=place_id:ChIJw6NOtx4XE2sRI0rNyC3Uujw"
  },
  {
    "name": "Ryan's New & Used Furniture & Electrical",
    "address": "270 Keira St, Wollongong NSW 2500, Australia",
    "suburb": "Wollongong NSW 2500",
    "state": "NSW",
    "rating": 4.6,
    "reviews": 175,
    "lat": -34.4279896,
    "lng": 150.8925137,
    "place_id": "ChIJmT914aQZE2sRYe16zhDsApE",
    "maps_url": "https://www.google.com/maps/place/?q=place_id:ChIJmT914aQZE2sRYe16zhDsApE"
  },
  {
    "name": "Freedom - Warrawong",
    "address": "93/97 King St, Warrawong NSW 2502, Australia",
    "suburb": "Warrawong NSW 2502",
    "state": "NSW",
    "rating": 3.8,
    "reviews": 151,
    "lat": -34.4921615,
    "lng": 150.8890673,
    "place_id": "ChIJheImbBcXE2sRjQ_5VgXlITU",
    "maps_url": "https://www.google.com/maps/place/?q=place_id:ChIJheImbBcXE2sRjQ_5VgXlITU"
  },
  {
    "name": "Layback Living",
    "address": "91 Railway St, Corrimal NSW 2518, Australia",
    "suburb": "Corrimal NSW 2518",
    "state": "NSW",
    "rating": 4.9,
    "reviews": 278,
    "lat": -34.3731798,
    "lng": 150.8956037,
    "place_id": "ChIJL1WvYh4ZE2sRQQGQ1M0MId8",
    "maps_url": "https://www.google.com/maps/place/?q=place_id:ChIJL1WvYh4ZE2sRQQGQ1M0MId8"
  },
  {
    "name": "Nick Scali Furniture Warrawong",
    "address": "Unit 1/145-149 King St, Warrawong NSW 2502, Australia",
    "suburb": "Warrawong NSW 2502",
    "state": "NSW",
    "rating": 4.4,
    "reviews": 266,
    "lat": -34.4960873,
    "lng": 150.8903489,
    "place_id": "ChIJczqpvx4XE2sRVr9pmPHscBo",
    "maps_url": "https://www.google.com/maps/place/?q=place_id:ChIJczqpvx4XE2sRVr9pmPHscBo"
  },
  {
    "name": "Corrimal Lounges",
    "address": "118 Railway St, Corrimal NSW 2518, Australia",
    "suburb": "Corrimal NSW 2518",
    "state": "NSW",
    "rating": 4.5,
    "reviews": 66,
    "lat": -34.3728302,
    "lng": 150.8957855,
    "place_id": "ChIJIVojIs4eE2sRcSSdSabZ5iM",
    "maps_url": "https://www.google.com/maps/place/?q=place_id:ChIJIVojIs4eE2sRcSSdSabZ5iM"
  },
  {
    "name": "Rococo Emporium",
    "address": "60 Kembla St, Wollongong NSW 2500, Australia",
    "suburb": "Wollongong NSW 2500",
    "state": "NSW",
    "rating": 5,
    "reviews": 4,
    "lat": -34.4230942,
    "lng": 150.8976617,
    "place_id": "ChIJtfJzX6gZE2sR1Ycn4avsYmA",
    "maps_url": "https://www.google.com/maps/place/?q=place_id:ChIJtfJzX6gZE2sR1Ycn4avsYmA"
  },
  {
    "name": "Amart Warrawong",
    "address": "Tenancy 8/86 King St, Warrawong NSW 2502, Australia",
    "suburb": "Warrawong NSW 2502",
    "state": "NSW",
    "rating": 3.4,
    "reviews": 29,
    "lat": -34.4858068,
    "lng": 150.885714,
    "place_id": "ChIJpe0f8L8XE2sRQQihwN5OhmA",
    "maps_url": "https://www.google.com/maps/place/?q=place_id:ChIJpe0f8L8XE2sRQQihwN5OhmA"
  },
  {
    "name": "Wollongong Bedding Warehouse",
    "address": "272 Keira St, Wollongong NSW 2500, Australia",
    "suburb": "Wollongong NSW 2500",
    "state": "NSW",
    "rating": 4.9,
    "reviews": 173,
    "lat": -34.4281739,
    "lng": 150.8925364,
    "place_id": "ChIJq6ra5qQZE2sR9Vl3PfBXd0o",
    "maps_url": "https://www.google.com/maps/place/?q=place_id:ChIJq6ra5qQZE2sR9Vl3PfBXd0o"
  },
  {
    "name": "Fantastic Furniture",
    "address": "53 Kemblawarra Rd, Warrawong NSW 2502, Australia",
    "suburb": "Warrawong NSW 2502",
    "state": "NSW",
    "rating": 4,
    "reviews": 388,
    "lat": -34.4927663,
    "lng": 150.8891933,
    "place_id": "ChIJQ1ztbRkXE2sR01LJK8KPAcQ",
    "maps_url": "https://www.google.com/maps/place/?q=place_id:ChIJQ1ztbRkXE2sR01LJK8KPAcQ"
  },
  {
    "name": "Golden Furniture",
    "address": "2 Tallegalla St, Unanderra NSW 2526, Australia",
    "suburb": "Unanderra NSW 2526",
    "state": "NSW",
    "rating": 4.6,
    "reviews": 30,
    "lat": -34.454219,
    "lng": 150.8430692,
    "place_id": "ChIJya6BbRUTE2sRwH9_phNgDwM",
    "maps_url": "https://www.google.com/maps/place/?q=place_id:ChIJya6BbRUTE2sRwH9_phNgDwM"
  },
  {
    "name": "Monster Furniture Clearance Depot - Merrylands",
    "address": "258 Woodville Rd, Merrylands NSW 2160, Australia",
    "suburb": "Merrylands NSW 2160",
    "state": "NSW",
    "rating": 4.8,
    "reviews": 1502,
    "lat": -33.8474808,
    "lng": 150.9966537,
    "place_id": "ChIJPXVGyX-9EmsRP1Kaw-grmvE",
    "maps_url": "https://www.google.com/maps/place/?q=place_id:ChIJPXVGyX-9EmsRP1Kaw-grmvE"
  },
  {
    "name": "Supertrash",
    "address": "1b/18 Princes Hwy, Fairy Meadow NSW 2519, Australia",
    "suburb": "Fairy Meadow NSW 2519",
    "state": "NSW",
    "rating": 4.9,
    "reviews": 46,
    "lat": -34.388095,
    "lng": 150.8944168,
    "place_id": "ChIJ_zio-YYZE2sRjHkFOFWk6B8",
    "maps_url": "https://www.google.com/maps/place/?q=place_id:ChIJ_zio-YYZE2sRjHkFOFWk6B8"
  },
  {
    "name": "Kiama Furniture One",
    "address": "131 Manning St, Kiama NSW 2533, Australia",
    "suburb": "Kiama NSW 2533",
    "state": "NSW",
    "rating": 4.9,
    "reviews": 29,
    "lat": -34.678444,
    "lng": 150.8502,
    "place_id": "ChIJYxKJPA5sE2sRDNos77kl9ss",
    "maps_url": "https://www.google.com/maps/place/?q=place_id:ChIJYxKJPA5sE2sRDNos77kl9ss"
  },
  {
    "name": "Plush Warrawong",
    "address": "67/69-71 King St, Warrawong NSW 2502, Australia",
    "suburb": "Warrawong NSW 2502",
    "state": "NSW",
    "rating": 4.3,
    "reviews": 145,
    "lat": -34.4898185,
    "lng": 150.889038,
    "place_id": "ChIJU_Dy5hkXE2sRPSd6pQOJ36c",
    "maps_url": "https://www.google.com/maps/place/?q=place_id:ChIJU_Dy5hkXE2sRPSd6pQOJ36c"
  },
  {
    "name": "T & C Furniture",
    "address": "Unit 2/29-31 Durgadin Dr, Albion Park Rail NSW 2527, Australia",
    "suburb": "Albion Park Rail NSW 2527",
    "state": "NSW",
    "rating": 4.2,
    "reviews": 11,
    "lat": -34.574472,
    "lng": 150.8173959,
    "place_id": "ChIJsVwWAB0TE2sRsmGNDRhnJOs",
    "maps_url": "https://www.google.com/maps/place/?q=place_id:ChIJsVwWAB0TE2sRsmGNDRhnJOs"
  },
  {
    "name": "Supreme Furniture",
    "address": "HomeCo Centre, Showroom G3/2 Bryant Dr, Tuggerah NSW 2259, Australia",
    "suburb": "Showroom G3/2 Bryant Dr",
    "state": "NSW",
    "rating": 4.9,
    "reviews": 79,
    "lat": -33.30995170000001,
    "lng": 151.4210523,
    "place_id": "ChIJt3PZFvXPcmsRnjDPRWlB-Eg",
    "maps_url": "https://www.google.com/maps/place/?q=place_id:ChIJt3PZFvXPcmsRnjDPRWlB-Eg"
  },
  {
    "name": "Finest Furniture",
    "address": "99A Donnison St, Gosford NSW 2250, Australia",
    "suburb": "Gosford NSW 2250",
    "state": "NSW",
    "rating": 5,
    "reviews": 34,
    "lat": -33.4270535,
    "lng": 151.3408684,
    "place_id": "ChIJj9ZpbEbLcmsRmSbnn4X8MKQ",
    "maps_url": "https://www.google.com/maps/place/?q=place_id:ChIJj9ZpbEbLcmsRmSbnn4X8MKQ"
  },
  {
    "name": "Half Price Furniture - West Gosford",
    "address": "32 Central Coast Hwy, West Gosford NSW 2250, Australia",
    "suburb": "West Gosford NSW 2250",
    "state": "NSW",
    "rating": 4.5,
    "reviews": 48,
    "lat": -33.4277455,
    "lng": 151.3185614,
    "place_id": "ChIJq4mcAKhLDWsR22b-JrtYhl0",
    "maps_url": "https://www.google.com/maps/place/?q=place_id:ChIJq4mcAKhLDWsR22b-JrtYhl0"
  },
  {
    "name": "Amart West Gosford",
    "address": "7A & 7B, Shop 6A/356 Manns Rd, West Gosford NSW 2250, Australia",
    "suburb": "Shop 6A/356 Manns Rd",
    "state": "NSW",
    "rating": 3.8,
    "reviews": 236,
    "lat": -33.4233549,
    "lng": 151.3218412,
    "place_id": "ChIJCSuVuVU1DWsRDDINmt6TDEI",
    "maps_url": "https://www.google.com/maps/place/?q=place_id:ChIJCSuVuVU1DWsRDDINmt6TDEI"
  },
  {
    "name": "Coastal Design Furniture",
    "address": "166 Central Coast Hwy, Erina NSW 2250, Australia",
    "suburb": "Erina NSW 2250",
    "state": "NSW",
    "rating": 4.3,
    "reviews": 17,
    "lat": -33.4374061,
    "lng": 151.3845672,
    "place_id": "ChIJK0SxwnnKcmsRQCOICIQm5Lc",
    "maps_url": "https://www.google.com/maps/place/?q=place_id:ChIJK0SxwnnKcmsRQCOICIQm5Lc"
  },
  {
    "name": "Nik and Jane’s Furniture One - Erina",
    "address": "Shop 11, Karalta Plaza, Karalta Ln, Erina NSW 2250, Australia",
    "suburb": "Karalta Plaza",
    "state": "NSW",
    "rating": 4.1,
    "reviews": 110,
    "lat": -33.4380681,
    "lng": 151.3852016,
    "place_id": "ChIJSQa4enfKcmsRfNWLjyJKnUk",
    "maps_url": "https://www.google.com/maps/place/?q=place_id:ChIJSQa4enfKcmsRfNWLjyJKnUk"
  },
  {
    "name": "OZ Design West Gosford",
    "address": "Riverside Home & More, 6/376 Manns Rd, West Gosford NSW 2250, Australia",
    "suburb": "6/376 Manns Rd",
    "state": "NSW",
    "rating": 3.9,
    "reviews": 78,
    "lat": -33.4245947,
    "lng": 151.3216589,
    "place_id": "ChIJF1RK_VU1DWsRXFqzTI0I2fs",
    "maps_url": "https://www.google.com/maps/place/?q=place_id:ChIJF1RK_VU1DWsRXFqzTI0I2fs"
  },
  {
    "name": "Eureka Furniture Tuggerah",
    "address": "Super Center, Shop 33/17 Bryant Dr, Tuggerah NSW 2259, Australia",
    "suburb": "Shop 33/17 Bryant Dr",
    "state": "NSW",
    "rating": 4.5,
    "reviews": 114,
    "lat": -33.3099475,
    "lng": 151.4210365,
    "place_id": "ChIJgfo6EdXPcmsR4vHI7t1dNJE",
    "maps_url": "https://www.google.com/maps/place/?q=place_id:ChIJgfo6EdXPcmsR4vHI7t1dNJE"
  },
  {
    "name": "Nick Scali Furniture West Gosford",
    "address": "1/392-398 Manns Rd, West Gosford NSW 2250, Australia",
    "suburb": "West Gosford NSW 2250",
    "state": "NSW",
    "rating": 4.6,
    "reviews": 149,
    "lat": -33.4249812,
    "lng": 151.3221802,
    "place_id": "ChIJi5TsAqpKDWsRqltF5_v4JRs",
    "maps_url": "https://www.google.com/maps/place/?q=place_id:ChIJi5TsAqpKDWsRqltF5_v4JRs"
  },
  {
    "name": "Eureka Furniture Gosford",
    "address": "Tenancy 5/392-398 Manns Rd, West Gosford NSW 2250, Australia",
    "suburb": "West Gosford NSW 2250",
    "state": "NSW",
    "rating": 4.5,
    "reviews": 96,
    "lat": -33.4254182,
    "lng": 151.319675,
    "place_id": "ChIJp6VxXS5LDWsRaBdm_pswVj4",
    "maps_url": "https://www.google.com/maps/place/?q=place_id:ChIJp6VxXS5LDWsRaBdm_pswVj4"
  },
  {
    "name": "Nick Scali Furniture Tuggerah Central Coast",
    "address": "HomeCo, Unit T05/11 Bryant Dr, Tuggerah NSW 2259, Australia",
    "suburb": "Unit T05/11 Bryant Dr",
    "state": "NSW",
    "rating": 4.4,
    "reviews": 116,
    "lat": -33.3101381,
    "lng": 151.4242249,
    "place_id": "ChIJoXboRnbOcmsRN03_oZWFwtg",
    "maps_url": "https://www.google.com/maps/place/?q=place_id:ChIJoXboRnbOcmsRN03_oZWFwtg"
  },
  {
    "name": "Freedom - West Gosford",
    "address": "Tenancy T01/392-398 Manns Rd, West Gosford NSW 2250, Australia",
    "suburb": "West Gosford NSW 2250",
    "state": "NSW",
    "rating": 3.8,
    "reviews": 110,
    "lat": -33.42582340000001,
    "lng": 151.32056,
    "place_id": "ChIJs5l7jXPKcmsRc0am8ch2g4Y",
    "maps_url": "https://www.google.com/maps/place/?q=place_id:ChIJs5l7jXPKcmsRc0am8ch2g4Y"
  },
  {
    "name": "OneWorld Collection West Gosford",
    "address": "Shop T08A - Riverside Park, 392-398 Manns Rd, West Gosford NSW 2250, Australia",
    "suburb": "392-398 Manns Rd",
    "state": "NSW",
    "rating": 5,
    "reviews": 27,
    "lat": -33.4256848,
    "lng": 151.3207621,
    "place_id": "ChIJI4NbkU1LDWsRKfT8vnkujfs",
    "maps_url": "https://www.google.com/maps/place/?q=place_id:ChIJI4NbkU1LDWsRKfT8vnkujfs"
  },
  {
    "name": "Interiorwise",
    "address": "61b Webb St, East Gosford NSW 2250, Australia",
    "suburb": "East Gosford NSW 2250",
    "state": "NSW",
    "rating": 4.9,
    "reviews": 106,
    "lat": -33.4361909,
    "lng": 151.349181,
    "place_id": "ChIJWTtWPF61cmsRXE2wz6cms0s",
    "maps_url": "https://www.google.com/maps/place/?q=place_id:ChIJWTtWPF61cmsRXE2wz6cms0s"
  },
  {
    "name": "Early Settler Furniture Store West Gosford",
    "address": "8/378 Manns Rd, West Gosford NSW 2250, Australia",
    "suburb": "West Gosford NSW 2250",
    "state": "NSW",
    "rating": 4.1,
    "reviews": 58,
    "lat": -33.4245221,
    "lng": 151.3203283,
    "place_id": "ChIJcXLI5KlKDWsRPAK-pUNL1pU",
    "maps_url": "https://www.google.com/maps/place/?q=place_id:ChIJcXLI5KlKDWsRPAK-pUNL1pU"
  },
  {
    "name": "James Lane Tuggerah",
    "address": "shop 8/2 Bryant Dr, Tuggerah NSW 2259, Australia",
    "suburb": "Tuggerah NSW 2259",
    "state": "NSW",
    "rating": 4.2,
    "reviews": 20,
    "lat": -33.309519,
    "lng": 151.421114,
    "place_id": "ChIJE9tcjXXOcmsRrnwj61SGAEQ",
    "maps_url": "https://www.google.com/maps/place/?q=place_id:ChIJE9tcjXXOcmsRrnwj61SGAEQ"
  },
  {
    "name": "HomeCo. Tuggerah",
    "address": "Bryant Drive & Wyong Road, Tuggerah NSW 2259, Australia",
    "suburb": "Tuggerah NSW 2259",
    "state": "NSW",
    "rating": 4.2,
    "reviews": 2105,
    "lat": -33.3095544,
    "lng": 151.4211499,
    "place_id": "ChIJkUeL6nXOcmsRjEXMcZ3KgKQ",
    "maps_url": "https://www.google.com/maps/place/?q=place_id:ChIJkUeL6nXOcmsRjEXMcZ3KgKQ"
  },
  {
    "name": "Domayne West Gosford",
    "address": "400 Manns Rd, West Gosford NSW 2250, Australia",
    "suburb": "West Gosford NSW 2250",
    "state": "NSW",
    "rating": 3.9,
    "reviews": 269,
    "lat": -33.4265847,
    "lng": 151.3195426,
    "place_id": "ChIJaSJI8abKcmsRGG70jzs4IvY",
    "maps_url": "https://www.google.com/maps/place/?q=place_id:ChIJaSJI8abKcmsRGG70jzs4IvY"
  },
  {
    "name": "Supreme Furniture",
    "address": "Shop 7A/392-398 Manns Rd, West Gosford NSW 2250, Australia",
    "suburb": "West Gosford NSW 2250",
    "state": "NSW",
    "rating": 4.7,
    "reviews": 36,
    "lat": -33.4255918,
    "lng": 151.3207224,
    "place_id": "ChIJpwLRNchLDWsRFGOLPllB8JA",
    "maps_url": "https://www.google.com/maps/place/?q=place_id:ChIJpwLRNchLDWsRFGOLPllB8JA"
  },
  {
    "name": "Fantastic Furniture",
    "address": "Tuggerah Super Centre Corner Bryant Drive &, Wyong Rd, Tuggerah NSW 2259, Australia",
    "suburb": "Wyong Rd",
    "state": "NSW",
    "rating": 3.8,
    "reviews": 287,
    "lat": -33.3099272,
    "lng": 151.4209537,
    "place_id": "ChIJT06GM3_OcmsRhjPkOd4qxII",
    "maps_url": "https://www.google.com/maps/place/?q=place_id:ChIJT06GM3_OcmsRhjPkOd4qxII"
  },
  {
    "name": "Bay Gallery Furniture Penrith",
    "address": "Unit 3B/233 Mulgoa Rd, Jamisontown NSW 2750, Australia",
    "suburb": "Jamisontown NSW 2750",
    "state": "NSW",
    "rating": 5,
    "reviews": 272,
    "lat": -33.7669229,
    "lng": 150.6775971,
    "place_id": "ChIJm6pesumFEmsRf7opljgH_i8",
    "maps_url": "https://www.google.com/maps/place/?q=place_id:ChIJm6pesumFEmsRf7opljgH_i8"
  },
  {
    "name": "Home Furniture OUTLET",
    "address": "61-79 Henry St Shop 2B, Penrith NSW 2750, Australia",
    "suburb": "Penrith NSW 2750",
    "state": "NSW",
    "rating": 4.9,
    "reviews": 299,
    "lat": -33.7528595,
    "lng": 150.7006691,
    "place_id": "ChIJF_ByzzeFEmsRtwTB--JDV-0",
    "maps_url": "https://www.google.com/maps/place/?q=place_id:ChIJF_ByzzeFEmsRtwTB--JDV-0"
  },
  {
    "name": "1825 Interiors - Furniture Store Penrith",
    "address": "88 Mulgoa Rd, Penrith NSW 2750, Australia",
    "suburb": "Penrith NSW 2750",
    "state": "NSW",
    "rating": 4.7,
    "reviews": 64,
    "lat": -33.7662124,
    "lng": 150.6808319,
    "place_id": "ChIJ-0lBK0yPEmsR-QJ7eqi25wI",
    "maps_url": "https://www.google.com/maps/place/?q=place_id:ChIJ-0lBK0yPEmsR-QJ7eqi25wI"
  },
  {
    "name": "Penrith Homemaker",
    "address": "Wolseley St, Jamisontown NSW 2749, Australia",
    "suburb": "Jamisontown NSW 2749",
    "state": "NSW",
    "rating": 4.3,
    "reviews": 2912,
    "lat": -33.76988170000001,
    "lng": 150.6708825,
    "place_id": "ChIJJ4VvxrWIEmsRiuFDLqM4hoc",
    "maps_url": "https://www.google.com/maps/place/?q=place_id:ChIJJ4VvxrWIEmsRiuFDLqM4hoc"
  },
  {
    "name": "Clearance Furniture Warehouse",
    "address": "70 Mulgoa Rd, Jamisontown NSW 2750, Australia",
    "suburb": "Jamisontown NSW 2750",
    "state": "NSW",
    "rating": 4.7,
    "reviews": 37,
    "lat": -33.7635507,
    "lng": 150.6830422,
    "place_id": "ChIJccPnhL2PEmsRudqbBkcFVZw",
    "maps_url": "https://www.google.com/maps/place/?q=place_id:ChIJccPnhL2PEmsRudqbBkcFVZw"
  },
  {
    "name": "OZ Design Penrith",
    "address": "Shop 220, Penrith Homemaker Centre, Cnr Mulgoa Road &, Wolseley St, Jamisontown NSW 2750, Australia",
    "suburb": "Penrith Homemaker Centre",
    "state": "NSW",
    "rating": 4.1,
    "reviews": 33,
    "lat": -33.7696857,
    "lng": 150.6707133,
    "place_id": "ChIJ3Qiwx7WIEmsRzj-6CDXkP4Q",
    "maps_url": "https://www.google.com/maps/place/?q=place_id:ChIJ3Qiwx7WIEmsRzj-6CDXkP4Q"
  },
  {
    "name": "James Lane Penrith",
    "address": "82, shop 2a/72 Mulgoa Rd, Penrith NSW 2750, Australia",
    "suburb": "shop 2a/72 Mulgoa Rd",
    "state": "NSW",
    "rating": 4.7,
    "reviews": 76,
    "lat": -33.76362659999999,
    "lng": 150.6823651,
    "place_id": "ChIJSXtAlXqPEmsRbiTic84YNcM",
    "maps_url": "https://www.google.com/maps/place/?q=place_id:ChIJSXtAlXqPEmsRbiTic84YNcM"
  },
  {
    "name": "Amart Penrith",
    "address": "241 Mulgoa Rd, Penrith NSW 2750, Australia",
    "suburb": "Penrith NSW 2750",
    "state": "NSW",
    "rating": 3.6,
    "reviews": 381,
    "lat": -33.7678651,
    "lng": 150.6768459,
    "place_id": "ChIJayIhW0uPEmsRNXXKzuCTDsQ",
    "maps_url": "https://www.google.com/maps/place/?q=place_id:ChIJayIhW0uPEmsRNXXKzuCTDsQ"
  },
  {
    "name": "Freedom - Penrith",
    "address": "Tenancy 1/82 Mulgoa Rd, Jamisontown NSW 2750, Australia",
    "suburb": "Jamisontown NSW 2750",
    "state": "NSW",
    "rating": 3.7,
    "reviews": 114,
    "lat": -33.7650527,
    "lng": 150.6815185,
    "place_id": "ChIJOXbk5n6PEmsRMXQoQV84cYk",
    "maps_url": "https://www.google.com/maps/place/?q=place_id:ChIJOXbk5n6PEmsRMXQoQV84cYk"
  },
  {
    "name": "The Furniture Factory Outlet Penrith",
    "address": "72 Mulgoa Rd, Jamisontown NSW 2750, Australia",
    "suburb": "Jamisontown NSW 2750",
    "state": "NSW",
    "rating": 4.7,
    "reviews": 9,
    "lat": -33.7644454,
    "lng": 150.6825137,
    "place_id": "ChIJL1kSAeuPEmsRntLJTabzeEA",
    "maps_url": "https://www.google.com/maps/place/?q=place_id:ChIJL1kSAeuPEmsRntLJTabzeEA"
  },
  {
    "name": "Ab Fab Furniture ( Office & warehouse )",
    "address": "40 Cassola Pl, Penrith NSW 2750, Australia",
    "suburb": "Penrith NSW 2750",
    "state": "NSW",
    "rating": 4.6,
    "reviews": 46,
    "lat": -33.7355231,
    "lng": 150.6883843,
    "place_id": "ChIJ2-oH2cCFEmsRl2QebiWDuZo",
    "maps_url": "https://www.google.com/maps/place/?q=place_id:ChIJ2-oH2cCFEmsRl2QebiWDuZo"
  },
  {
    "name": "James Lane Penrith Clearance",
    "address": "Shop 2/138 Blaikie Rd, Jamisontown NSW 2750, Australia",
    "suburb": "Jamisontown NSW 2750",
    "state": "NSW",
    "rating": 4.2,
    "reviews": 20,
    "lat": -33.7681,
    "lng": 150.675091,
    "place_id": "ChIJAwXKVkuPEmsRHrT01wdb5-o",
    "maps_url": "https://www.google.com/maps/place/?q=place_id:ChIJAwXKVkuPEmsRHrT01wdb5-o"
  },
  {
    "name": "Provincial Home Living - Penrith",
    "address": "Penrith Homemaker Centre Cnr Mulgoa Rd &, Wolseley St, Jamisontown NSW 2750, Australia",
    "suburb": "Wolseley St",
    "state": "NSW",
    "rating": 4.6,
    "reviews": 24,
    "lat": -33.7689215,
    "lng": 150.670939,
    "place_id": "ChIJIbl8lbWIEmsRaM8A36hvHFE",
    "maps_url": "https://www.google.com/maps/place/?q=place_id:ChIJIbl8lbWIEmsRaM8A36hvHFE"
  },
  {
    "name": "Domayne Penrith",
    "address": "Penrith Homemaker Centre, Mulgoa Rd, Jamisontown NSW 2750, Australia",
    "suburb": "Mulgoa Rd",
    "state": "NSW",
    "rating": 3.8,
    "reviews": 172,
    "lat": -33.7712874,
    "lng": 150.6719176,
    "place_id": "ChIJS4qLQLWIEmsRjyIXe_EN-w4",
    "maps_url": "https://www.google.com/maps/place/?q=place_id:ChIJS4qLQLWIEmsRjyIXe_EN-w4"
  },
  {
    "name": "HomeCo. Penrith",
    "address": "72/82 Mulgoa Rd, Penrith NSW 2750, Australia",
    "suburb": "Penrith NSW 2750",
    "state": "NSW",
    "rating": 4.3,
    "reviews": 285,
    "lat": -33.765022,
    "lng": 150.6815422,
    "place_id": "ChIJv6ai31GPEmsRFGnn36rXWc4",
    "maps_url": "https://www.google.com/maps/place/?q=place_id:ChIJv6ai31GPEmsRFGnn36rXWc4"
  },
  {
    "name": "Nick Scali Furniture Penrith Sydney",
    "address": "Shop T3/82 Mulgoa Rd, Penrith NSW 2750, Australia",
    "suburb": "Penrith NSW 2750",
    "state": "NSW",
    "rating": 4.2,
    "reviews": 145,
    "lat": -33.7641526,
    "lng": 150.6826668,
    "place_id": "ChIJsbUqCrWIEmsR3Y0gKj8w06s",
    "maps_url": "https://www.google.com/maps/place/?q=place_id:ChIJsbUqCrWIEmsR3Y0gKj8w06s"
  },
  {
    "name": "Sleeping Giant Penrith Clearance",
    "address": "138 Blaikie Rd, Penrith NSW 2750, Australia",
    "suburb": "Penrith NSW 2750",
    "state": "NSW",
    "rating": 4,
    "reviews": 15,
    "lat": -33.7678317,
    "lng": 150.6751289,
    "place_id": "ChIJu27OtbSIEmsRvhfoOst7IQk",
    "maps_url": "https://www.google.com/maps/place/?q=place_id:ChIJu27OtbSIEmsRvhfoOst7IQk"
  },
  {
    "name": "Alpine Bay Furniture",
    "address": "Unit 4/16 Hickeys Rd, Penrith NSW 2750, Australia",
    "suburb": "Penrith NSW 2750",
    "state": "NSW",
    "rating": 5,
    "reviews": 10,
    "lat": -33.7416206,
    "lng": 150.7050416,
    "place_id": "ChIJTd5WBJSFEmsRDsW5tabL8Dg",
    "maps_url": "https://www.google.com/maps/place/?q=place_id:ChIJTd5WBJSFEmsRDsW5tabL8Dg"
  },
  {
    "name": "OZ Furniture Store Blacktown",
    "address": "Unit 20-22, Building/47 Third Ave, Blacktown NSW 2148, Australia",
    "suburb": "Building/47 Third Ave",
    "state": "NSW",
    "rating": 3.7,
    "reviews": 175,
    "lat": -33.7648254,
    "lng": 150.9073031,
    "place_id": "ChIJy2nEXh6ZEmsRhGUZW-QDUk8",
    "maps_url": "https://www.google.com/maps/place/?q=place_id:ChIJy2nEXh6ZEmsRhGUZW-QDUk8"
  },
  {
    "name": "Harvey Norman Blacktown",
    "address": "Unit C5 Bungarribee Rd, Blacktown NSW 2148, Australia",
    "suburb": "Blacktown NSW 2148",
    "state": "NSW",
    "rating": 3.5,
    "reviews": 959,
    "lat": -33.78029739999999,
    "lng": 150.9185946,
    "place_id": "ChIJ8U8ijFCYEmsRjmdf7Mexl40",
    "maps_url": "https://www.google.com/maps/place/?q=place_id:ChIJ8U8ijFCYEmsRjmdf7Mexl40"
  },
  {
    "name": "Amart Prospect",
    "address": "1 Rowood Rd, Prospect NSW 2148, Australia",
    "suburb": "Prospect NSW 2148",
    "state": "NSW",
    "rating": 3.7,
    "reviews": 570,
    "lat": -33.8012308,
    "lng": 150.9269162,
    "place_id": "ChIJg7iRJjyYEmsR0hdFGu5932c",
    "maps_url": "https://www.google.com/maps/place/?q=place_id:ChIJg7iRJjyYEmsR0hdFGu5932c"
  },
  {
    "name": "Fantastic Furniture",
    "address": "Homemaker Prospect, 19 Stoddart Rd, Prospect NSW 2148, Australia",
    "suburb": "19 Stoddart Rd",
    "state": "NSW",
    "rating": 3.9,
    "reviews": 516,
    "lat": -33.8002654,
    "lng": 150.9188797,
    "place_id": "ChIJz5cAnjCYEmsRlieJRuvKgIE",
    "maps_url": "https://www.google.com/maps/place/?q=place_id:ChIJz5cAnjCYEmsRlieJRuvKgIE"
  },
  {
    "name": "Homemaker Prospect",
    "address": "19 Stoddart Rd, Prospect NSW 2148, Australia",
    "suburb": "Prospect NSW 2148",
    "state": "NSW",
    "rating": 4.1,
    "reviews": 1142,
    "lat": -33.8013896,
    "lng": 150.919463,
    "place_id": "ChIJCVLynTCYEmsRQCnz-Wh9AQ8",
    "maps_url": "https://www.google.com/maps/place/?q=place_id:ChIJCVLynTCYEmsRQCnz-Wh9AQ8"
  },
  {
    "name": "Focus on Furniture - Prospect",
    "address": "19 Stoddart Rd, Prospect NSW 2148, Australia",
    "suburb": "Prospect NSW 2148",
    "state": "NSW",
    "rating": 4.1,
    "reviews": 47,
    "lat": -33.8020559,
    "lng": 150.9183605,
    "place_id": "ChIJp5dhloKZEmsRoJxtRWjWLcY",
    "maps_url": "https://www.google.com/maps/place/?q=place_id:ChIJp5dhloKZEmsRoJxtRWjWLcY"
  },
  {
    "name": "Supreme Furniture",
    "address": "shop 19/19 Stoddart Rd, Prospect NSW 2148, Australia",
    "suburb": "Prospect NSW 2148",
    "state": "NSW",
    "rating": 3,
    "reviews": 93,
    "lat": -33.8019749,
    "lng": 150.919622,
    "place_id": "ChIJF1-hezqYEmsRfYDRV0GgVg8",
    "maps_url": "https://www.google.com/maps/place/?q=place_id:ChIJF1-hezqYEmsRfYDRV0GgVg8"
  },
  {
    "name": "Freedom Furniture Warehouse - Kings Park NSW",
    "address": "2/4 Harvey Rd, Kings Park NSW 2148, Australia",
    "suburb": "Kings Park NSW 2148",
    "state": "NSW",
    "rating": 4.8,
    "reviews": 33,
    "lat": -33.7493163,
    "lng": 150.9017385,
    "place_id": "ChIJkaGUx26ZEmsRo_PPcNQszH4",
    "maps_url": "https://www.google.com/maps/place/?q=place_id:ChIJkaGUx26ZEmsRo_PPcNQszH4"
  },
  {
    "name": "OZ Design Sydney Clearance Outlet",
    "address": "Unit 18/20 Mile End Rd, Rouse Hill NSW 2155, Australia",
    "suburb": "Rouse Hill NSW 2155",
    "state": "NSW",
    "rating": 4.5,
    "reviews": 106,
    "lat": -33.6693757,
    "lng": 150.9270432,
    "place_id": "ChIJNXwwjPafEmsRiGABZVa0eV0",
    "maps_url": "https://www.google.com/maps/place/?q=place_id:ChIJNXwwjPafEmsRiGABZVa0eV0"
  },
  {
    "name": "Kmart Blacktown",
    "address": "28 Patrick St, Blacktown NSW 2148, Australia",
    "suburb": "Blacktown NSW 2148",
    "state": "NSW",
    "rating": 4.1,
    "reviews": 5925,
    "lat": -33.7725022,
    "lng": 150.9063131,
    "place_id": "ChIJFzaLvKqZEmsR6msgh_nIYX0",
    "maps_url": "https://www.google.com/maps/place/?q=place_id:ChIJFzaLvKqZEmsR6msgh_nIYX0"
  },
  {
    "name": "SHOPOOLY",
    "address": "3/23 Rowood Rd, Prospect NSW 2148, Australia",
    "suburb": "Prospect NSW 2148",
    "state": "NSW",
    "rating": 4.5,
    "reviews": 28,
    "lat": -33.8030426,
    "lng": 150.9218857,
    "place_id": "ChIJq6p6IuKYEmsR1DGTHV2I12g",
    "maps_url": "https://www.google.com/maps/place/?q=place_id:ChIJq6p6IuKYEmsR1DGTHV2I12g"
  },
  {
    "name": "Baxii Sofa",
    "address": "36 Bessemer St, Blacktown NSW 2148, Australia",
    "suburb": "Blacktown NSW 2148",
    "state": "NSW",
    "rating": 5,
    "reviews": 6,
    "lat": -33.7533824,
    "lng": 150.9071463,
    "place_id": "ChIJC3PNb5CZEmsRYa5_n5OnVWw",
    "maps_url": "https://www.google.com/maps/place/?q=place_id:ChIJC3PNb5CZEmsRYa5_n5OnVWw"
  },
  {
    "name": "Plush Prospect",
    "address": "Homemaker Prospect, Shop 1C/19 Stoddart Rd, Prospect NSW 2148, Australia",
    "suburb": "Shop 1C/19 Stoddart Rd",
    "state": "NSW",
    "rating": 4,
    "reviews": 127,
    "lat": -33.8010802,
    "lng": 150.9199623,
    "place_id": "ChIJz5cAnjCYEmsRuamgtXZM3Yc",
    "maps_url": "https://www.google.com/maps/place/?q=place_id:ChIJz5cAnjCYEmsRuamgtXZM3Yc"
  },
  {
    "name": "Classic Homeware & Gifts Blacktown | Kitchenware, Crockery & Decor",
    "address": "Shop/61B Main St, Blacktown NSW 2148, Australia",
    "suburb": "Blacktown NSW 2148",
    "state": "NSW",
    "rating": 4.2,
    "reviews": 29,
    "lat": -33.7697332,
    "lng": 150.9090326,
    "place_id": "ChIJN3YVuP-YEmsRLHXOmiS_wjw",
    "maps_url": "https://www.google.com/maps/place/?q=place_id:ChIJN3YVuP-YEmsRLHXOmiS_wjw"
  },
  {
    "name": "Nick Scali Furniture Prospect Sydney",
    "address": "Unit 30 & 31/19 Stoddart Rd, Prospect NSW 2148, Australia",
    "suburb": "Prospect NSW 2148",
    "state": "NSW",
    "rating": 4.2,
    "reviews": 174,
    "lat": -33.8003357,
    "lng": 150.9197025,
    "place_id": "ChIJC7LmPuyxEmsRZ9h4cEVElVQ",
    "maps_url": "https://www.google.com/maps/place/?q=place_id:ChIJC7LmPuyxEmsRZ9h4cEVElVQ"
  },
  {
    "name": "Living Design Furniture",
    "address": "19 Stoddart Rd, Prospect NSW 2148, Australia",
    "suburb": "Prospect NSW 2148",
    "state": "NSW",
    "rating": 3.4,
    "reviews": 17,
    "lat": -33.8022262,
    "lng": 150.9191938,
    "place_id": "ChIJA2zCfzqYEmsRes2GZbM0VSg",
    "maps_url": "https://www.google.com/maps/place/?q=place_id:ChIJA2zCfzqYEmsRes2GZbM0VSg"
  },
  {
    "name": "Fantastic Furniture",
    "address": "Hills Homemaker Centre, 6 Victoria Ave, Castle Hill NSW 2154, Australia",
    "suburb": "6 Victoria Ave",
    "state": "NSW",
    "rating": 3.8,
    "reviews": 258,
    "lat": -33.7318062,
    "lng": 150.979173,
    "place_id": "ChIJpUEYlZShEmsRIHb39vV7Pvk",
    "maps_url": "https://www.google.com/maps/place/?q=place_id:ChIJpUEYlZShEmsRIHb39vV7Pvk"
  },
  {
    "name": "Blacktown Mega Centre",
    "address": "14 St Martins Cres, Blacktown NSW 2148, Australia",
    "suburb": "Blacktown NSW 2148",
    "state": "NSW",
    "rating": 4.1,
    "reviews": 2770,
    "lat": -33.7812024,
    "lng": 150.9189913,
    "place_id": "ChIJ2TDHe1qYEmsR0I1VSbQ1JNY",
    "maps_url": "https://www.google.com/maps/place/?q=place_id:ChIJ2TDHe1qYEmsR0I1VSbQ1JNY"
  },
  {
    "name": "BIG W Blacktown",
    "address": "17 Patrick St, Blacktown NSW 2148, Australia",
    "suburb": "Blacktown NSW 2148",
    "state": "NSW",
    "rating": 4.1,
    "reviews": 1691,
    "lat": -33.7702595,
    "lng": 150.9073071,
    "place_id": "ChIJS8mwHQCZEmsRr8qAyP_gMpk",
    "maps_url": "https://www.google.com/maps/place/?q=place_id:ChIJS8mwHQCZEmsRr8qAyP_gMpk"
  },
  {
    "name": "Home Harbor Liverpool",
    "address": "shop 16-18/18 Orange Grove Rd, Liverpool NSW 2170, Australia",
    "suburb": "Liverpool NSW 2170",
    "state": "NSW",
    "rating": 4.9,
    "reviews": 111,
    "lat": -33.9076,
    "lng": 150.9199199,
    "place_id": "ChIJk8SM0iiVEmsRc09g5fZltkc",
    "maps_url": "https://www.google.com/maps/place/?q=place_id:ChIJk8SM0iiVEmsRc09g5fZltkc"
  },
  {
    "name": "Lj Bedding and Furniture",
    "address": "255-257 George St, Liverpool NSW 2170, Australia",
    "suburb": "Liverpool NSW 2170",
    "state": "NSW",
    "rating": 4.9,
    "reviews": 134,
    "lat": -33.9243374,
    "lng": 150.9244361,
    "place_id": "ChIJdc6F_LuVEmsRLMcxSck1xUs",
    "maps_url": "https://www.google.com/maps/place/?q=place_id:ChIJdc6F_LuVEmsRLMcxSck1xUs"
  },
  {
    "name": "James Lane Liverpool",
    "address": "The Grove Homemaker Centre, Shops 3 - 5 2/18 Orange Grove Rd, Liverpool NSW 2170, Australia",
    "suburb": "Shops 3 - 5 2/18 Orange Grove Rd",
    "state": "NSW",
    "rating": 4.2,
    "reviews": 41,
    "lat": -33.9075901,
    "lng": 150.9199196,
    "place_id": "ChIJzSLD-9qVEmsR6plGaEDkjWc",
    "maps_url": "https://www.google.com/maps/place/?q=place_id:ChIJzSLD-9qVEmsR6plGaEDkjWc"
  },
  {
    "name": "OZ Furniture Store Liverpool",
    "address": "Shop 25, 2/18 Orange Grove Rd, Liverpool NSW 2170, Australia",
    "suburb": "2/18 Orange Grove Rd",
    "state": "NSW",
    "rating": 3.7,
    "reviews": 83,
    "lat": -33.9065001,
    "lng": 150.9203063,
    "place_id": "ChIJ2ZJEEJiVEmsR3mMxTF75ne4",
    "maps_url": "https://www.google.com/maps/place/?q=place_id:ChIJ2ZJEEJiVEmsR3mMxTF75ne4"
  },
  {
    "name": "Supreme Furniture",
    "address": "Shop 27 18/2-12 Orange Grove Rd, Liverpool NSW 2170, Australia",
    "suburb": "Liverpool NSW 2170",
    "state": "NSW",
    "rating": 4.4,
    "reviews": 227,
    "lat": -33.90656999999999,
    "lng": 150.9202974,
    "place_id": "ChIJiSs2uNqVEmsRPI-aA1Muc7U",
    "maps_url": "https://www.google.com/maps/place/?q=place_id:ChIJiSs2uNqVEmsRPI-aA1Muc7U"
  },
  {
    "name": "The Grove Homemaker Centre",
    "address": "Shop R19/18 Orange Grove Rd, Liverpool NSW 2170, Australia",
    "suburb": "Liverpool NSW 2170",
    "state": "NSW",
    "rating": 4.1,
    "reviews": 2097,
    "lat": -33.9065734,
    "lng": 150.9204442,
    "place_id": "ChIJi_gSxNqVEmsR4C3z-Wh9AQ8",
    "maps_url": "https://www.google.com/maps/place/?q=place_id:ChIJi_gSxNqVEmsR4C3z-Wh9AQ8"
  },
  {
    "name": "Harvey Norman Liverpool",
    "address": "Mega Centre, Shop R19/18 Orange Grove Rd, Liverpool NSW 2170, Australia",
    "suburb": "Shop R19/18 Orange Grove Rd",
    "state": "NSW",
    "rating": 3.8,
    "reviews": 1471,
    "lat": -33.9063548,
    "lng": 150.9192758,
    "place_id": "ChIJXWLWq9qVEmsRTryS0CGLx2E",
    "maps_url": "https://www.google.com/maps/place/?q=place_id:ChIJXWLWq9qVEmsRTryS0CGLx2E"
  },
  {
    "name": "Eureka Furniture Liverpool",
    "address": "The Grove Homemaker Centre, 28/2 Orange Grove Rd, Liverpool NSW 2170, Australia",
    "suburb": "28/2 Orange Grove Rd",
    "state": "NSW",
    "rating": 4.5,
    "reviews": 34,
    "lat": -33.905708,
    "lng": 150.9213629,
    "place_id": "ChIJY9bm2xmVEmsRyVnPm9rjKoE",
    "maps_url": "https://www.google.com/maps/place/?q=place_id:ChIJY9bm2xmVEmsRyVnPm9rjKoE"
  },
  {
    "name": "Domayne Liverpool",
    "address": "Shop R19/18 Orange Grove Rd, Liverpool NSW 2170, Australia",
    "suburb": "Liverpool NSW 2170",
    "state": "NSW",
    "rating": 4,
    "reviews": 181,
    "lat": -33.9065001,
    "lng": 150.9203063,
    "place_id": "ChIJqbnSSsWVEmsR_1fLHursRiI",
    "maps_url": "https://www.google.com/maps/place/?q=place_id:ChIJqbnSSsWVEmsR_1fLHursRiI"
  },
  {
    "name": "Supreme Furniture Clearance Centre",
    "address": "Shop 20-21, 2/18 Orange Grove Rd, Liverpool NSW 2170, Australia",
    "suburb": "2/18 Orange Grove Rd",
    "state": "NSW",
    "rating": 4.8,
    "reviews": 38,
    "lat": -33.9075901,
    "lng": 150.9199196,
    "place_id": "ChIJP5dCadCVEmsRMjyiIT0_f6c",
    "maps_url": "https://www.google.com/maps/place/?q=place_id:ChIJP5dCadCVEmsRMjyiIT0_f6c"
  },
  {
    "name": "Warwick Furniture Warehouse",
    "address": "31 Sappho Rd, Warwick Farm NSW 2170, Australia",
    "suburb": "Warwick Farm NSW 2170",
    "state": "NSW",
    "rating": 3.8,
    "reviews": 15,
    "lat": -33.908473,
    "lng": 150.9389681,
    "place_id": "ChIJX3SDUeSVEmsRwJh---ZKP9w",
    "maps_url": "https://www.google.com/maps/place/?q=place_id:ChIJX3SDUeSVEmsRwJh---ZKP9w"
  },
  {
    "name": "Amart Casula",
    "address": "23/25 Parkers Farm Pl, Casula NSW 2170, Australia",
    "suburb": "Casula NSW 2170",
    "state": "NSW",
    "rating": 3.5,
    "reviews": 340,
    "lat": -33.9608625,
    "lng": 150.8820218,
    "place_id": "ChIJBfZCureUEmsRlKAJqZjyb9w",
    "maps_url": "https://www.google.com/maps/place/?q=place_id:ChIJBfZCureUEmsRlKAJqZjyb9w"
  },
  {
    "name": "Rococo Decor - French Inspired Furniture",
    "address": "Casula NSW 2170, Australia",
    "suburb": "Australia",
    "state": "NSW",
    "rating": 4.9,
    "reviews": 32,
    "lat": -33.9503864,
    "lng": 150.9044946,
    "place_id": "ChIJ78Zb5m-5EmsR5zZ_R_tKbM0",
    "maps_url": "https://www.google.com/maps/place/?q=place_id:ChIJ78Zb5m-5EmsR5zZ_R_tKbM0"
  },
  {
    "name": "Sleeping Giant Liverpool",
    "address": "The Grove Homemaker Centre, Shop 5 2/18 Orange Grove Rd, Liverpool NSW 2170, Australia",
    "suburb": "Shop 5 2/18 Orange Grove Rd",
    "state": "NSW",
    "rating": 4.4,
    "reviews": 76,
    "lat": -33.90759,
    "lng": 150.9199396,
    "place_id": "ChIJMQVI8c-VEmsR7rd2YomctTw",
    "maps_url": "https://www.google.com/maps/place/?q=place_id:ChIJMQVI8c-VEmsR7rd2YomctTw"
  },
  {
    "name": "Monaliza Luxury Living",
    "address": "Shop R19/18 Orange Grove Rd, Liverpool NSW 2170, Australia",
    "suburb": "Liverpool NSW 2170",
    "state": "NSW",
    "rating": 4.8,
    "reviews": 254,
    "lat": -33.9072362,
    "lng": 150.920825,
    "place_id": "ChIJdwZt89OjEmsRFq02dNPiNps",
    "maps_url": "https://www.google.com/maps/place/?q=place_id:ChIJdwZt89OjEmsRFq02dNPiNps"
  },
  {
    "name": "Sydney Outlet Village [formerly Fashion Spree]",
    "address": "5 Viscount Pl, Warwick Farm NSW 2170, Australia",
    "suburb": "Warwick Farm NSW 2170",
    "state": "NSW",
    "rating": 4.2,
    "reviews": 3708,
    "lat": -33.9079106,
    "lng": 150.9220323,
    "place_id": "ChIJ99xSKMWVEmsRrBRQ1KNAEo0",
    "maps_url": "https://www.google.com/maps/place/?q=place_id:ChIJ99xSKMWVEmsRrBRQ1KNAEo0"
  },
  {
    "name": "Fantastic Furniture",
    "address": "Hometown, 1/3 Sappho Rd, Warwick Farm NSW 2170, Australia",
    "suburb": "1/3 Sappho Rd",
    "state": "NSW",
    "rating": 3.7,
    "reviews": 247,
    "lat": -33.9088751,
    "lng": 150.9399799,
    "place_id": "ChIJh4imbuSVEmsRGCNILU31wrY",
    "maps_url": "https://www.google.com/maps/place/?q=place_id:ChIJh4imbuSVEmsRGCNILU31wrY"
  },
  {
    "name": "Design Choice - Factory Clearance Outlet",
    "address": "17/53-55 Gov Macquarie Dr, Chipping Norton NSW 2170, Australia",
    "suburb": "Chipping Norton NSW 2170",
    "state": "NSW",
    "rating": 4.9,
    "reviews": 50,
    "lat": -33.9220467,
    "lng": 150.9628193,
    "place_id": "ChIJeTBgMg27EmsRmIOfy8vZjZQ",
    "maps_url": "https://www.google.com/maps/place/?q=place_id:ChIJeTBgMg27EmsRmIOfy8vZjZQ"
  },
  {
    "name": "Modern Perfect Furniture",
    "address": "5 Orange Grove Rd, Warwick Farm NSW 2170, Australia",
    "suburb": "Warwick Farm NSW 2170",
    "state": "NSW",
    "rating": 4.6,
    "reviews": 17,
    "lat": -33.9061835,
    "lng": 150.9209037,
    "place_id": "ChIJ6333wdqVEmsR2uEj0tSBnXg",
    "maps_url": "https://www.google.com/maps/place/?q=place_id:ChIJ6333wdqVEmsR2uEj0tSBnXg"
  },
  {
    "name": "Westfield Liverpool",
    "address": "Macquarie St, Liverpool NSW 2170, Australia",
    "suburb": "Liverpool NSW 2170",
    "state": "NSW",
    "rating": 4.2,
    "reviews": 11802,
    "lat": -33.9180354,
    "lng": 150.9242222,
    "place_id": "ChIJD21XvriVEmsRuplosG1AHNY",
    "maps_url": "https://www.google.com/maps/place/?q=place_id:ChIJD21XvriVEmsRuplosG1AHNY"
  },
  {
    "name": "1825 Interiors - Furniture Store Campbelltown",
    "address": "8 Blaxland Rd, Campbelltown NSW 2560, Australia",
    "suburb": "Campbelltown NSW 2560",
    "state": "NSW",
    "rating": 4.5,
    "reviews": 59,
    "lat": -34.0547421,
    "lng": 150.8215976,
    "place_id": "ChIJB7gicMXvEmsReWh8lDcyU5A",
    "maps_url": "https://www.google.com/maps/place/?q=place_id:ChIJB7gicMXvEmsReWh8lDcyU5A"
  },
  {
    "name": "Amart Campbelltown",
    "address": "3/7 Blaxland Rd, Campbelltown NSW 2560, Australia",
    "suburb": "Campbelltown NSW 2560",
    "state": "NSW",
    "rating": 3.8,
    "reviews": 382,
    "lat": -34.0562791,
    "lng": 150.8176234,
    "place_id": "ChIJwbp5_PTuEmsRNYDqqyRmxP4",
    "maps_url": "https://www.google.com/maps/place/?q=place_id:ChIJwbp5_PTuEmsRNYDqqyRmxP4"
  },
  {
    "name": "Harbour Lane Clearance Centre Campbelltown",
    "address": "10B/17 Blaxland Serviceway, Campbelltown NSW 2560, Australia",
    "suburb": "Campbelltown NSW 2560",
    "state": "NSW",
    "rating": 4.2,
    "reviews": 55,
    "lat": -34.0540061,
    "lng": 150.8208864,
    "place_id": "ChIJKTeAW6HvEmsR-wH1Av0icaQ",
    "maps_url": "https://www.google.com/maps/place/?q=place_id:ChIJKTeAW6HvEmsR-wH1Av0icaQ"
  },
  {
    "name": "James Lane Campbelltown",
    "address": "1/17 Blaxland Serviceway, Campbelltown NSW 2560, Australia",
    "suburb": "Campbelltown NSW 2560",
    "state": "NSW",
    "rating": 4.5,
    "reviews": 76,
    "lat": -34.0550871,
    "lng": 150.8190407,
    "place_id": "ChIJzxdj_ozuEmsRimbHLerLQnY",
    "maps_url": "https://www.google.com/maps/place/?q=place_id:ChIJzxdj_ozuEmsRimbHLerLQnY"
  },
  {
    "name": "OZ Furniture Store Campbelltown",
    "address": "SHOP-6A/24 Blaxland Rd, Campbelltown NSW 2560, Australia",
    "suburb": "Campbelltown NSW 2560",
    "state": "NSW",
    "rating": 2.7,
    "reviews": 11,
    "lat": -34.0589879,
    "lng": 150.8166546,
    "place_id": "ChIJrXZlvEfvEmsRlLImIuQj-iw",
    "maps_url": "https://www.google.com/maps/place/?q=place_id:ChIJrXZlvEfvEmsRlLImIuQj-iw"
  },
  {
    "name": "OZ Design Campbelltown",
    "address": "Shop 7/17 Blaxland Serviceway, Campbelltown NSW 2560, Australia",
    "suburb": "Campbelltown NSW 2560",
    "state": "NSW",
    "rating": 3.8,
    "reviews": 40,
    "lat": -34.0529598,
    "lng": 150.8206923,
    "place_id": "ChIJAQqphIzuEmsR2S8172-jl_E",
    "maps_url": "https://www.google.com/maps/place/?q=place_id:ChIJAQqphIzuEmsR2S8172-jl_E"
  },
  {
    "name": "Koala Second Home - Furniture Recovery and Factory Outlet",
    "address": "1 Kellicar Rd, Campbelltown NSW 2560, Australia",
    "suburb": "Campbelltown NSW 2560",
    "state": "NSW",
    "rating": 4.3,
    "reviews": 91,
    "lat": -34.072692,
    "lng": 150.8018991,
    "place_id": "ChIJqeMiLAjvEmsRXbeFBaipvV0",
    "maps_url": "https://www.google.com/maps/place/?q=place_id:ChIJqeMiLAjvEmsRXbeFBaipvV0"
  },
  {
    "name": "NNE Living",
    "address": "4 Dick Johnson Dr, Oran Park NSW 2570, Australia",
    "suburb": "Oran Park NSW 2570",
    "state": "NSW",
    "rating": 4.8,
    "reviews": 49,
    "lat": -33.9960216,
    "lng": 150.7265001,
    "place_id": "ChIJH_B-0NbzEmsRK9peVYKkroQ",
    "maps_url": "https://www.google.com/maps/place/?q=place_id:ChIJH_B-0NbzEmsRK9peVYKkroQ"
  },
  {
    "name": "Cosmopolitan Living | Modern Home Furnishings",
    "address": "U4/17 Watsford Rd, Campbelltown NSW 2560, Australia",
    "suburb": "Campbelltown NSW 2560",
    "state": "NSW",
    "rating": 4.8,
    "reviews": 152,
    "lat": -34.059245,
    "lng": 150.8186301,
    "place_id": "ChIJYUZlKWXvEmsRDDnyM36pFu4",
    "maps_url": "https://www.google.com/maps/place/?q=place_id:ChIJYUZlKWXvEmsRDDnyM36pFu4"
  },
  {
    "name": "Half Price Furniture Campbelltown",
    "address": "17 Blaxland Serviceway, Campbelltown NSW 2560, Australia",
    "suburb": "Campbelltown NSW 2560",
    "state": "NSW",
    "rating": 4.6,
    "reviews": 39,
    "lat": -34.0539415,
    "lng": 150.8208335,
    "place_id": "ChIJ98amRrzvEmsRH5NfmcZojOg",
    "maps_url": "https://www.google.com/maps/place/?q=place_id:ChIJ98amRrzvEmsRH5NfmcZojOg"
  },
  {
    "name": "Early Settler Furniture Store Campbelltown",
    "address": "10a/17 Blaxland Serviceway, Campbelltown NSW 2560, Australia",
    "suburb": "Campbelltown NSW 2560",
    "state": "NSW",
    "rating": 3.8,
    "reviews": 87,
    "lat": -34.0537784,
    "lng": 150.8211178,
    "place_id": "ChIJo91jE2EKaQER78QcMqbMYvY",
    "maps_url": "https://www.google.com/maps/place/?q=place_id:ChIJo91jE2EKaQER78QcMqbMYvY"
  },
  {
    "name": "Homebase Campbelltown",
    "address": "24 Blaxland Rd, Campbelltown NSW 2560, Australia",
    "suburb": "Campbelltown NSW 2560",
    "state": "NSW",
    "rating": 4.3,
    "reviews": 714,
    "lat": -34.0589879,
    "lng": 150.8166546,
    "place_id": "ChIJS5nD2PXuEmsRrGp9avkmprw",
    "maps_url": "https://www.google.com/maps/place/?q=place_id:ChIJS5nD2PXuEmsRrGp9avkmprw"
  },
  {
    "name": "Plush Campbelltown",
    "address": "Shop 1/24 Blaxland Rd, Campbelltown NSW 2560, Australia",
    "suburb": "Campbelltown NSW 2560",
    "state": "NSW",
    "rating": 4.9,
    "reviews": 80,
    "lat": -34.0588381,
    "lng": 150.816884,
    "place_id": "ChIJi2x5NWTvEmsRXyyGrV_8hDw",
    "maps_url": "https://www.google.com/maps/place/?q=place_id:ChIJi2x5NWTvEmsRXyyGrV_8hDw"
  },
  {
    "name": "Nick Scali Furniture Campbelltown Sydney",
    "address": "9 Blaxland Rd, Campbelltown NSW 2560, Australia",
    "suburb": "Campbelltown NSW 2560",
    "state": "NSW",
    "rating": 3.9,
    "reviews": 151,
    "lat": -34.0563812,
    "lng": 150.817276,
    "place_id": "ChIJ4U9c__TuEmsRAlZo5ooiGfE",
    "maps_url": "https://www.google.com/maps/place/?q=place_id:ChIJ4U9c__TuEmsRAlZo5ooiGfE"
  },
  {
    "name": "Fantastic Furniture",
    "address": "4 Blaxland Rd, Campbelltown NSW 2560, Australia",
    "suburb": "Campbelltown NSW 2560",
    "state": "NSW",
    "rating": 4,
    "reviews": 509,
    "lat": -34.0541165,
    "lng": 150.8228693,
    "place_id": "ChIJr-Kl4YzuEmsRftKiu9h1gpI",
    "maps_url": "https://www.google.com/maps/place/?q=place_id:ChIJr-Kl4YzuEmsRftKiu9h1gpI"
  },
  {
    "name": "Harvey Norman Campbelltown",
    "address": "22A Blaxland Rd, Campbelltown NSW 2560, Australia",
    "suburb": "Campbelltown NSW 2560",
    "state": "NSW",
    "rating": 3.9,
    "reviews": 1229,
    "lat": -34.0577563,
    "lng": 150.8182067,
    "place_id": "ChIJdwZBTPTuEmsRjYColO1NBC4",
    "maps_url": "https://www.google.com/maps/place/?q=place_id:ChIJdwZBTPTuEmsRjYColO1NBC4"
  },
  {
    "name": "Outdoor Furniture Ideas Sydney",
    "address": "39 Mount Erin Rd, Campbelltown NSW 2560, Australia",
    "suburb": "Campbelltown NSW 2560",
    "state": "NSW",
    "rating": 4.8,
    "reviews": 126,
    "lat": -34.0585543,
    "lng": 150.8055905,
    "place_id": "ChIJHZBZd-ixEmsRER-bGvXMCUE",
    "maps_url": "https://www.google.com/maps/place/?q=place_id:ChIJHZBZd-ixEmsRER-bGvXMCUE"
  },
  {
    "name": "Supreme Furniture",
    "address": "Shop 8/9-49 Chapel Rd, Bankstown NSW 2200, Australia",
    "suburb": "Bankstown NSW 2200",
    "state": "NSW",
    "rating": 4.3,
    "reviews": 260,
    "lat": -33.9317577,
    "lng": 151.0296612,
    "place_id": "ChIJjf-DcaS-EmsRBwVQIV9g-WY",
    "maps_url": "https://www.google.com/maps/place/?q=place_id:ChIJjf-DcaS-EmsRBwVQIV9g-WY"
  },
  {
    "name": "Koala Living Bankstown",
    "address": "Shop 22/173 Canterbury Rd, Bankstown NSW 2200, Australia",
    "suburb": "Bankstown NSW 2200",
    "state": "NSW",
    "rating": 4.8,
    "reviews": 776,
    "lat": -33.9334991,
    "lng": 151.0304154,
    "place_id": "ChIJ6xMyUWa_EmsRuG2dqAD426M",
    "maps_url": "https://www.google.com/maps/place/?q=place_id:ChIJ6xMyUWa_EmsRuG2dqAD426M"
  },
  {
    "name": "Amart Bankstown",
    "address": "122 Canterbury Rd, Bankstown NSW 2200, Australia",
    "suburb": "Bankstown NSW 2200",
    "state": "NSW",
    "rating": 3.6,
    "reviews": 563,
    "lat": -33.93478,
    "lng": 151.0297151,
    "place_id": "ChIJp7gOp6S-EmsRq0TfACqURcc",
    "maps_url": "https://www.google.com/maps/place/?q=place_id:ChIJp7gOp6S-EmsRq0TfACqURcc"
  },
  {
    "name": "Easy Home & DLB Furniture",
    "address": "Unit 3/148-150 Canterbury Rd, Bankstown NSW 2200, Australia",
    "suburb": "Bankstown NSW 2200",
    "state": "NSW",
    "rating": 4.8,
    "reviews": 109,
    "lat": -33.9349041,
    "lng": 151.0286583,
    "place_id": "ChIJfQJgnOC5EmsRJP5BJLD0jgk",
    "maps_url": "https://www.google.com/maps/place/?q=place_id:ChIJfQJgnOC5EmsRJP5BJLD0jgk"
  },
  {
    "name": "Focus on Furniture - Bankstown",
    "address": "173 Canterbury Rd, Bankstown NSW 2200, Australia",
    "suburb": "Bankstown NSW 2200",
    "state": "NSW",
    "rating": 3.8,
    "reviews": 218,
    "lat": -33.9331653,
    "lng": 151.0285036,
    "place_id": "ChIJUdBYe6O-EmsRBYyPnW_x80g",
    "maps_url": "https://www.google.com/maps/place/?q=place_id:ChIJUdBYe6O-EmsRBYyPnW_x80g"
  },
  {
    "name": "HomeCo. Bankstown",
    "address": "9-67 Chapel Rd, Bankstown NSW 2200, Australia",
    "suburb": "Bankstown NSW 2200",
    "state": "NSW",
    "rating": 4.1,
    "reviews": 1767,
    "lat": -33.9320596,
    "lng": 151.0296764,
    "place_id": "ChIJRUYDgqO-EmsR0DLz-Wh9AQ8",
    "maps_url": "https://www.google.com/maps/place/?q=place_id:ChIJRUYDgqO-EmsR0DLz-Wh9AQ8"
  },
  {
    "name": "Sleeping Giant Bankstown Home",
    "address": "9/49 Chapel Rd, Bankstown NSW 2200, Australia",
    "suburb": "Bankstown NSW 2200",
    "state": "NSW",
    "rating": 4.5,
    "reviews": 64,
    "lat": -33.9322967,
    "lng": 151.0286283,
    "place_id": "ChIJFYADct2_EmsRIKCcdw2Nr7w",
    "maps_url": "https://www.google.com/maps/place/?q=place_id:ChIJFYADct2_EmsRIKCcdw2Nr7w"
  },
  {
    "name": "Nick Scali Furniture Bankstown Sydney",
    "address": "Shop 25/173 Canterbury Rd, Bankstown NSW 2200, Australia",
    "suburb": "Bankstown NSW 2200",
    "state": "NSW",
    "rating": 3.6,
    "reviews": 153,
    "lat": -33.9336581,
    "lng": 151.0304622,
    "place_id": "ChIJ50QifaO-EmsRCPYYORMtxtQ",
    "maps_url": "https://www.google.com/maps/place/?q=place_id:ChIJ50QifaO-EmsRCPYYORMtxtQ"
  },
  {
    "name": "OZ Furniture Store Bankstown (Warehouse)",
    "address": "40 Bryant St, Padstow NSW 2211, Australia",
    "suburb": "Padstow NSW 2211",
    "state": "NSW",
    "rating": 3.6,
    "reviews": 22,
    "lat": -33.9407615,
    "lng": 151.0317687,
    "place_id": "ChIJ_VvUGQC_EmsRVKLCHjExuec",
    "maps_url": "https://www.google.com/maps/place/?q=place_id:ChIJ_VvUGQC_EmsRVKLCHjExuec"
  },
  {
    "name": "Home Focus Bankstown",
    "address": "173 Canterbury Rd, Bankstown NSW 2200, Australia",
    "suburb": "Bankstown NSW 2200",
    "state": "NSW",
    "rating": 4,
    "reviews": 170,
    "lat": -33.933643,
    "lng": 151.0290524,
    "place_id": "ChIJ68DDZqO-EmsRb3XqWF_CcUQ",
    "maps_url": "https://www.google.com/maps/place/?q=place_id:ChIJ68DDZqO-EmsRb3XqWF_CcUQ"
  },
  {
    "name": "Home & Bedroom Furniture Store | Mattress Store in Sydney",
    "address": "Unit 3/148-150 Canterbury Rd, Bankstown NSW 2200, Australia",
    "suburb": "Bankstown NSW 2200",
    "state": "NSW",
    "rating": 5,
    "reviews": 1,
    "lat": -33.9348865,
    "lng": 151.0286982,
    "place_id": "ChIJC72b78-_EmsR60kTk8bx8QQ",
    "maps_url": "https://www.google.com/maps/place/?q=place_id:ChIJC72b78-_EmsR60kTk8bx8QQ"
  },
  {
    "name": "Beds n Dreams - Bankstown",
    "address": "Shop 2/173 Canterbury Rd, Bankstown NSW 2200, Australia",
    "suburb": "Bankstown NSW 2200",
    "state": "NSW",
    "rating": 4.5,
    "reviews": 119,
    "lat": -33.9333046,
    "lng": 151.0293025,
    "place_id": "ChIJ68DDZqO-EmsRsXPcY4NFwuM",
    "maps_url": "https://www.google.com/maps/place/?q=place_id:ChIJ68DDZqO-EmsRsXPcY4NFwuM"
  },
  {
    "name": "Snooze Bankstown",
    "address": "Bankstown Home, Unit 10/9 Chapel Rd, Bankstown NSW 2200, Australia",
    "suburb": "Unit 10/9 Chapel Rd",
    "state": "NSW",
    "rating": 4.7,
    "reviews": 412,
    "lat": -33.9316606,
    "lng": 151.0289647,
    "place_id": "ChIJq9ksdqS-EmsRwgA3MdwNZW8",
    "maps_url": "https://www.google.com/maps/place/?q=place_id:ChIJq9ksdqS-EmsRwgA3MdwNZW8"
  },
  {
    "name": "Fantastic Furniture",
    "address": "62 Hume Hwy, Chullora NSW 2190, Australia",
    "suburb": "Chullora NSW 2190",
    "state": "NSW",
    "rating": 3.7,
    "reviews": 637,
    "lat": -33.8968379,
    "lng": 151.0474994,
    "place_id": "ChIJbY6oXrG9EmsRamdHfAGgf9w",
    "maps_url": "https://www.google.com/maps/place/?q=place_id:ChIJbY6oXrG9EmsRamdHfAGgf9w"
  },
  {
    "name": "Armani Gallery - Bankstown",
    "address": "Bankstown Central, Level 2 Opposite Kmart, Stacey Street &, North Terrace, Bankstown NSW 2200, Australia",
    "suburb": "Level 2 Opposite Kmart",
    "state": "NSW",
    "rating": 4.7,
    "reviews": 136,
    "lat": -33.9172635,
    "lng": 151.0388392,
    "place_id": "ChIJyee4vua9EmsRUfgnps4Zs0s",
    "maps_url": "https://www.google.com/maps/place/?q=place_id:ChIJyee4vua9EmsRUfgnps4Zs0s"
  },
  {
    "name": "Triple J Furniture",
    "address": "590 Hume Hwy, Yagoona NSW 2199, Australia",
    "suburb": "Yagoona NSW 2199",
    "state": "NSW",
    "rating": 4.1,
    "reviews": 34,
    "lat": -33.9071245,
    "lng": 151.0208003,
    "place_id": "ChIJWcQOhz68EmsRE1auuHTOek4",
    "maps_url": "https://www.google.com/maps/place/?q=place_id:ChIJWcQOhz68EmsRE1auuHTOek4"
  },
  {
    "name": "Forty Winks Bankstown",
    "address": "Shop 6/173 Canterbury Rd, Bankstown NSW 2200, Australia",
    "suburb": "Bankstown NSW 2200",
    "state": "NSW",
    "rating": 4.9,
    "reviews": 575,
    "lat": -33.9335031,
    "lng": 151.0285708,
    "place_id": "ChIJq9ksdqS-EmsRN6M7DQhoZcw",
    "maps_url": "https://www.google.com/maps/place/?q=place_id:ChIJq9ksdqS-EmsRN6M7DQhoZcw"
  },
  {
    "name": "Luv Lux Interiors",
    "address": "106 Marion St, Bankstown NSW 2200, Australia",
    "suburb": "Bankstown NSW 2200",
    "state": "NSW",
    "rating": 5,
    "reviews": 14,
    "lat": -33.9179367,
    "lng": 151.0261904,
    "place_id": "ChIJ6WuobGnIiEURIH0wVhDDzus",
    "maps_url": "https://www.google.com/maps/place/?q=place_id:ChIJ6WuobGnIiEURIH0wVhDDzus"
  },
  {
    "name": "Beds R Us Bankstown",
    "address": "Unit 19/173 Canterbury Rd, Bankstown NSW 2200, Australia",
    "suburb": "Bankstown NSW 2200",
    "state": "NSW",
    "rating": 4.5,
    "reviews": 75,
    "lat": -33.9333046,
    "lng": 151.0293025,
    "place_id": "ChIJGSl3K-W_EmsRY8O9EEGulIg",
    "maps_url": "https://www.google.com/maps/place/?q=place_id:ChIJGSl3K-W_EmsRY8O9EEGulIg"
  },
  {
    "name": "King Living Chatswood NSW",
    "address": "216 Victoria Ave, Chatswood NSW 2067, Australia",
    "suburb": "Chatswood NSW 2067",
    "state": "NSW",
    "rating": 4,
    "reviews": 345,
    "lat": -33.794296,
    "lng": 151.189898,
    "place_id": "ChIJS_-I-CipEmsRUIJgHJbVQjU",
    "maps_url": "https://www.google.com/maps/place/?q=place_id:ChIJS_-I-CipEmsRUIJgHJbVQjU"
  },
  {
    "name": "Boori - Chatswood",
    "address": "11-17, Ground Floor/65 Albert Ave, Chatswood NSW 2067, Australia",
    "suburb": "Ground Floor/65 Albert Ave",
    "state": "NSW",
    "rating": 4.8,
    "reviews": 116,
    "lat": -33.7980558,
    "lng": 151.1821582,
    "place_id": "ChIJ1fXi58CpEmsRX8r3eYFD3n0",
    "maps_url": "https://www.google.com/maps/place/?q=place_id:ChIJ1fXi58CpEmsRX8r3eYFD3n0"
  },
  {
    "name": "Oishi Furniture & Homewares",
    "address": "572 Willoughby Rd, Willoughby NSW 2068, Australia",
    "suburb": "Willoughby NSW 2068",
    "state": "NSW",
    "rating": 5,
    "reviews": 33,
    "lat": -33.8073708,
    "lng": 151.1991225,
    "place_id": "ChIJ-WUKNh2sEmsRRDCnVO2i30k",
    "maps_url": "https://www.google.com/maps/place/?q=place_id:ChIJ-WUKNh2sEmsRRDCnVO2i30k"
  },
  {
    "name": "French Place",
    "address": "Level 1, Suite 108A/283 Penshurst St, Willoughby NSW 2068, Australia",
    "suburb": "Suite 108A/283 Penshurst St",
    "state": "NSW",
    "rating": 5,
    "reviews": 103,
    "lat": -33.7942326,
    "lng": 151.196459,
    "place_id": "ChIJy7t3SiOpEmsRIgxmJbO3qzU",
    "maps_url": "https://www.google.com/maps/place/?q=place_id:ChIJy7t3SiOpEmsRIgxmJbO3qzU"
  },
  {
    "name": "Supreme Furniture",
    "address": "Home HQ Artarmon, Unit G7/1 Frederick St, Artarmon NSW 2064, Australia",
    "suburb": "Unit G7/1 Frederick St",
    "state": "NSW",
    "rating": 4.2,
    "reviews": 153,
    "lat": -33.817079,
    "lng": 151.1889358,
    "place_id": "ChIJ8_TpJJWvEmsRp-bA-mjmKVk",
    "maps_url": "https://www.google.com/maps/place/?q=place_id:ChIJ8_TpJJWvEmsRp-bA-mjmKVk"
  },
  {
    "name": "Style My Home - Hamptons Inspired Interiors",
    "address": "596 Willoughby Rd, Willoughby NSW 2068, Australia",
    "suburb": "Willoughby NSW 2068",
    "state": "NSW",
    "rating": 4.4,
    "reviews": 49,
    "lat": -33.8066119,
    "lng": 151.1989091,
    "place_id": "ChIJ43rNAOiuEmsRH6AOvicu8q0",
    "maps_url": "https://www.google.com/maps/place/?q=place_id:ChIJ43rNAOiuEmsRH6AOvicu8q0"
  },
  {
    "name": "MUJI Chatswood",
    "address": "The Concourse, Shop 7&8/405-419 Victoria Ave, Chatswood NSW 2067, Australia",
    "suburb": "Shop 7&8/405-419 Victoria Ave",
    "state": "NSW",
    "rating": 4.1,
    "reviews": 543,
    "lat": -33.79592030000001,
    "lng": 151.1835802,
    "place_id": "ChIJAQAAy9WoEmsRF1HNe9afK5U",
    "maps_url": "https://www.google.com/maps/place/?q=place_id:ChIJAQAAy9WoEmsRF1HNe9afK5U"
  },
  {
    "name": "Wheel&Barrow Home",
    "address": "Chatswood Chase Shop, B047 Victoria Ave, Chatswood NSW 2067, Australia",
    "suburb": "B047 Victoria Ave",
    "state": "NSW",
    "rating": 3.8,
    "reviews": 13,
    "lat": -33.7942659,
    "lng": 151.1865573,
    "place_id": "ChIJ-3PmJtaoEmsRSnR8qYveIW4",
    "maps_url": "https://www.google.com/maps/place/?q=place_id:ChIJ-3PmJtaoEmsRSnR8qYveIW4"
  },
  {
    "name": "Homelements",
    "address": "233 Victoria Ave, Chatswood NSW 2067, Australia",
    "suburb": "Chatswood NSW 2067",
    "state": "NSW",
    "rating": 5,
    "reviews": 3,
    "lat": -33.7933369,
    "lng": 151.1916443,
    "place_id": "ChIJ1dNpDaWpEmsRxgdhUGb5Qyk",
    "maps_url": "https://www.google.com/maps/place/?q=place_id:ChIJ1dNpDaWpEmsRxgdhUGb5Qyk"
  },
  {
    "name": "Westfield Chatswood",
    "address": "1 Anderson St, Chatswood NSW 2067, Australia",
    "suburb": "Chatswood NSW 2067",
    "state": "NSW",
    "rating": 4.4,
    "reviews": 13468,
    "lat": -33.7965082,
    "lng": 151.1827496,
    "place_id": "ChIJj-yYy9WoEmsRqsttUM46JR4",
    "maps_url": "https://www.google.com/maps/place/?q=place_id:ChIJj-yYy9WoEmsRqsttUM46JR4"
  },
  {
    "name": "Chatswood Chase",
    "address": "345 Victoria Ave, Chatswood NSW 2067, Australia",
    "suburb": "Chatswood NSW 2067",
    "state": "NSW",
    "rating": 4.2,
    "reviews": 6555,
    "lat": -33.7942587,
    "lng": 151.1861126,
    "place_id": "ChIJT2OmMNaoEmsRXufbNT-tP14",
    "maps_url": "https://www.google.com/maps/place/?q=place_id:ChIJT2OmMNaoEmsRXufbNT-tP14"
  },
  {
    "name": "DEQOS homestore",
    "address": "Level 13, Suite 1A/465 Victoria Ave, Chatswood NSW 2067, Australia",
    "suburb": "Suite 1A/465 Victoria Ave",
    "state": "NSW",
    "rating": 5,
    "reviews": 1,
    "lat": -33.7970266,
    "lng": 151.1799956,
    "place_id": "ChIJ1eWuCJ_LcmsR7gLh7dBeSfo",
    "maps_url": "https://www.google.com/maps/place/?q=place_id:ChIJ1eWuCJ_LcmsR7gLh7dBeSfo"
  },
  {
    "name": "OZ Design Artarmon",
    "address": "Home HQ Artarmon, Shop G13/1 Frederick St, Artarmon NSW 2064, Australia",
    "suburb": "Shop G13/1 Frederick St",
    "state": "NSW",
    "rating": 4.4,
    "reviews": 41,
    "lat": -33.817079,
    "lng": 151.1889358,
    "place_id": "ChIJL1SIXmyvEmsRI725VolMHgg",
    "maps_url": "https://www.google.com/maps/place/?q=place_id:ChIJL1SIXmyvEmsRI725VolMHgg"
  },
  {
    "name": "Kmart Chatswood",
    "address": "Chatswood Chase S/C Cnr Victoria Ave &, Archer St, Chatswood NSW 2067, Australia",
    "suburb": "Archer St",
    "state": "NSW",
    "rating": 4.1,
    "reviews": 2302,
    "lat": -33.7951238,
    "lng": 151.1858439,
    "place_id": "ChIJv1eNctaoEmsRWcx4nuptHCU",
    "maps_url": "https://www.google.com/maps/place/?q=place_id:ChIJv1eNctaoEmsRWcx4nuptHCU"
  },
  {
    "name": "Forty Winks Chatswood",
    "address": "14/16 Smith St, Chatswood NSW 2067, Australia",
    "suburb": "Chatswood NSW 2067",
    "state": "NSW",
    "rating": 4.8,
    "reviews": 140,
    "lat": -33.7867935,
    "lng": 151.1984544,
    "place_id": "ChIJm8Gs1DypEmsR6ukxi1OmWWY",
    "maps_url": "https://www.google.com/maps/place/?q=place_id:ChIJm8Gs1DypEmsR6ukxi1OmWWY"
  },
  {
    "name": "Demir Leather",
    "address": "552-554 Pacific Hwy, Chatswood NSW 2067, Australia",
    "suburb": "Chatswood NSW 2067",
    "state": "NSW",
    "rating": 3.9,
    "reviews": 25,
    "lat": -33.8041028,
    "lng": 151.1790348,
    "place_id": "ChIJeYoCJSyvEmsRwuVhDwOkG6k",
    "maps_url": "https://www.google.com/maps/place/?q=place_id:ChIJeYoCJSyvEmsRwuVhDwOkG6k"
  },
  {
    "name": "Japan Home Centre - Chatswood",
    "address": "Shop 46/436 Victoria Ave, Chatswood NSW 2067, Australia",
    "suburb": "Chatswood NSW 2067",
    "state": "NSW",
    "rating": 3.6,
    "reviews": 18,
    "lat": -33.7978651,
    "lng": 151.180796,
    "place_id": "ChIJ1ZE_gdOoEmsRIt2TjlCHfZM",
    "maps_url": "https://www.google.com/maps/place/?q=place_id:ChIJ1ZE_gdOoEmsRIt2TjlCHfZM"
  },
  {
    "name": "Chatswood Betta",
    "address": "2/1 Spring St, Chatswood NSW 2067, Australia",
    "suburb": "Chatswood NSW 2067",
    "state": "NSW",
    "rating": 4.3,
    "reviews": 221,
    "lat": -33.7970903,
    "lng": 151.1853391,
    "place_id": "ChIJp6R8UfKuEmsRl_6XtL27O9Q",
    "maps_url": "https://www.google.com/maps/place/?q=place_id:ChIJp6R8UfKuEmsRl_6XtL27O9Q"
  },
  {
    "name": "Glamour Living",
    "address": "Westfield Chatswood, Shop 508 Level 5/1 Anderson St, Chatswood NSW 2067, Australia",
    "suburb": "Shop 508 Level 5/1 Anderson St",
    "state": "NSW",
    "rating": 5,
    "reviews": 7,
    "lat": -33.7961999,
    "lng": 151.1821523,
    "place_id": "ChIJ4WqkAcChEmsRQiHeuu1pzSo",
    "maps_url": "https://www.google.com/maps/place/?q=place_id:ChIJ4WqkAcChEmsRQiHeuu1pzSo"
  },
  {
    "name": "Furniture Warehouse Hornsby",
    "address": "254 Peats Ferry Rd, Hornsby NSW 2077, Australia",
    "suburb": "Hornsby NSW 2077",
    "state": "NSW",
    "rating": 4.8,
    "reviews": 172,
    "lat": -33.7028584,
    "lng": 151.0974341,
    "place_id": "ChIJhyCfxYOnEmsRSN8Vh8q0ddE",
    "maps_url": "https://www.google.com/maps/place/?q=place_id:ChIJhyCfxYOnEmsRSN8Vh8q0ddE"
  },
  {
    "name": "Hornsby Furniture Co.",
    "address": "4 Dural La, Hornsby NSW 2077, Australia",
    "suburb": "Hornsby NSW 2077",
    "state": "NSW",
    "rating": 4.5,
    "reviews": 37,
    "lat": -33.7031478,
    "lng": 151.0969771,
    "place_id": "ChIJr7UCy4OnEmsRMjPqNx9SaOc",
    "maps_url": "https://www.google.com/maps/place/?q=place_id:ChIJr7UCy4OnEmsRMjPqNx9SaOc"
  },
  {
    "name": "Harvey Norman Hornsby",
    "address": "Westfield Hornsby, Level 3/18 Burdett St, Hornsby NSW 2077, Australia",
    "suburb": "Level 3/18 Burdett St",
    "state": "NSW",
    "rating": 3.6,
    "reviews": 277,
    "lat": -33.7030943,
    "lng": 151.1019108,
    "place_id": "ChIJZ77RlJKnEmsRC61ZK0p-crU",
    "maps_url": "https://www.google.com/maps/place/?q=place_id:ChIJZ77RlJKnEmsRC61ZK0p-crU"
  },
  {
    "name": "Sleeping Giant Hornsby",
    "address": "Shop 1 & 2/6-18 Bridge Rd, Hornsby NSW 2077, Australia",
    "suburb": "Hornsby NSW 2077",
    "state": "NSW",
    "rating": 4.2,
    "reviews": 75,
    "lat": -33.697743,
    "lng": 151.1006772,
    "place_id": "ChIJI3BApnhYDWsRrbkU4XzX8IM",
    "maps_url": "https://www.google.com/maps/place/?q=place_id:ChIJI3BApnhYDWsRrbkU4XzX8IM"
  },
  {
    "name": "Habitat Homemakers",
    "address": "Hornsby NSW 2077, Australia",
    "suburb": "Australia",
    "state": "NSW",
    "rating": 4.4,
    "reviews": 7,
    "lat": -33.702938,
    "lng": 151.0978619,
    "place_id": "ChIJpy4PxYOnEmsRbJfTgmd2K0U",
    "maps_url": "https://www.google.com/maps/place/?q=place_id:ChIJpy4PxYOnEmsRbJfTgmd2K0U"
  },
  {
    "name": "Westfield Hornsby",
    "address": "236 Pacific Hwy, Hornsby NSW 2077, Australia",
    "suburb": "Hornsby NSW 2077",
    "state": "NSW",
    "rating": 4.3,
    "reviews": 8507,
    "lat": -33.7036208,
    "lng": 151.1020928,
    "place_id": "ChIJsylUPoSnEmsRoCzz-Wh9AQ8",
    "maps_url": "https://www.google.com/maps/place/?q=place_id:ChIJsylUPoSnEmsRoCzz-Wh9AQ8"
  },
  {
    "name": "Northside Office Furniture",
    "address": "24/36 Leighton Pl, Hornsby NSW 2077, Australia",
    "suburb": "Hornsby NSW 2077",
    "state": "NSW",
    "rating": 4.8,
    "reviews": 21,
    "lat": -33.6945152,
    "lng": 151.1181891,
    "place_id": "ChIJs7GOoHNYDWsRAwqU894M0P4",
    "maps_url": "https://www.google.com/maps/place/?q=place_id:ChIJs7GOoHNYDWsRAwqU894M0P4"
  },
  {
    "name": "MyHouse",
    "address": "Shop 3021 - 24/236 Pacific Hwy, Hornsby NSW 2077, Australia",
    "suburb": "Hornsby NSW 2077",
    "state": "NSW",
    "rating": 3.6,
    "reviews": 28,
    "lat": -33.7047719,
    "lng": 151.0997843,
    "place_id": "ChIJKyYEeYSnEmsROtHssPikwdM",
    "maps_url": "https://www.google.com/maps/place/?q=place_id:ChIJKyYEeYSnEmsROtHssPikwdM"
  },
  {
    "name": "Exquiside",
    "address": "51 Leighton Pl, Hornsby NSW 2077, Australia",
    "suburb": "Hornsby NSW 2077",
    "state": "NSW",
    "rating": null,
    "reviews": 0,
    "lat": -33.694639,
    "lng": 151.114041,
    "place_id": "ChIJjYY0CnNYDWsRw7Hz7csQi3I",
    "maps_url": "https://www.google.com/maps/place/?q=place_id:ChIJjYY0CnNYDWsRw7Hz7csQi3I"
  },
  {
    "name": "Chocolate Wood",
    "address": "33/228-233 Condamine St, Manly Vale NSW 2093, Australia",
    "suburb": "Manly Vale NSW 2093",
    "state": "NSW",
    "rating": 4.7,
    "reviews": 66,
    "lat": -33.785793,
    "lng": 151.2672419,
    "place_id": "ChIJd6T8GLKrEmsRGxucflR1LA0",
    "maps_url": "https://www.google.com/maps/place/?q=place_id:ChIJd6T8GLKrEmsRGxucflR1LA0"
  },
  {
    "name": "Lounge Lovers Balgowlah",
    "address": "6 Roseberry St, Balgowlah NSW 2093, Australia",
    "suburb": "Balgowlah NSW 2093",
    "state": "NSW",
    "rating": 4.7,
    "reviews": 202,
    "lat": -33.7896335,
    "lng": 151.2678549,
    "place_id": "ChIJ0aTDmrirEmsRYNW5YLZprjU",
    "maps_url": "https://www.google.com/maps/place/?q=place_id:ChIJ0aTDmrirEmsRYNW5YLZprjU"
  },
  {
    "name": "Renew Interiors, Manly Vale, NSW, Australia",
    "address": "34/228 Condamine St, Manly Vale NSW 2093, Australia",
    "suburb": "Manly Vale NSW 2093",
    "state": "NSW",
    "rating": 5,
    "reviews": 2,
    "lat": -33.7858366,
    "lng": 151.2673994,
    "place_id": "ChIJPenRbyyrEmsR0iAUnymWGkM",
    "maps_url": "https://www.google.com/maps/place/?q=place_id:ChIJPenRbyyrEmsR0iAUnymWGkM"
  },
  {
    "name": "Freedom - Balgowlah",
    "address": "Ground and First, Floor, 247/253 Condamine St, Balgowlah NSW 2093, Australia",
    "suburb": "Floor",
    "state": "NSW",
    "rating": 3.6,
    "reviews": 140,
    "lat": -33.7878906,
    "lng": 151.2656864,
    "place_id": "ChIJHwX8qLGrEmsRrKADsGQTNUE",
    "maps_url": "https://www.google.com/maps/place/?q=place_id:ChIJHwX8qLGrEmsRrKADsGQTNUE"
  },
  {
    "name": "SMITH MADE",
    "address": "14/28 Roseberry Street, Balgowlah, NSW, 2094, 4/34 Roseberry St, Balgowlah NSW 2093, Australia",
    "suburb": "Balgowlah",
    "state": "NSW",
    "rating": 4,
    "reviews": 12,
    "lat": -33.7877186,
    "lng": 151.2683413,
    "place_id": "ChIJi-lI3LGrEmsRGDBf9X-I9AM",
    "maps_url": "https://www.google.com/maps/place/?q=place_id:ChIJi-lI3LGrEmsRGDBf9X-I9AM"
  },
  {
    "name": "Coco Republic Balgowlah",
    "address": "198 Condamine St, Balgowlah NSW 2093, Australia",
    "suburb": "Balgowlah NSW 2093",
    "state": "NSW",
    "rating": 3.6,
    "reviews": 67,
    "lat": -33.7881924,
    "lng": 151.2663528,
    "place_id": "ChIJ_V2iW5arEmsRDy8WPcps9uM",
    "maps_url": "https://www.google.com/maps/place/?q=place_id:ChIJ_V2iW5arEmsRDy8WPcps9uM"
  },
  {
    "name": "Montmartre",
    "address": "51 Sydney Rd, Manly NSW 2095, Australia",
    "suburb": "Manly NSW 2095",
    "state": "NSW",
    "rating": 5,
    "reviews": 3,
    "lat": -33.7970153,
    "lng": 151.2853532,
    "place_id": "ChIJP-vmHACrEmsRM0RGsdZABOE",
    "maps_url": "https://www.google.com/maps/place/?q=place_id:ChIJP-vmHACrEmsRM0RGsdZABOE"
  },
  {
    "name": "Snooze Manly Vale",
    "address": "210-216 Condamine St, Balgowlah NSW 2093, Australia",
    "suburb": "Balgowlah NSW 2093",
    "state": "NSW",
    "rating": 4.7,
    "reviews": 193,
    "lat": -33.7870856,
    "lng": 151.2667535,
    "place_id": "ChIJr-nskrGrEmsRakdnBGW1jH4",
    "maps_url": "https://www.google.com/maps/place/?q=place_id:ChIJr-nskrGrEmsRakdnBGW1jH4"
  },
  {
    "name": "Tangerine & Teal",
    "address": "Unit 1/42 Sydenham Rd, Brookvale NSW 2100, Australia",
    "suburb": "Brookvale NSW 2100",
    "state": "NSW",
    "rating": 5,
    "reviews": 36,
    "lat": -33.7650232,
    "lng": 151.2759311,
    "place_id": "ChIJdYSsXlyqEmsRtJ6RDJll6Ks",
    "maps_url": "https://www.google.com/maps/place/?q=place_id:ChIJdYSsXlyqEmsRtJ6RDJll6Ks"
  },
  {
    "name": "MCM House Balgowlah",
    "address": "58/60 Balgowlah Rd, Balgowlah NSW 2093, Australia",
    "suburb": "Balgowlah NSW 2093",
    "state": "NSW",
    "rating": 4.1,
    "reviews": 23,
    "lat": -33.790247,
    "lng": 151.267397,
    "place_id": "ChIJ8VIg11SrEmsR7L2F1q-PYi0",
    "maps_url": "https://www.google.com/maps/place/?q=place_id:ChIJ8VIg11SrEmsR7L2F1q-PYi0"
  },
  {
    "name": "Made In Homewares",
    "address": "66 The Corso, Manly NSW 2095, Australia",
    "suburb": "Manly NSW 2095",
    "state": "NSW",
    "rating": 4.1,
    "reviews": 15,
    "lat": -33.7979783,
    "lng": 151.2869726,
    "place_id": "ChIJIdaGSgGrEmsRA5A4TQaNXWI",
    "maps_url": "https://www.google.com/maps/place/?q=place_id:ChIJIdaGSgGrEmsRA5A4TQaNXWI"
  },
  {
    "name": "Uuli's Antique Shop",
    "address": "4/3 Whistler St, Manly NSW 2095, Australia",
    "suburb": "Manly NSW 2095",
    "state": "NSW",
    "rating": 4.9,
    "reviews": 96,
    "lat": -33.7974913,
    "lng": 151.2853438,
    "place_id": "ChIJ2bYCQUqrEmsRV2yfyHclZIw",
    "maps_url": "https://www.google.com/maps/place/?q=place_id:ChIJ2bYCQUqrEmsRV2yfyHclZIw"
  },
  {
    "name": "Tahei Decor Manly",
    "address": "11 Market Ln, Manly NSW 2095, Australia",
    "suburb": "Manly NSW 2095",
    "state": "NSW",
    "rating": 5,
    "reviews": 5,
    "lat": -33.7974192,
    "lng": 151.2862239,
    "place_id": "ChIJCd1HUG2rEmsRnP73-3J3s-Y",
    "maps_url": "https://www.google.com/maps/place/?q=place_id:ChIJCd1HUG2rEmsRnP73-3J3s-Y"
  },
  {
    "name": "King Living Balgowlah NSW",
    "address": "200/204 Condamine St, Balgowlah NSW 2093, Australia",
    "suburb": "Balgowlah NSW 2093",
    "state": "NSW",
    "rating": 4.5,
    "reviews": 99,
    "lat": -33.7875185,
    "lng": 151.2666934,
    "place_id": "ChIJoVMgDH6rEmsRg3cE68NhELc",
    "maps_url": "https://www.google.com/maps/place/?q=place_id:ChIJoVMgDH6rEmsRg3cE68NhELc"
  },
  {
    "name": "Designer Clearance Warehouse",
    "address": "6 The Corso, Manly NSW 2095, Australia",
    "suburb": "Manly NSW 2095",
    "state": "NSW",
    "rating": 2.6,
    "reviews": 26,
    "lat": -33.79903730000001,
    "lng": 151.2850817,
    "place_id": "ChIJp8H3JAmrEmsRiYKkM4rJAAc",
    "maps_url": "https://www.google.com/maps/place/?q=place_id:ChIJp8H3JAmrEmsRiYKkM4rJAAc"
  },
  {
    "name": "Harvey Norman Balgowlah",
    "address": "176 Condamine St, Balgowlah NSW 2093, Australia",
    "suburb": "Balgowlah NSW 2093",
    "state": "NSW",
    "rating": 3.9,
    "reviews": 794,
    "lat": -33.7893067,
    "lng": 151.2660729,
    "place_id": "ChIJVVfQTbCrEmsR6fOOLrBeijI",
    "maps_url": "https://www.google.com/maps/place/?q=place_id:ChIJVVfQTbCrEmsR6fOOLrBeijI"
  },
  {
    "name": "Artifex Interiors Pty Ltd",
    "address": "Unit 3/33 Roseberry St, Balgowlah NSW 2093, Australia",
    "suburb": "Balgowlah NSW 2093",
    "state": "NSW",
    "rating": 5,
    "reviews": 16,
    "lat": -33.7872108,
    "lng": 151.2674074,
    "place_id": "ChIJFfUF77GrEmsRClO4rKxQ0d8",
    "maps_url": "https://www.google.com/maps/place/?q=place_id:ChIJFfUF77GrEmsRClO4rKxQ0d8"
  },
  {
    "name": "Camargue",
    "address": "Unit B15/1 Campbell Parade, Manly Vale NSW 2093, Australia",
    "suburb": "Manly Vale NSW 2093",
    "state": "NSW",
    "rating": 5,
    "reviews": 4,
    "lat": -33.7834618,
    "lng": 151.2737769,
    "place_id": "ChIJW9TEpASsEmsRA0J4v7nDIf0",
    "maps_url": "https://www.google.com/maps/place/?q=place_id:ChIJW9TEpASsEmsRA0J4v7nDIf0"
  },
  {
    "name": "Honeybee Homewares",
    "address": "178 Sydney Rd, Fairlight NSW 2094, Australia",
    "suburb": "Fairlight NSW 2094",
    "state": "NSW",
    "rating": 5,
    "reviews": 12,
    "lat": -33.7954343,
    "lng": 151.2749838,
    "place_id": "ChIJ_ZqFe6arEmsR03EO93G4HIY",
    "maps_url": "https://www.google.com/maps/place/?q=place_id:ChIJ_ZqFe6arEmsR03EO93G4HIY"
  },
  {
    "name": "Forty Winks Manly Vale",
    "address": "234 Condamine St, Manly Vale NSW 2093, Australia",
    "suburb": "Manly Vale NSW 2093",
    "state": "NSW",
    "rating": 4,
    "reviews": 44,
    "lat": -33.7854934,
    "lng": 151.2673083,
    "place_id": "ChIJz12xF7KrEmsRTeaA23EKdwo",
    "maps_url": "https://www.google.com/maps/place/?q=place_id:ChIJz12xF7KrEmsRTeaA23EKdwo"
  },
  {
    "name": "west elm",
    "address": "472 Oxford St, Bondi Junction NSW 2022, Australia",
    "suburb": "Bondi Junction NSW 2022",
    "state": "NSW",
    "rating": 2.7,
    "reviews": 163,
    "lat": -33.8919391,
    "lng": 151.2496797,
    "place_id": "ChIJy-kXdfGtEmsREZnuYBFj-94",
    "maps_url": "https://www.google.com/maps/place/?q=place_id:ChIJy-kXdfGtEmsREZnuYBFj-94"
  },
  {
    "name": "King Living Bondi Junction NSW",
    "address": "588 Oxford Street Corner Syd Einfeld Drive &, Oxford St, Bondi Junction NSW 2022, Australia",
    "suburb": "Oxford St",
    "state": "NSW",
    "rating": 4.2,
    "reviews": 90,
    "lat": -33.8909505,
    "lng": 151.2528727,
    "place_id": "ChIJWQQZbPKtEmsRfcpZRmD9-3k",
    "maps_url": "https://www.google.com/maps/place/?q=place_id:ChIJWQQZbPKtEmsRfcpZRmD9-3k"
  },
  {
    "name": "Pottery Barn",
    "address": "470 Oxford St, Bondi Junction NSW 2022, Australia",
    "suburb": "Bondi Junction NSW 2022",
    "state": "NSW",
    "rating": 2.3,
    "reviews": 98,
    "lat": -33.8919594,
    "lng": 151.24965,
    "place_id": "ChIJtV4GoPGtEmsR1Btoqsbw_78",
    "maps_url": "https://www.google.com/maps/place/?q=place_id:ChIJtV4GoPGtEmsR1Btoqsbw_78"
  },
  {
    "name": "Pottery Barn Kids",
    "address": "466 Oxford St, Bondi Junction NSW 2022, Australia",
    "suburb": "Bondi Junction NSW 2022",
    "state": "NSW",
    "rating": 2.2,
    "reviews": 70,
    "lat": -33.8919721,
    "lng": 151.2495545,
    "place_id": "ChIJtV4GoPGtEmsRgtx9jYJgb-c",
    "maps_url": "https://www.google.com/maps/place/?q=place_id:ChIJtV4GoPGtEmsRgtx9jYJgb-c"
  },
  {
    "name": "La tienda bondi junction",
    "address": "310-330 Oxford St, Bondi Junction NSW 2022, Australia",
    "suburb": "Bondi Junction NSW 2022",
    "state": "NSW",
    "rating": 3,
    "reviews": 2,
    "lat": -33.8912041,
    "lng": 151.2456981,
    "place_id": "ChIJ-bD29u2tEmsRE3xYITUuK4s",
    "maps_url": "https://www.google.com/maps/place/?q=place_id:ChIJ-bD29u2tEmsRE3xYITUuK4s"
  },
  {
    "name": "Homelife Furnishings",
    "address": "199 Old South Head Rd, Bondi Junction NSW 2022, Australia",
    "suburb": "Bondi Junction NSW 2022",
    "state": "NSW",
    "rating": 4.5,
    "reviews": 8,
    "lat": -33.889669,
    "lng": 151.2589286,
    "place_id": "ChIJ_8N65ZKtEmsRJU3kgBe0dmY",
    "maps_url": "https://www.google.com/maps/place/?q=place_id:ChIJ_8N65ZKtEmsRJU3kgBe0dmY"
  },