[
  {
    "name": "Lions Hearing Clinic | Sydney",
    "address": "Suite 204, Level 2/135 Macquarie St, Sydney NSW 2000, Australia",
    "suburb": "Level 2/135 Macquarie St",
    "state": "NSW",
    "rating": 4.9,
    "reviews": 66,
    "lat": -33.8643637,
    "lng": 151.2124002,
    "place_id": "ChIJRyftdj2uEmsRclRqtEz-u4c",
    "maps_url": "https://www.google.com/maps/place/?q=place_id:ChIJRyftdj2uEmsRclRqtEz-u4c"
  },
  {
    "name": "Audika Hearing Clinic Sydney",
    "address": "187, Level 2/191 Macquarie St, Sydney NSW 2000, Australia",
    "suburb": "Level 2/191 Macquarie St",
    "state": "NSW",
    "rating": 4.8,
    "reviews": 58,
    "lat": -33.8669949,
    "lng": 151.2120809,
    "place_id": "ChIJL3W6_0CuEmsRgovhlcwFgbY",
    "maps_url": "https://www.google.com/maps/place/?q=place_id:ChIJL3W6_0CuEmsRgovhlcwFgbY"
  },
  {
    "name": "bloom hearing specialists Sydney",
    "address": "Level 5/283 George St, Sydney NSW 2000, Australia",
    "suburb": "Sydney NSW 2000",
    "state": "NSW",
    "rating": 4.3,
    "reviews": 16,
    "lat": -33.8654354,
    "lng": 151.2070341,
    "place_id": "ChIJnR3EkYR1bqoRFRrMLKuqav8",
    "maps_url": "https://www.google.com/maps/place/?q=place_id:ChIJnR3EkYR1bqoRFRrMLKuqav8"
  },
  {
    "name": "Earworx",
    "address": "1 Jamison St, Sydney NSW 2000, Australia",
    "suburb": "Sydney NSW 2000",
    "state": "NSW",
    "rating": 4.9,
    "reviews": 384,
    "lat": -33.8646855,
    "lng": 151.2057724,
    "place_id": "ChIJXeA74xitEmsRGuQ-KcPGuqo",
    "maps_url": "https://www.google.com/maps/place/?q=place_id:ChIJXeA74xitEmsRGuQ-KcPGuqo"
  },
  {
    "name": "Sydney Hearing Services",
    "address": "Level 8/139 Macquarie St, Sydney NSW 2000, Australia",
    "suburb": "Sydney NSW 2000",
    "state": "NSW",
    "rating": 4.6,
    "reviews": 10,
    "lat": -33.8644177,
    "lng": 151.2123843,
    "place_id": "ChIJW7Q05s2vEmsRLQCuPY0GEhw",
    "maps_url": "https://www.google.com/maps/place/?q=place_id:ChIJW7Q05s2vEmsRLQCuPY0GEhw"
  },
  {
    "name": "Audika Hearing Clinic Parramatta",
    "address": "Westfield Parramatta, Shop 2170/159-175 Church St, Parramatta NSW 2150, Australia",
    "suburb": "Shop 2170/159-175 Church St",
    "state": "NSW",
    "rating": 4.7,
    "reviews": 63,
    "lat": -33.8169366,
    "lng": 151.0017972,
    "place_id": "ChIJWWEv9B6jEmsRT5UcqbE2gAY",
    "maps_url": "https://www.google.com/maps/place/?q=place_id:ChIJWWEv9B6jEmsRT5UcqbE2gAY"
  },
  {
    "name": "Hearing Australia Parramatta",
    "address": "128 Marsden St, Parramatta NSW 2150, Australia",
    "suburb": "Parramatta NSW 2150",
    "state": "NSW",
    "rating": 4.7,
    "reviews": 91,
    "lat": -33.8166623,
    "lng": 151.0009593,
    "place_id": "ChIJu4cvDCCjEmsRp7LRj82RCdo",
    "maps_url": "https://www.google.com/maps/place/?q=place_id:ChIJu4cvDCCjEmsRp7LRj82RCdo"
  },
  {
    "name": "Amplifon Parramatta",
    "address": "Westfield Parramatta, Level 2, Shop 2175/159-175 Church St, Parramatta NSW 2150, Australia",
    "suburb": "Level 2",
    "state": "NSW",
    "rating": 4.1,
    "reviews": 29,
    "lat": -33.8173782,
    "lng": 151.0016557,
    "place_id": "ChIJ_WKTdB-jEmsRuTL-MVOH1eA",
    "maps_url": "https://www.google.com/maps/place/?q=place_id:ChIJ_WKTdB-jEmsRuTL-MVOH1eA"
  },
  {
    "name": "Connect Hearing",
    "address": "Audiology Suite, Gold Cross Medical Centre, 1A Grose St, North Parramatta NSW 2151, Australia",
    "suburb": "Gold Cross Medical Centre",
    "state": "NSW",
    "rating": 4.9,
    "reviews": 131,
    "lat": -33.8066171,
    "lng": 151.002531,
    "place_id": "ChIJyRAs4d-iEmsR8SC-zTrYD6U",
    "maps_url": "https://www.google.com/maps/place/?q=place_id:ChIJyRAs4d-iEmsR8SC-zTrYD6U"
  },
  {
    "name": "Glynis McPherson Hearing Clinic",
    "address": "48 Hudson St, Hamilton NSW 2303, Australia",
    "suburb": "Hamilton NSW 2303",
    "state": "NSW",
    "rating": 4.9,
    "reviews": 184,
    "lat": -32.9179564,
    "lng": 151.7442043,
    "place_id": "ChIJwXdSWKwVc2sR6UI9XaeMRXg",
    "maps_url": "https://www.google.com/maps/place/?q=place_id:ChIJwXdSWKwVc2sR6UI9XaeMRXg"
  },
  {
    "name": "Audika Hearing Clinic Newcastle",
    "address": "209 Hunter St, Newcastle NSW 2300, Australia",
    "suburb": "Newcastle NSW 2300",
    "state": "NSW",
    "rating": 4.9,
    "reviews": 29,
    "lat": -32.9268354,
    "lng": 151.7779841,
    "place_id": "ChIJkyi6_WQUc2sRELYyqz50D5E",
    "maps_url": "https://www.google.com/maps/place/?q=place_id:ChIJkyi6_WQUc2sRELYyqz50D5E"
  },
  {
    "name": "Newcastle Audiology Centre",
    "address": "1/102 Glebe Rd, The Junction NSW 2291, Australia",
    "suburb": "The Junction NSW 2291",
    "state": "NSW",
    "rating": 2.3,
    "reviews": 3,
    "lat": -32.938481,
    "lng": 151.757417,
    "place_id": "ChIJp4z9FDcUc2sRCkxWxWG0Fng",
    "maps_url": "https://www.google.com/maps/place/?q=place_id:ChIJp4z9FDcUc2sRCkxWxWG0Fng"
  },
  {
    "name": "Newcastle Hearing Centre for Children",
    "address": "218 Pacific Highway entrance via, Newcastle Health Enterprise, Pearson St, Charlestown NSW 2290, Australia",
    "suburb": "Newcastle Health Enterprise",
    "state": "NSW",
    "rating": 4.8,
    "reviews": 6,
    "lat": -32.9618058,
    "lng": 151.6958197,
    "place_id": "ChIJ3dbm1C0-c2sRIA6NlcX2CyU",
    "maps_url": "https://www.google.com/maps/place/?q=place_id:ChIJ3dbm1C0-c2sRIA6NlcX2CyU"
  },
  {
    "name": "Family Hearing Centre",
    "address": "H Plus Consulting Suites, Level 1, Suite 3a/472 The Esplanade, Warners Bay NSW 2282, Australia",
    "suburb": "Level 1",
    "state": "NSW",
    "rating": 5,
    "reviews": 63,
    "lat": -32.9746238,
    "lng": 151.6449022,
    "place_id": "ChIJUdT8j4A9c2sRVeYYUlzEFgo",
    "maps_url": "https://www.google.com/maps/place/?q=place_id:ChIJUdT8j4A9c2sRVeYYUlzEFgo"
  },
  {
    "name": "Connect Hearing",
    "address": "14 Cromwell St, New Lambton NSW 2305, Australia",
    "suburb": "New Lambton NSW 2305",
    "state": "NSW",
    "rating": 4.9,
    "reviews": 173,
    "lat": -32.9232155,
    "lng": 151.7145071,
    "place_id": "ChIJ7aqqOWYUc2sRrd0Qh8iCm0A",
    "maps_url": "https://www.google.com/maps/place/?q=place_id:ChIJ7aqqOWYUc2sRrd0Qh8iCm0A"
  },
  {
    "name": "Hunter ENT Hearing",
    "address": "Suite 2, level 2, Konara/15 Lambton Rd, Broadmeadow NSW 2292, Australia",
    "suburb": "level 2",
    "state": "NSW",
    "rating": 4.5,
    "reviews": 59,
    "lat": -32.9249065,
    "lng": 151.7356213,
    "place_id": "ChIJ52CY8B4-c2sRD9AMHkgz4PA",
    "maps_url": "https://www.google.com/maps/place/?q=place_id:ChIJ52CY8B4-c2sRD9AMHkgz4PA"
  },
  {
    "name": "Hearing Australia Newcastle",
    "address": "Otp House, Suite 9/10 Bradford Cl, Kotara NSW 2289, Australia",
    "suburb": "Suite 9/10 Bradford Cl",
    "state": "NSW",
    "rating": 4.9,
    "reviews": 86,
    "lat": -32.9373914,
    "lng": 151.7103642,
    "place_id": "ChIJe5dIE_sVc2sRvXpfogfNnPs",
    "maps_url": "https://www.google.com/maps/place/?q=place_id:ChIJe5dIE_sVc2sRvXpfogfNnPs"
  },
  {
    "name": "Earworx",
    "address": "321 Main Rd, Cardiff NSW 2285, Australia",
    "suburb": "Cardiff NSW 2285",
    "state": "NSW",
    "rating": 5,
    "reviews": 337,
    "lat": -32.9397194,
    "lng": 151.6604028,
    "place_id": "ChIJGTlkG2o9c2sR57SIqkvXUuo",
    "maps_url": "https://www.google.com/maps/place/?q=place_id:ChIJGTlkG2o9c2sR57SIqkvXUuo"
  },
  {
    "name": "Audika Hearing Clinic Charlestown",
    "address": "L01 1078/30 Pearson St, Charlestown NSW 2290, Australia",
    "suburb": "Charlestown NSW 2290",
    "state": "NSW",
    "rating": 5,
    "reviews": 7,
    "lat": -32.9641117,
    "lng": 151.6938488,
    "place_id": "ChIJvYYkMIA9c2sRfFv3RFM0ass",
    "maps_url": "https://www.google.com/maps/place/?q=place_id:ChIJvYYkMIA9c2sRfFv3RFM0ass"
  },
  {
    "name": "All Ears Clear",
    "address": "102/489 Hunter St, Newcastle NSW 2300, Australia",
    "suburb": "Newcastle NSW 2300",
    "state": "NSW",
    "rating": 5,
    "reviews": 4,
    "lat": -32.9274932,
    "lng": 151.7686462,
    "place_id": "ChIJK5MVEs0Vc2sRZRhLVay9iBA",
    "maps_url": "https://www.google.com/maps/place/?q=place_id:ChIJK5MVEs0Vc2sRZRhLVay9iBA"
  },
  {
    "name": "Audika Hearing Clinic Kotara",
    "address": "1012A Northcott Dr, Kotara NSW 2289, Australia",
    "suburb": "Kotara NSW 2289",
    "state": "NSW",
    "rating": 4.5,
    "reviews": 23,
    "lat": -32.94233,
    "lng": 151.7111849,
    "place_id": "ChIJnXuRU_sVc2sR09CMbqQ9BhQ",
    "maps_url": "https://www.google.com/maps/place/?q=place_id:ChIJnXuRU_sVc2sR09CMbqQ9BhQ"
  },
  {
    "name": "Audika Hearing Clinic Warners Bay",
    "address": "Advanced Dental Prosthetics Clinic, 1 Pring St, Warners Bay NSW 2282, Australia",
    "suburb": "1 Pring St",
    "state": "NSW",
    "rating": 4.9,
    "reviews": 20,
    "lat": -32.9716367,
    "lng": 151.6504608,
    "place_id": "ChIJpaDuPYY9c2sReZ8x8kEy9-A",
    "maps_url": "https://www.google.com/maps/place/?q=place_id:ChIJpaDuPYY9c2sReZ8x8kEy9-A"
  },
  {
    "name": "Lake Hearing",
    "address": "26 Macquarie St, Belmont NSW 2280, Australia",
    "suburb": "Belmont NSW 2280",
    "state": "NSW",
    "rating": 5,
    "reviews": 173,
    "lat": -33.0361896,
    "lng": 151.6595125,
    "place_id": "ChIJM6lF9-4jc2sRxae6Mor15wk",
    "maps_url": "https://www.google.com/maps/place/?q=place_id:ChIJM6lF9-4jc2sRxae6Mor15wk"
  },
  {
    "name": "The Ear Nurse",
    "address": "Shop 6/41 Charles St, Warners Bay NSW 2282, Australia",
    "suburb": "Warners Bay NSW 2282",
    "state": "NSW",
    "rating": 5,
    "reviews": 11,
    "lat": -32.9733919,
    "lng": 151.6464437,
    "place_id": "ChIJs5tfHfU9c2sRLa_5casIaEs",
    "maps_url": "https://www.google.com/maps/place/?q=place_id:ChIJs5tfHfU9c2sRLa_5casIaEs"
  },
  {
    "name": "Local Hearing Aid Specialists",
    "address": "Shop/4 Dan Rees St, Wallsend NSW 2287, Australia",
    "suburb": "Wallsend NSW 2287",
    "state": "NSW",
    "rating": 4.2,
    "reviews": 9,
    "lat": -32.9028087,
    "lng": 151.669305,
    "place_id": "ChIJAZ0M-Ro_c2sR0KemjoZYz5o",
    "maps_url": "https://www.google.com/maps/place/?q=place_id:ChIJAZ0M-Ro_c2sR0KemjoZYz5o"
  },
  {
    "name": "Earport Audiology",
    "address": "Suite 211, Room 6/99 Pacific Hwy, Charlestown NSW 2290, Australia",
    "suburb": "Room 6/99 Pacific Hwy",
    "state": "NSW",
    "rating": 5,
    "reviews": 2,
    "lat": -32.965262,
    "lng": 151.6958938,
    "place_id": "ChIJ5yaC8EA9c2sRIKahbEjUlms",
    "maps_url": "https://www.google.com/maps/place/?q=place_id:ChIJ5yaC8EA9c2sRIKahbEjUlms"
  },
  {
    "name": "Advanced Hearing Care",
    "address": "10 High St, Belmont NSW 2280, Australia",
    "suburb": "Belmont NSW 2280",
    "state": "NSW",
    "rating": 4.9,
    "reviews": 14,
    "lat": -33.0375207,
    "lng": 151.6591377,
    "place_id": "ChIJr3ZUKOEic2sREcooZHQRoQM",
    "maps_url": "https://www.google.com/maps/place/?q=place_id:ChIJr3ZUKOEic2sREcooZHQRoQM"
  },
  {
    "name": "Hearing Care Experts",
    "address": "Shop 6/289 Brunker Rd, Adamstown NSW 2289, Australia",
    "suburb": "Adamstown NSW 2289",
    "state": "NSW",
    "rating": 5,
    "reviews": 6,
    "lat": -32.9356712,
    "lng": 151.7258759,
    "place_id": "ChIJveFcVSEVc2sR0eDOSyw4dfU",
    "maps_url": "https://www.google.com/maps/place/?q=place_id:ChIJveFcVSEVc2sR0eDOSyw4dfU"
  },
  {
    "name": "bloom hearing specialists Newcastle",
    "address": "Family Practice, 235 Darby St, Cooks Hill NSW 2300, Australia",
    "suburb": "235 Darby St",
    "state": "NSW",
    "rating": 4,
    "reviews": 1,
    "lat": -32.9359814,
    "lng": 151.768353,
    "place_id": "ChIJ0S_qZ3YVc2sRGZviClYRl0A",
    "maps_url": "https://www.google.com/maps/place/?q=place_id:ChIJ0S_qZ3YVc2sRGZviClYRl0A"
  },
  {
    "name": "Enhance Hearing - Hearing Clinic in Wollongong",
    "address": "Wollongong Central shopping centre, Level 1, Shop 148/200 Crown St, Wollongong NSW 2500, Australia",
    "suburb": "Level 1",
    "state": "NSW",
    "rating": 5,
    "reviews": 29,
    "lat": -34.4242408,
    "lng": 150.8942729,
    "place_id": "ChIJDYL9DawZE2sRAgdgsW4thig",
    "maps_url": "https://www.google.com/maps/place/?q=place_id:ChIJDYL9DawZE2sRAgdgsW4thig"
  },
  {
    "name": "Connect Hearing",
    "address": "Lower Ground Floor, West Building, Shop 5A/200 Crown St, Wollongong NSW 2500, Australia",
    "suburb": "West Building",
    "state": "NSW",
    "rating": 4.7,
    "reviews": 52,
    "lat": -34.4243392,
    "lng": 150.8940642,
    "place_id": "ChIJwzDisagZE2sRN0AGaz7Dv34",
    "maps_url": "https://www.google.com/maps/place/?q=place_id:ChIJwzDisagZE2sRN0AGaz7Dv34"
  },
  {
    "name": "Audika Hearing Clinic Wollongong",
    "address": "54, Unit 6/60 Burelli St, Wollongong NSW 2500, Australia",
    "suburb": "Unit 6/60 Burelli St",
    "state": "NSW",
    "rating": 4.7,
    "reviews": 35,
    "lat": -34.4263416,
    "lng": 150.8958823,
    "place_id": "ChIJoRJVSa8ZE2sRXfzhqLhKJz0",
    "maps_url": "https://www.google.com/maps/place/?q=place_id:ChIJoRJVSa8ZE2sRXfzhqLhKJz0"
  },
  {
    "name": "Amplifon Wollongong",
    "address": "Shop 2/162 Crown St, Wollongong NSW 2500, Australia",
    "suburb": "Wollongong NSW 2500",
    "state": "NSW",
    "rating": 4.8,
    "reviews": 67,
    "lat": -34.4249998,
    "lng": 150.8949347,
    "place_id": "ChIJmc0LnKMZE2sRjlBr1xb3y1Q",
    "maps_url": "https://www.google.com/maps/place/?q=place_id:ChIJmc0LnKMZE2sRjlBr1xb3y1Q"
  },
  {
    "name": "The Centre for Hearing",
    "address": "Illawarra Specialist Healthcare, 50 Church St, Wollongong NSW 2500, Australia",
    "suburb": "50 Church St",
    "state": "NSW",
    "rating": 5,
    "reviews": 4,
    "lat": -34.4205108,
    "lng": 150.8962092,
    "place_id": "ChIJow96f0QZE2sRBYbe08GfT9Q",
    "maps_url": "https://www.google.com/maps/place/?q=place_id:ChIJow96f0QZE2sRBYbe08GfT9Q"
  },
  {
    "name": "Advanced Hearing Solutions",
    "address": "326 Crown St, Wollongong NSW 2500, Australia",
    "suburb": "Wollongong NSW 2500",
    "state": "NSW",
    "rating": 5,
    "reviews": 3,
    "lat": -34.425339,
    "lng": 150.886811,
    "place_id": "ChIJUaZH-kkZE2sR63_SkUuO-Fg",
    "maps_url": "https://www.google.com/maps/place/?q=place_id:ChIJUaZH-kkZE2sR63_SkUuO-Fg"
  },
  {
    "name": "Ear Clean Clinic",
    "address": "Station St side, Unit 3/313-323 Crown St, Wollongong NSW 2500, Australia",
    "suburb": "Unit 3/313-323 Crown St",
    "state": "NSW",
    "rating": 4.7,
    "reviews": 14,
    "lat": -34.4260329,
    "lng": 150.8896802,
    "place_id": "ChIJRWwUiqUZE2sRSjtIkChdtPE",
    "maps_url": "https://www.google.com/maps/place/?q=place_id:ChIJRWwUiqUZE2sRSjtIkChdtPE"
  },
  {
    "name": "Neurosensory Wollongong",
    "address": "Ground Floor 4/6 Victoria St, Wollongong NSW 2500, Australia",
    "suburb": "Wollongong NSW 2500",
    "state": "NSW",
    "rating": 5,
    "reviews": 1,
    "lat": -34.4219999,
    "lng": 150.8927262,
    "place_id": "ChIJ90VChEEZE2sRJl5ymZYECvI",
    "maps_url": "https://www.google.com/maps/place/?q=place_id:ChIJ90VChEEZE2sRJl5ymZYECvI"
  },
  {
    "name": "Freedom Hearing Wollongong",
    "address": "328C Crown St, Wollongong NSW 2500, Australia",
    "suburb": "Wollongong NSW 2500",
    "state": "NSW",
    "rating": 4,
    "reviews": 4,
    "lat": -34.4253877,
    "lng": 150.886636,
    "place_id": "ChIJt7dQvaAZE2sRpMmQHiGYOnM",
    "maps_url": "https://www.google.com/maps/place/?q=place_id:ChIJt7dQvaAZE2sRpMmQHiGYOnM"
  },
  {
    "name": "Emma's Ears",
    "address": "Kincumber Village Shopping Centre, Shop 30/43 Avoca Dr, Kincumber NSW 2251, Australia",
    "suburb": "Shop 30/43 Avoca Dr",
    "state": "NSW",
    "rating": 5,
    "reviews": 18,
    "lat": -33.4673136,
    "lng": 151.3826373,
    "place_id": "ChIJ90phaN_JcmsRooexEKI7kaQ",
    "maps_url": "https://www.google.com/maps/place/?q=place_id:ChIJ90phaN_JcmsRooexEKI7kaQ"
  },
  {
    "name": "Hearing Australia Erina",
    "address": "Platinum Building, Suite 1.06/4 Ilya Ave, Erina NSW 2250, Australia",
    "suburb": "Suite 1.06/4 Ilya Ave",
    "state": "NSW",
    "rating": 4.9,
    "reviews": 92,
    "lat": -33.4395719,
    "lng": 151.3836712,
    "place_id": "ChIJGVVHjXbKcmsR2wZ1HiF8h4M",
    "maps_url": "https://www.google.com/maps/place/?q=place_id:ChIJGVVHjXbKcmsR2wZ1HiF8h4M"
  },
  {
    "name": "Focus Hearing - Hearing Aid Clinic & Hearing Tests Central Coast",
    "address": "2/168-170 Central Coast Hwy, Erina NSW 2250, Australia",
    "suburb": "Erina NSW 2250",
    "state": "NSW",
    "rating": 5,
    "reviews": 65,
    "lat": -33.4372998,
    "lng": 151.3847285,
    "place_id": "ChIJV6fV-HnKcmsRaf_XIMEydQY",
    "maps_url": "https://www.google.com/maps/place/?q=place_id:ChIJV6fV-HnKcmsRaf_XIMEydQY"
  },
  {
    "name": "Connect Hearing",
    "address": "Shop 6/2 Berith St, Umina Beach NSW 2257, Australia",
    "suburb": "Umina Beach NSW 2257",
    "state": "NSW",
    "rating": 4.9,
    "reviews": 51,
    "lat": -33.5221005,
    "lng": 151.3182704,
    "place_id": "ChIJJ7tGK7FMDWsRW_Snu_OD524",
    "maps_url": "https://www.google.com/maps/place/?q=place_id:ChIJJ7tGK7FMDWsRW_Snu_OD524"
  },
  {
    "name": "Hearing Australia Toukley",
    "address": "3/28 Canton Beach Rd, Toukley NSW 2263, Australia",
    "suburb": "Toukley NSW 2263",
    "state": "NSW",
    "rating": 4.8,
    "reviews": 47,
    "lat": -33.2651612,
    "lng": 151.5406249,
    "place_id": "ChIJCRcR3VzacmsRjIVgMpYnNB8",
    "maps_url": "https://www.google.com/maps/place/?q=place_id:ChIJCRcR3VzacmsRjIVgMpYnNB8"
  },
  {
    "name": "Audika Hearing Clinic Erina",
    "address": "Terrigal Dr, Erina NSW 2250, Australia",
    "suburb": "Erina NSW 2250",
    "state": "NSW",
    "rating": 4.8,
    "reviews": 37,
    "lat": -33.4373357,
    "lng": 151.3926941,
    "place_id": "ChIJqTwEMHLKcmsRDFmbZhw5ZtA",
    "maps_url": "https://www.google.com/maps/place/?q=place_id:ChIJqTwEMHLKcmsRDFmbZhw5ZtA"
  },
  {
    "name": "Audika Hearing Clinic The Entrance",
    "address": "The Entrance Road, Lakeside Shopping Cent, Shop 12 Dening St, The Entrance NSW 2261, Australia",
    "suburb": "Lakeside Shopping Cent",
    "state": "NSW",
    "rating": 5,
    "reviews": 11,
    "lat": -33.3449986,
    "lng": 151.4964677,
    "place_id": "ChIJG36X-J3PcmsRzie0CtimGUM",
    "maps_url": "https://www.google.com/maps/place/?q=place_id:ChIJG36X-J3PcmsRzie0CtimGUM"
  },
  {
    "name": "All About Hearing",
    "address": "Healthy Self Centre, 60 Karalta Rd, Erina NSW 2250, Australia",
    "suburb": "60 Karalta Rd",
    "state": "NSW",
    "rating": 5,
    "reviews": 11,
    "lat": -33.4392642,
    "lng": 151.3895888,
    "place_id": "ChIJGVVHjXbKcmsRWPMKySJx8KA",
    "maps_url": "https://www.google.com/maps/place/?q=place_id:ChIJGVVHjXbKcmsRWPMKySJx8KA"
  },
  {
    "name": "Audika Hearing Clinic Woy Woy",
    "address": "Deepwater Plaza, Shop 1A/52 Railway St, Woy Woy NSW 2256, Australia",
    "suburb": "Shop 1A/52 Railway St",
    "state": "NSW",
    "rating": 4.8,
    "reviews": 34,
    "lat": -33.4876525,
    "lng": 151.3233598,
    "place_id": "ChIJvwng_zRLDWsRypRwLSxBIVM",
    "maps_url": "https://www.google.com/maps/place/?q=place_id:ChIJvwng_zRLDWsRypRwLSxBIVM"
  },
  {
    "name": "Telex Hearing Care",
    "address": "Kanwal Medical Complex, 654 Pacific Hwy, Kanwal NSW 2259, Australia",
    "suburb": "654 Pacific Hwy",
    "state": "NSW",
    "rating": 4.9,
    "reviews": 22,
    "lat": -33.2628167,
    "lng": 151.4798825,
    "place_id": "ChIJgetQ5lnQcmsRBJJZbx0s8EI",
    "maps_url": "https://www.google.com/maps/place/?q=place_id:ChIJgetQ5lnQcmsRBJJZbx0s8EI"
  },
  {
    "name": "Hearing Australia Lake Haven",
    "address": "Lake Haven Shopping Centre, 124/43 Lake Haven Dr, Lake Haven NSW 2263, Australia",
    "suburb": "124/43 Lake Haven Dr",
    "state": "NSW",
    "rating": 5,
    "reviews": 32,
    "lat": -33.2419177,
    "lng": 151.5030634,
    "place_id": "ChIJ06isHqPQcmsRGgSSfKoq64w",
    "maps_url": "https://www.google.com/maps/place/?q=place_id:ChIJ06isHqPQcmsRGgSSfKoq64w"
  },
  {
    "name": "Welfast Hearing Bateau Bay",
    "address": "Shop 020/12 Bay Village Rd, Bateau Bay NSW 2261, Australia",
    "suburb": "Bateau Bay NSW 2261",
    "state": "NSW",
    "rating": 4.8,
    "reviews": 6,
    "lat": -33.3747199,
    "lng": 151.4730116,
    "place_id": "ChIJWZons6PPcmsR5AevQ227pl0",
    "maps_url": "https://www.google.com/maps/place/?q=place_id:ChIJWZons6PPcmsR5AevQ227pl0"
  },
  {
    "name": "Hearing Australia The Entrance",
    "address": "28 Fairview Ave, The Entrance NSW 2261, Australia",
    "suburb": "The Entrance NSW 2261",
    "state": "NSW",
    "rating": 5,
    "reviews": 1,
    "lat": -33.3437798,
    "lng": 151.4966793,
    "place_id": "ChIJ8QDy2p3PcmsRVZhc7SAb4-0",
    "maps_url": "https://www.google.com/maps/place/?q=place_id:ChIJ8QDy2p3PcmsRVZhc7SAb4-0"
  },
  {
    "name": "Telex Hearing Care",
    "address": "Shop 3 Unit 3/470 Pacific Hwy, Wyoming NSW 2250, Australia",
    "suburb": "Wyoming NSW 2250",
    "state": "NSW",
    "rating": 4.9,
    "reviews": 27,
    "lat": -33.4092202,
    "lng": 151.3494198,
    "place_id": "ChIJrZr5KqTKcmsRAEegwpgB_YM",
    "maps_url": "https://www.google.com/maps/place/?q=place_id:ChIJrZr5KqTKcmsRAEegwpgB_YM"
  },
  {
    "name": "Amplifon Lake Haven",
    "address": "Shop 1001A Lake Haven Shopping Centre, Cnr Lake Haven Cres &, Goobarabah Ave, Lake Haven NSW 2263, Australia",
    "suburb": "Cnr Lake Haven Cres &",
    "state": "NSW",
    "rating": 4.6,
    "reviews": 28,
    "lat": -33.24230319999999,
    "lng": 151.5058486,
    "place_id": "ChIJye5iTKLQcmsRj6nxRe2kW6A",
    "maps_url": "https://www.google.com/maps/place/?q=place_id:ChIJye5iTKLQcmsRj6nxRe2kW6A"
  },
  {
    "name": "Audika Hearing Clinic Wyong",
    "address": "Optimum Health & Performance, Pacific Hwy, Wyong NSW 2259, Australia",
    "suburb": "Pacific Hwy",
    "state": "NSW",
    "rating": 5,
    "reviews": 2,
    "lat": -33.2674679,
    "lng": 151.4340889,
    "place_id": "ChIJVVUlRZPRcmsR6Vs6HpCd_g4",
    "maps_url": "https://www.google.com/maps/place/?q=place_id:ChIJVVUlRZPRcmsR6Vs6HpCd_g4"
  },
  {
    "name": "Amplifon The Entrance",
    "address": "Shop 18, Lakeside Shopping Centre Cnr Dening Street &, The Entrance Rd, The Entrance NSW 2261, Australia",
    "suburb": "Lakeside Shopping Centre Cnr Dening Street &",
    "state": "NSW",
    "rating": 3.9,
    "reviews": 16,
    "lat": -33.3448768,
    "lng": 151.4963437,
    "place_id": "ChIJt6jc83XPcmsRTKfuxy-9C_A",
    "maps_url": "https://www.google.com/maps/place/?q=place_id:ChIJt6jc83XPcmsRTKfuxy-9C_A"
  },
  {
    "name": "HEARING AUSTRALIA UMINA BEACH",
    "address": "Lone Pine Plaza, Shop C/02/357 Ocean Beach Rd, Umina Beach NSW 2257, Australia",
    "suburb": "Shop C/02/357 Ocean Beach Rd",
    "state": "NSW",
    "rating": 4.9,
    "reviews": 42,
    "lat": -33.5142945,
    "lng": 151.317467,
    "place_id": "ChIJqQrM4sVNDWsR-tnVfHroN10",
    "maps_url": "https://www.google.com/maps/place/?q=place_id:ChIJqQrM4sVNDWsR-tnVfHroN10"
  },
  {
    "name": "Telex Hearing Care",
    "address": "2 Farrar Rd, Killarney Vale NSW 2261, Australia",
    "suburb": "Killarney Vale NSW 2261",
    "state": "NSW",
    "rating": 4.4,
    "reviews": 16,
    "lat": -33.3667878,
    "lng": 151.461736,
    "place_id": "ChIJJxPZttnOcmsR7F0f9G1zk18",
    "maps_url": "https://www.google.com/maps/place/?q=place_id:ChIJJxPZttnOcmsR7F0f9G1zk18"
  },
  {
    "name": "Freedom Hearing Erina",
    "address": "West Wing, Suite 22, Level 2/4 Ilya Ave, Erina NSW 2250, Australia",
    "suburb": "Suite 22",
    "state": "NSW",
    "rating": 5,
    "reviews": 1,
    "lat": -33.4395234,
    "lng": 151.3838711,
    "place_id": "ChIJ98s8na7LcmsR8p1CMxriAV0",
    "maps_url": "https://www.google.com/maps/place/?q=place_id:ChIJ98s8na7LcmsR8p1CMxriAV0"
  },
  {
    "name": "Hear Clear Australia Penrith",
    "address": "Suite 2/20-24 Castlereagh St, Penrith NSW 2750, Australia",
    "suburb": "Penrith NSW 2750",
    "state": "NSW",
    "rating": 5,
    "reviews": 46,
    "lat": -33.7559229,
    "lng": 150.6987742,
    "place_id": "ChIJn2caIqqFEmsR9qaWDeHTmYk",
    "maps_url": "https://www.google.com/maps/place/?q=place_id:ChIJn2caIqqFEmsR9qaWDeHTmYk"
  },
  {
    "name": "Hearing Australia Penrith",
    "address": "Suite 1/31-33 Lawson St, Penrith NSW 2750, Australia",
    "suburb": "Penrith NSW 2750",
    "state": "NSW",
    "rating": 4.8,
    "reviews": 67,
    "lat": -33.7532681,
    "lng": 150.6998775,
    "place_id": "ChIJDQuhYvOFEmsRKJ0qru7pfUs",
    "maps_url": "https://www.google.com/maps/place/?q=place_id:ChIJDQuhYvOFEmsRKJ0qru7pfUs"
  },
  {
    "name": "Audika Hearing Clinic Penrith",
    "address": "521, Shop 5/527 High St, Penrith NSW 2750, Australia",
    "suburb": "Shop 5/527 High St",
    "state": "NSW",
    "rating": 4.3,
    "reviews": 33,
    "lat": -33.7526083,
    "lng": 150.6949791,
    "place_id": "ChIJt_f8fPSFEmsRsnZxRwcdFf8",
    "maps_url": "https://www.google.com/maps/place/?q=place_id:ChIJt_f8fPSFEmsRsnZxRwcdFf8"
  },
  {
    "name": "Bay Audio Penrith",
    "address": "Nepean Village, Shop SP015/122 Station St, Penrith NSW 2750, Australia",
    "suburb": "Shop SP015/122 Station St",
    "state": "NSW",
    "rating": 4.3,
    "reviews": 59,
    "lat": -33.7575948,
    "lng": 150.6922605,
    "place_id": "ChIJb09mUV-PEmsR6jOVsCsX9gk",
    "maps_url": "https://www.google.com/maps/place/?q=place_id:ChIJb09mUV-PEmsR6jOVsCsX9gk"
  },
  {
    "name": "Nepean Audiology Hearing Test Penrith",
    "address": "Level 3, Suite 314/1-9 Barber Ave, Kingswood NSW 2747, Australia",
    "suburb": "Suite 314/1-9 Barber Ave",
    "state": "NSW",
    "rating": 5,
    "reviews": 2,
    "lat": -33.7579116,
    "lng": 150.7131303,
    "place_id": "ChIJ4ypz-IWFEmsRzR-XVGuIB7A",
    "maps_url": "https://www.google.com/maps/place/?q=place_id:ChIJ4ypz-IWFEmsRzR-XVGuIB7A"
  },
  {
    "name": "Exact Hearing Services",
    "address": "Suite 203/68 Derby St, Kingswood NSW 2747, Australia",
    "suburb": "Kingswood NSW 2747",
    "state": "NSW",
    "rating": 4.9,
    "reviews": 150,
    "lat": -33.7612419,
    "lng": 150.7119903,
    "place_id": "ChIJF6GEiIeFEmsRgL7n72GosO4",
    "maps_url": "https://www.google.com/maps/place/?q=place_id:ChIJF6GEiIeFEmsRgL7n72GosO4"
  },
  {
    "name": "Amplifon Westfield Penrith Retail",
    "address": "Westfield Penrith, Shop 123/585-591 High St, Penrith NSW 2750, Australia",
    "suburb": "Shop 123/585-591 High St",
    "state": "NSW",
    "rating": 4.8,
    "reviews": 6,
    "lat": -33.7506759,
    "lng": 150.687674,
    "place_id": "ChIJm3U8m1mFEmsRCGoO25HE3PI",
    "maps_url": "https://www.google.com/maps/place/?q=place_id:ChIJm3U8m1mFEmsRCGoO25HE3PI"
  },
  {
    "name": "Better Hearing Clinic",
    "address": "Queen St, Penrith CA11 7XF, UK",
    "suburb": "Penrith CA11 7XF",
    "state": "NSW",
    "rating": 5,
    "reviews": 9,
    "lat": 54.665506,
    "lng": -2.7527681,
    "place_id": "ChIJ8YzUKPT7fEgRGwc-AO3fVBo",
    "maps_url": "https://www.google.com/maps/place/?q=place_id:ChIJ8YzUKPT7fEgRGwc-AO3fVBo"
  },
  {
    "name": "Hearing Aids' Professionals PENRITH NSW",
    "address": "Broad way Arcade, Shop 4/458-470 High St, Penrith NSW 2750, Australia",
    "suburb": "Shop 4/458-470 High St",
    "state": "NSW",
    "rating": 5,
    "reviews": 1,
    "lat": -33.7536956,
    "lng": 150.6963089,
    "place_id": "ChIJG9BFOn33DysRYR9krwz-3Dg",
    "maps_url": "https://www.google.com/maps/place/?q=place_id:ChIJG9BFOn33DysRYR9krwz-3Dg"
  },
  {
    "name": "Amplifon Penrith",
    "address": "Shops 11-13/488 High St, Penrith NSW 2750, Australia",
    "suburb": "Penrith NSW 2750",
    "state": "NSW",
    "rating": 3.7,
    "reviews": 22,
    "lat": -33.7532884,
    "lng": 150.6955568,
    "place_id": "ChIJ-Xbe9PSFEmsR6LZIiUdrCO4",
    "maps_url": "https://www.google.com/maps/place/?q=place_id:ChIJ-Xbe9PSFEmsR6LZIiUdrCO4"
  },
  {
    "name": "Australian Hearing & Balance Centre",
    "address": "86 Richmond Rd, Blacktown NSW 2148, Australia",
    "suburb": "Blacktown NSW 2148",
    "state": "NSW",
    "rating": 4.6,
    "reviews": 49,
    "lat": -33.762187,
    "lng": 150.8993359,
    "place_id": "ChIJb3jZWgSZEmsRhWIApAR0Qb4",
    "maps_url": "https://www.google.com/maps/place/?q=place_id:ChIJb3jZWgSZEmsRhWIApAR0Qb4"
  },
  {
    "name": "Audika Hearing Clinic Blacktown",
    "address": "Eastbrooke Medical Centre, Tenancy 1D Ground Floor/112 Main St, Blacktown NSW 2148, Australia",
    "suburb": "Tenancy 1D Ground Floor/112 Main St",
    "state": "NSW",
    "rating": 4.8,
    "reviews": 6,
    "lat": -33.7712562,
    "lng": 150.910311,
    "place_id": "ChIJ2VNp52WZEmsRhE-_KLFtf18",
    "maps_url": "https://www.google.com/maps/place/?q=place_id:ChIJ2VNp52WZEmsRhE-_KLFtf18"
  },
  {
    "name": "Connect Hearing",
    "address": "Westpoint Shopping Centre, Shop 1049/17 Patrick St, Blacktown NSW 2148, Australia",
    "suburb": "Shop 1049/17 Patrick St",
    "state": "NSW",
    "rating": 4.8,
    "reviews": 38,
    "lat": -33.7702736,
    "lng": 150.9059461,
    "place_id": "ChIJ0Tt5pP-YEmsRlP8sTqEOJsU",
    "maps_url": "https://www.google.com/maps/place/?q=place_id:ChIJ0Tt5pP-YEmsRlP8sTqEOJsU"
  },
  {
    "name": "Hearing Australia",
    "address": "Westpoint Shopping Centre, Level 2/17 Patrick St, Blacktown NSW 2148, Australia",
    "suburb": "Level 2/17 Patrick St",
    "state": "NSW",
    "rating": 4.4,
    "reviews": 47,
    "lat": -33.7698861,
    "lng": 150.9064874,
    "place_id": "ChIJUaJWeaqZEmsRS78BhBAtRec",
    "maps_url": "https://www.google.com/maps/place/?q=place_id:ChIJUaJWeaqZEmsRS78BhBAtRec"
  },
  {
    "name": "Amplifon Blacktown",
    "address": "1 Grafton St, Blacktown NSW 2148, Australia",
    "suburb": "Blacktown NSW 2148",
    "state": "NSW",
    "rating": 4.1,
    "reviews": 28,
    "lat": -33.7735054,
    "lng": 150.9135675,
    "place_id": "ChIJQ7fQDlaYEmsR8uKzh-rBoSc",
    "maps_url": "https://www.google.com/maps/place/?q=place_id:ChIJQ7fQDlaYEmsR8uKzh-rBoSc"
  },
  {
    "name": "Bay Audio Blacktown",
    "address": "Shop 1017 Westpoint/17 Patrick St, Blacktown NSW 2148, Australia",
    "suburb": "Blacktown NSW 2148",
    "state": "NSW",
    "rating": 2.5,
    "reviews": 8,
    "lat": -33.7701705,
    "lng": 150.906351,
    "place_id": "ChIJj11bslCZEmsRUL14okMUqV0",
    "maps_url": "https://www.google.com/maps/place/?q=place_id:ChIJj11bslCZEmsRUL14okMUqV0"
  },
  {
    "name": "Hearing Life Blacktown",
    "address": "112 Main St, Blacktown NSW 2148, Australia",
    "suburb": "Blacktown NSW 2148",
    "state": "NSW",
    "rating": null,
    "reviews": 0,
    "lat": -33.7711252,
    "lng": 150.9103785,
    "place_id": "ChIJJ0PYd_-YEmsRour6E7ruelM",
    "maps_url": "https://www.google.com/maps/place/?q=place_id:ChIJJ0PYd_-YEmsRour6E7ruelM"
  },
  {
    "name": "Cincotta Discount Chemist Blacktown (Compounding Chemist)",
    "address": "67 Main St, Blacktown NSW 2148, Australia",
    "suburb": "Blacktown NSW 2148",
    "state": "NSW",
    "rating": 4.2,
    "reviews": 192,
    "lat": -33.7698223,
    "lng": 150.9091751,
    "place_id": "ChIJc3YmnP-YEmsRt7AnK1wi2CU",
    "maps_url": "https://www.google.com/maps/place/?q=place_id:ChIJc3YmnP-YEmsRt7AnK1wi2CU"
  },
  {
    "name": "Hear Now Pty Ltd",
    "address": "Pacific Medical and Dental Centre, 23-27 First Ave, Blacktown NSW 2148, Australia",
    "suburb": "23-27 First Ave",
    "state": "NSW",
    "rating": null,
    "reviews": 0,
    "lat": -33.7673596,
    "lng": 150.9096715,
    "place_id": "ChIJ-8_FExWZEmsRp8zYpLNG0Gc",
    "maps_url": "https://www.google.com/maps/place/?q=place_id:ChIJ-8_FExWZEmsRp8zYpLNG0Gc"
  },
  {
    "name": "Hearing Australia Liverpool",
    "address": "13/15 Moore St, Liverpool NSW 2170, Australia",
    "suburb": "Liverpool NSW 2170",
    "state": "NSW",
    "rating": 4.8,
    "reviews": 89,
    "lat": -33.9227523,
    "lng": 150.9263384,
    "place_id": "ChIJoxcI6r6VEmsRiT_7xw2cQ54",
    "maps_url": "https://www.google.com/maps/place/?q=place_id:ChIJoxcI6r6VEmsRiT_7xw2cQ54"
  },
  {
    "name": "Audika Hearing Clinic Liverpool",
    "address": "Westfield Liverpool, Shop 1060 Macquarie St, Liverpool NSW 2170, Australia",
    "suburb": "Shop 1060 Macquarie St",
    "state": "NSW",
    "rating": 4.8,
    "reviews": 62,
    "lat": -33.9192132,
    "lng": 150.9237809,
    "place_id": "ChIJ9W6cSbmVEmsR-SHiqlXLzQA",
    "maps_url": "https://www.google.com/maps/place/?q=place_id:ChIJ9W6cSbmVEmsR-SHiqlXLzQA"
  },
  {
    "name": "Liverpool Hearing Centre",
    "address": "78 Rodney St, Liverpool L1 9AR, UK",
    "suburb": "Liverpool L1 9AR",
    "state": "NSW",
    "rating": 4.9,
    "reviews": 261,
    "lat": 53.3999141,
    "lng": -2.9739522,
    "place_id": "ChIJNSxhkCEhe0gRGF0e8Esxlkg",
    "maps_url": "https://www.google.com/maps/place/?q=place_id:ChIJNSxhkCEhe0gRGF0e8Esxlkg"
  },
  {
    "name": "Audience Hearing Liverpool",
    "address": "243 George St, Liverpool NSW 2170, Australia",
    "suburb": "Liverpool NSW 2170",
    "state": "NSW",
    "rating": 5,
    "reviews": 28,
    "lat": -33.9240361,
    "lng": 150.9245094,
    "place_id": "ChIJTT1tepWvEmsRpDzEBLLqNHg",
    "maps_url": "https://www.google.com/maps/place/?q=place_id:ChIJTT1tepWvEmsRpDzEBLLqNHg"
  },
  {
    "name": "Amplifon Liverpool",
    "address": "Suite 1b/72-74 Bathurst St, Liverpool NSW 2170, Australia",
    "suburb": "Liverpool NSW 2170",
    "state": "NSW",
    "rating": 4.4,
    "reviews": 22,
    "lat": -33.9234059,
    "lng": 150.9213969,
    "place_id": "ChIJvQAiO7qVEmsRPoF-52nSv3A",
    "maps_url": "https://www.google.com/maps/place/?q=place_id:ChIJvQAiO7qVEmsRPoF-52nSv3A"
  },
  {
    "name": "Enhance Hearing Liverpool",
    "address": "94 Moore St, Liverpool NSW 2170, Australia",
    "suburb": "Liverpool NSW 2170",
    "state": "NSW",
    "rating": 5,
    "reviews": 6,
    "lat": -33.9226874,
    "lng": 150.9230454,
    "place_id": "ChIJE2zGkseVEmsRPgJO3CT9-ug",
    "maps_url": "https://www.google.com/maps/place/?q=place_id:ChIJE2zGkseVEmsRPgJO3CT9-ug"
  },
  {
    "name": "Amplifon Liverpool Retail",
    "address": "Westfield Liverpool, Shop 1037/33-125 George St, Liverpool NSW 2170, Australia",
    "suburb": "Shop 1037/33-125 George St",
    "state": "NSW",
    "rating": 4.2,
    "reviews": 10,
    "lat": -33.9188911,
    "lng": 150.9244093,
    "place_id": "ChIJ9xx3B3qVEmsRuphCBV69Ri0",
    "maps_url": "https://www.google.com/maps/place/?q=place_id:ChIJ9xx3B3qVEmsRuphCBV69Ri0"
  },
  {
    "name": "bloom hearing specialists Liverpool",
    "address": "211 George St, Liverpool NSW 2170, Australia",
    "suburb": "Liverpool NSW 2170",
    "state": "NSW",
    "rating": 3.9,
    "reviews": 7,
    "lat": -33.9230853,
    "lng": 150.9245982,
    "place_id": "ChIJBfMCUrmVEmsRJE-Q3a-PxQU",
    "maps_url": "https://www.google.com/maps/place/?q=place_id:ChIJBfMCUrmVEmsRJE-Q3a-PxQU"
  },
  {
    "name": "Connect Hearing",
    "address": "Campbelltown Mall, Shop L20/271 Queen St, Campbelltown NSW 2560, Australia",
    "suburb": "Shop L20/271 Queen St",
    "state": "NSW",
    "rating": 4.6,
    "reviews": 44,
    "lat": -34.0682928,
    "lng": 150.8098231,
    "place_id": "ChIJ6yftt1XuEmsRoVG6Vx4s_Bs",
    "maps_url": "https://www.google.com/maps/place/?q=place_id:ChIJ6yftt1XuEmsRoVG6Vx4s_Bs"
  },
  {
    "name": "Hearing Australia Campbelltown",
    "address": "Centric Park, R9/4 Hyde Parade, Campbelltown NSW 2560, Australia",
    "suburb": "R9/4 Hyde Parade",
    "state": "NSW",
    "rating": 4.8,
    "reviews": 44,
    "lat": -34.0745433,
    "lng": 150.805098,
    "place_id": "ChIJ5WJSDFbuEmsReRAYgy2G-lU",
    "maps_url": "https://www.google.com/maps/place/?q=place_id:ChIJ5WJSDFbuEmsReRAYgy2G-lU"
  },
  {
    "name": "NeuroAudiology Australia | Campbelltown",
    "address": "Suite 14, Level 1/42 Parkside Cres, Campbelltown NSW 2560, Australia",
    "suburb": "Level 1/42 Parkside Cres",
    "state": "NSW",
    "rating": 5,
    "reviews": 184,
    "lat": -34.0755522,
    "lng": 150.8049778,
    "place_id": "ChIJzRYSSN3vEmsR3lHkf_uIhDQ",
    "maps_url": "https://www.google.com/maps/place/?q=place_id:ChIJzRYSSN3vEmsR3lHkf_uIhDQ"
  },
  {
    "name": "bloom hearing specialists Campbelltown",
    "address": "Medical Centre, 5/82/84 Queen St, Campbelltown NSW 2560, Australia",
    "suburb": "5/82/84 Queen St",
    "state": "NSW",
    "rating": 4.5,
    "reviews": 16,
    "lat": -34.063138,
    "lng": 150.8179851,
    "place_id": "ChIJCfIzbnvKsGoRCHjVnFgBOYc",
    "maps_url": "https://www.google.com/maps/place/?q=place_id:ChIJCfIzbnvKsGoRCHjVnFgBOYc"
  },
  {
    "name": "Amplifon Campbelltown",
    "address": "C024-025 Macarthur Square, Gilchrist Dr, Campbelltown NSW 2560, Australia",
    "suburb": "Gilchrist Dr",
    "state": "NSW",
    "rating": 4.5,
    "reviews": 30,
    "lat": -34.07499300000001,
    "lng": 150.7979653,
    "place_id": "ChIJV6sshMfuEmsR5JzBnO9mS7c",
    "maps_url": "https://www.google.com/maps/place/?q=place_id:ChIJV6sshMfuEmsR5JzBnO9mS7c"
  },
  {
    "name": "Amplifon Campbelltown Mall Retail",
    "address": "Campbelltown Mall, Shop U36/271 Queen St, Campbelltown NSW 2560, Australia",
    "suburb": "Shop U36/271 Queen St",
    "state": "NSW",
    "rating": 4.8,
    "reviews": 20,
    "lat": -34.0682876,
    "lng": 150.8098339,
    "place_id": "ChIJ-yHbzDrvEmsRFMWKbTTjSlc",
    "maps_url": "https://www.google.com/maps/place/?q=place_id:ChIJ-yHbzDrvEmsRFMWKbTTjSlc"
  },
  {
    "name": "Freedom Hearing Campbelltown",
    "address": "5/121 Queen St, Campbelltown NSW 2560, Australia",
    "suburb": "Campbelltown NSW 2560",
    "state": "NSW",
    "rating": 5,
    "reviews": 1,
    "lat": -34.0658173,
    "lng": 150.8147394,
    "place_id": "ChIJXZrizqPvEmsRNt8VgmU-B_4",
    "maps_url": "https://www.google.com/maps/place/?q=place_id:ChIJXZrizqPvEmsRNt8VgmU-B_4"
  },
  {
    "name": "Mac Hearing Audiology",
    "address": "Suite 104/4 Hyde Parade, Campbelltown NSW 2560, Australia",
    "suburb": "Campbelltown NSW 2560",
    "state": "NSW",
    "rating": 3.8,
    "reviews": 9,
    "lat": -34.0739675,
    "lng": 150.805096,
    "place_id": "ChIJrdeQr63vEmsRZp8m6TP1XhY",
    "maps_url": "https://www.google.com/maps/place/?q=place_id:ChIJrdeQr63vEmsRZp8m6TP1XhY"
  },
  {
    "name": "Amplifon Macarthur Square Retail",
    "address": "Macarthur Shopping Centre, Shop L03 U028/200 Gilchrist Dr, Campbelltown NSW 2560, Australia",
    "suburb": "Shop L03 U028/200 Gilchrist Dr",
    "state": "NSW",
    "rating": 4.6,
    "reviews": 31,
    "lat": -34.0762211,
    "lng": 150.7956583,
    "place_id": "ChIJdwZLXrHvEmsRYTwR2FdfKMU",
    "maps_url": "https://www.google.com/maps/place/?q=place_id:ChIJdwZLXrHvEmsRYTwR2FdfKMU"
  },
  {
    "name": "Mobile Earwax Specialist",
    "address": "Suite 14, Level 1/42 Parkside Cres, Campbelltown NSW 2560, Australia",
    "suburb": "Level 1/42 Parkside Cres",
    "state": "NSW",
    "rating": 5,
    "reviews": 122,
    "lat": -34.0755522,
    "lng": 150.8049778,
    "place_id": "ChIJ7QlR7-nvEmsRGNC1wpWVsRQ",
    "maps_url": "https://www.google.com/maps/place/?q=place_id:ChIJ7QlR7-nvEmsRGNC1wpWVsRQ"
  },
  {
    "name": "Enhance Hearing Campbelltown",
    "address": "241/243 Queen St, Campbelltown NSW 2560, Australia",
    "suburb": "Campbelltown NSW 2560",
    "state": "NSW",
    "rating": 5,
    "reviews": 1,
    "lat": -34.0681867,
    "lng": 150.8127701,
    "place_id": "ChIJF_kU8ibvEmsRlqK1xSbZ2AA",
    "maps_url": "https://www.google.com/maps/place/?q=place_id:ChIJF_kU8ibvEmsRlqK1xSbZ2AA"
  },
  {
    "name": "Mac Hearing at Gregory Hills",
    "address": "Suite 2103, Level 2, Building/A 31 Lasso Rd, Gregory Hills NSW 2557, Australia",
    "suburb": "Level 2",
    "state": "NSW",
    "rating": 5,
    "reviews": 7,
    "lat": -34.0223562,
    "lng": 150.7629652,
    "place_id": "ChIJo35qtlHxEmsRVS9rPlbpnPY",
    "maps_url": "https://www.google.com/maps/place/?q=place_id:ChIJo35qtlHxEmsRVS9rPlbpnPY"
  },
  {
    "name": "Hearing Life Campbelltown",
    "address": "Park Central Family Practice, Ground Floor, Suite 7/10, 1 Centennial Dr, Campbelltown NSW 2560, Australia",
    "suburb": "Ground Floor",
    "state": "NSW",
    "rating": null,
    "reviews": 0,
    "lat": -34.0735496,
    "lng": 150.8036154,
    "place_id": "ChIJ5WJSDFbuEmsRwG9EmdRyU9E",
    "maps_url": "https://www.google.com/maps/place/?q=place_id:ChIJ5WJSDFbuEmsRwG9EmdRyU9E"
  },
  {
    "name": "Hearing Australia Bankstown",
    "address": "Civic, Tower, 1/66/72 Rickard Rd, Bankstown NSW 2200, Australia",
    "suburb": "Tower",
    "state": "NSW",
    "rating": 4,
    "reviews": 21,
    "lat": -33.9151303,
    "lng": 151.0362968,
    "place_id": "ChIJM7W4tkQZMisRC5QpicVE9w8",
    "maps_url": "https://www.google.com/maps/place/?q=place_id:ChIJM7W4tkQZMisRC5QpicVE9w8"
  },
  {
    "name": "Amplifon Bankstown",
    "address": "Unit 4/69 The Mall, Bankstown NSW 2200, Australia",
    "suburb": "Bankstown NSW 2200",
    "state": "NSW",
    "rating": 4.5,
    "reviews": 36,
    "lat": -33.9159341,
    "lng": 151.0358599,
    "place_id": "ChIJKVNXYhC8EmsR89N5aq1pjfI",
    "maps_url": "https://www.google.com/maps/place/?q=place_id:ChIJKVNXYhC8EmsR89N5aq1pjfI"
  },
  {
    "name": "bloom hearing specialists Bankstown",
    "address": "Advance Medical and Dental, 25 Restwell St, Bankstown NSW 2200, Australia",
    "suburb": "25 Restwell St",
    "state": "NSW",
    "rating": null,
    "reviews": 0,
    "lat": -33.9196691,
    "lng": 151.034505,
    "place_id": "ChIJVbuP4w68EmsRAVDKaduORfI",
    "maps_url": "https://www.google.com/maps/place/?q=place_id:ChIJVbuP4w68EmsRAVDKaduORfI"
  },
  {
    "name": "Audi Hearing Clinic",
    "address": "Shop 22/1 Broadway, Punchbowl NSW 2196, Australia",
    "suburb": "Punchbowl NSW 2196",
    "state": "NSW",
    "rating": 4.8,
    "reviews": 36,
    "lat": -33.9261278,
    "lng": 151.0582841,
    "place_id": "ChIJnToUJse7EmsRzDDU7fw5n9k",
    "maps_url": "https://www.google.com/maps/place/?q=place_id:ChIJnToUJse7EmsRzDDU7fw5n9k"
  },
  {
    "name": "Bay Audio",
    "address": "Bankstown Central, Shop SP307 North Terrace, Bankstown NSW 2200, Australia",
    "suburb": "Shop SP307 North Terrace",
    "state": "NSW",
    "rating": 3,
    "reviews": 1,
    "lat": -33.9166225,
    "lng": 151.0375088,
    "place_id": "ChIJ9SH4AtK9EmsRQ38FinzTxFk",
    "maps_url": "https://www.google.com/maps/place/?q=place_id:ChIJ9SH4AtK9EmsRQ38FinzTxFk"
  },
  {
    "name": "Lions Hearing Clinic | Chatswood, NSW",
    "address": "Level 2 - 202/443 Victoria Ave, Chatswood NSW 2067, Australia",
    "suburb": "Chatswood NSW 2067",
    "state": "NSW",
    "rating": 4.7,
    "reviews": 114,
    "lat": -33.7962,
    "lng": 151.182152,
    "place_id": "ChIJ-WiX8SipEmsRqvBCmWh3WC0",
    "maps_url": "https://www.google.com/maps/place/?q=place_id:ChIJ-WiX8SipEmsRqvBCmWh3WC0"
  },
  {
    "name": "Audika Hearing Clinic Chatswood",
    "address": "1 Anderson Street, Shop 233/234 Westfield, Chatswood NSW 2067, Australia",
    "suburb": "Shop 233/234 Westfield",
    "state": "NSW",
    "rating": 4.8,
    "reviews": 41,
    "lat": -33.7967682,
    "lng": 151.1828639,
    "place_id": "ChIJPfBfDdSoEmsRpBsiDmp-BOA",
    "maps_url": "https://www.google.com/maps/place/?q=place_id:ChIJPfBfDdSoEmsRpBsiDmp-BOA"
  },
  {
    "name": "Hearing Australia Chatswood",
    "address": "Westfield Chatstood, Level 3, Shop 346/1 Anderson St, Chatswood NSW 2067, Australia",
    "suburb": "Level 3",
    "state": "NSW",
    "rating": 4.5,
    "reviews": 44,
    "lat": -33.7970008,
    "lng": 151.1842009,
    "place_id": "ChIJr1ZbFdSoEmsRA8oU7B5KRLg",
    "maps_url": "https://www.google.com/maps/place/?q=place_id:ChIJr1ZbFdSoEmsRA8oU7B5KRLg"
  },
  {
    "name": "Northside Audiology",
    "address": "2/1-3 Havilah St, Chatswood NSW 2067, Australia",
    "suburb": "Chatswood NSW 2067",
    "state": "NSW",
    "rating": 4.2,
    "reviews": 19,
    "lat": -33.7943521,
    "lng": 151.1871152,
    "place_id": "ChIJg-7uKBmqEmsRstxrvwxf2yo",
    "maps_url": "https://www.google.com/maps/place/?q=place_id:ChIJg-7uKBmqEmsRstxrvwxf2yo"
  },
  {
    "name": "Amplifon Chatswood",
    "address": "Shop 26/39 Victor St, Chatswood NSW 2067, Australia",
    "suburb": "Chatswood NSW 2067",
    "state": "NSW",
    "rating": 2.9,
    "reviews": 15,
    "lat": -33.7972184,
    "lng": 151.1823972,
    "place_id": "ChIJ7-8CZtSoEmsRRubcOqtU_uc",
    "maps_url": "https://www.google.com/maps/place/?q=place_id:ChIJ7-8CZtSoEmsRRubcOqtU_uc"
  },
  {
    "name": "Audika Hearing Clinic Hornsby",
    "address": "43 Palmerston Rd, Hornsby NSW 2077, Australia",
    "suburb": "Hornsby NSW 2077",
    "state": "NSW",
    "rating": 5,
    "reviews": 46,
    "lat": -33.7031181,
    "lng": 151.1110343,
    "place_id": "ChIJISU7f4mnEmsR6erkhpRZStg",
    "maps_url": "https://www.google.com/maps/place/?q=place_id:ChIJISU7f4mnEmsR6erkhpRZStg"
  },
  {
    "name": "Audiology Solutions",
    "address": "suite 25/25/29 Hunter St, Hornsby NSW 2077, Australia",
    "suburb": "Hornsby NSW 2077",
    "state": "NSW",
    "rating": 4.5,
    "reviews": 13,
    "lat": -33.7032149,
    "lng": 151.1004639,
    "place_id": "ChIJsYe1BISnEmsROeo-vVR-Xwg",
    "maps_url": "https://www.google.com/maps/place/?q=place_id:ChIJsYe1BISnEmsROeo-vVR-Xwg"
  },
  {
    "name": "Hearing Australia Hornsby",
    "address": "Unit 3/14 Edgeworth David Ave, Hornsby NSW 2077, Australia",
    "suburb": "Hornsby NSW 2077",
    "state": "NSW",
    "rating": 5,
    "reviews": 15,
    "lat": -33.7061413,
    "lng": 151.1021375,
    "place_id": "ChIJw-hK-YSnEmsRByVzf1sWEYc",
    "maps_url": "https://www.google.com/maps/place/?q=place_id:ChIJw-hK-YSnEmsRByVzf1sWEYc"
  },
  {
    "name": "Earz",
    "address": "Level 1, Room 4c/32-34 Florence St, Hornsby NSW 2077, Australia",
    "suburb": "Room 4c/32-34 Florence St",
    "state": "NSW",
    "rating": 5,
    "reviews": 74,
    "lat": -33.704368,
    "lng": 151.1015958,
    "place_id": "ChIJB9xgFlanEmsRFHC45Lr0Jlk",
    "maps_url": "https://www.google.com/maps/place/?q=place_id:ChIJB9xgFlanEmsRFHC45Lr0Jlk"
  },
  {
    "name": "Connect Hearing",
    "address": "Westfield Hornsby, Shop 1046/236 Pacific Hwy, Hornsby NSW 2077, Australia",
    "suburb": "Shop 1046/236 Pacific Hwy",
    "state": "NSW",
    "rating": 4.6,
    "reviews": 13,
    "lat": -33.7043415,
    "lng": 151.1006823,
    "place_id": "ChIJbT--G4OnEmsRFJGCPWfqTGA",
    "maps_url": "https://www.google.com/maps/place/?q=place_id:ChIJbT--G4OnEmsRFJGCPWfqTGA"
  },
  {
    "name": "Amplifon Hornsby",
    "address": "19 Station St, Hornsby NSW 2077, Australia",
    "suburb": "Hornsby NSW 2077",
    "state": "NSW",
    "rating": 3.5,
    "reviews": 15,
    "lat": -33.7031313,
    "lng": 151.097677,
    "place_id": "ChIJvfrBw4OnEmsRJrJBIIGfDHc",
    "maps_url": "https://www.google.com/maps/place/?q=place_id:ChIJvfrBw4OnEmsRJrJBIIGfDHc"
  },
  {
    "name": "Bay Audio",
    "address": "Shop 1072/236 Pacific Hwy, Hornsby NSW 2077, Australia",
    "suburb": "Hornsby NSW 2077",
    "state": "NSW",
    "rating": 5,
    "reviews": 3,
    "lat": -33.7035721,
    "lng": 151.101647,
    "place_id": "ChIJVVhAgIOnEmsRrLqaz05YLhs",
    "maps_url": "https://www.google.com/maps/place/?q=place_id:ChIJVVhAgIOnEmsRrLqaz05YLhs"
  },
  {
    "name": "The ENT Centre",
    "address": "Suite 12, Level 1 The Madison Building, 25-29 Hunter St, Hornsby NSW 2077, Australia",
    "suburb": "Level 1 The Madison Building",
    "state": "NSW",
    "rating": 3.9,
    "reviews": 28,
    "lat": -33.7032318,
    "lng": 151.1005249,
    "place_id": "ChIJsYe1BISnEmsRJ_yGeng0Auw",
    "maps_url": "https://www.google.com/maps/place/?q=place_id:ChIJsYe1BISnEmsRJ_yGeng0Auw"
  },
  {
    "name": "bloom hearing specialists Hornsby",
    "address": "Ear, Nose And Throat Clinic, 92 Balmoral St, Hornsby NSW 2077, Australia",
    "suburb": "Nose And Throat Clinic",
    "state": "NSW",
    "rating": null,
    "reviews": 0,
    "lat": -33.7031559,
    "lng": 151.1103973,
    "place_id": "ChIJH6RKd4mnEmsRC2RrdPAltNs",
    "maps_url": "https://www.google.com/maps/place/?q=place_id:ChIJH6RKd4mnEmsRC2RrdPAltNs"
  },
  {
    "name": "bloom hearing specialists Manly",
    "address": "7-9 Gilbert St, Manly NSW 2095, Australia",
    "suburb": "Manly NSW 2095",
    "state": "NSW",
    "rating": 5,
    "reviews": 1,
    "lat": -33.7983091,
    "lng": 151.2835554,
    "place_id": "ChIJZW_pAwmrEmsRBuqrHA84P9g",
    "maps_url": "https://www.google.com/maps/place/?q=place_id:ChIJZW_pAwmrEmsRBuqrHA84P9g"
  },
  {
    "name": "Amplifon Manly",
    "address": "32 Pittwater Rd, Manly NSW 2095, Australia",
    "suburb": "Manly NSW 2095",
    "state": "NSW",
    "rating": 3.8,
    "reviews": 5,
    "lat": -33.7946764,
    "lng": 151.2854884,
    "place_id": "ChIJoZZWEFerEmsRsB8q9twIVXE",
    "maps_url": "https://www.google.com/maps/place/?q=place_id:ChIJoZZWEFerEmsRsB8q9twIVXE"
  },
  {
    "name": "Lions Hearing Clinic | Bondi, NSW",
    "address": "Level 4, Suite 404/251 Oxford St, Bondi Junction NSW 2022, Australia",
    "suburb": "Suite 404/251 Oxford St",
    "state": "NSW",
    "rating": 5,
    "reviews": 22,
    "lat": -33.8916555,
    "lng": 151.2524141,
    "place_id": "ChIJyey4tkOtEmsRV4gOTNPsVDY",
    "maps_url": "https://www.google.com/maps/place/?q=place_id:ChIJyey4tkOtEmsRV4gOTNPsVDY"
  },
  {
    "name": "Audika Hearing Clinic Bondi Junction",
    "address": "Westfield, Level 1, Shop 1038/500 Oxford St, Bondi Junction NSW 2022, Australia",
    "suburb": "Level 1",
    "state": "NSW",
    "rating": 4.9,
    "reviews": 62,
    "lat": -33.8915695,
    "lng": 151.2505012,
    "place_id": "ChIJpwB1GfGtEmsRq_RfFaYFFN4",
    "maps_url": "https://www.google.com/maps/place/?q=place_id:ChIJpwB1GfGtEmsRq_RfFaYFFN4"
  },
  {
    "name": "Healthy Hearing and Balance Care",
    "address": "Suite 1204/1 Newland St, Bondi Junction NSW 2022, Australia",
    "suburb": "Bondi Junction NSW 2022",
    "state": "NSW",
    "rating": 5,
    "reviews": 16,
    "lat": -33.8919922,
    "lng": 151.2471252,
    "place_id": "ChIJqe2L7vCtEmsRr59Yt82IAjo",
    "maps_url": "https://www.google.com/maps/place/?q=place_id:ChIJqe2L7vCtEmsRr59Yt82IAjo"
  },
  {
    "name": "Bloom Hearing Specialists Bondi (Formerly TotalCare Hearing)",
    "address": "Shop 10, 251 Oxford Street, Bondi Junction, (Entrance on Corner of Hollywood Ave & Pine Lane), Sydney NSW 2022, Australia",
    "suburb": "251 Oxford Street",
    "state": "NSW",
    "rating": 4.7,
    "reviews": 15,
    "lat": -33.8918567,
    "lng": 151.2523533,
    "place_id": "ChIJ5VakOPKtEmsRnP04OIb9Y7Q",
    "maps_url": "https://www.google.com/maps/place/?q=place_id:ChIJ5VakOPKtEmsRnP04OIb9Y7Q"
  },
  {
    "name": "Amplifon Bondi Junction",
    "address": "Westfield, Shop 1001/500 Oxford St, Bondi Junction NSW 2022, Australia",
    "suburb": "Shop 1001/500 Oxford St",
    "state": "NSW",
    "rating": 3.6,
    "reviews": 19,
    "lat": -33.8914816,
    "lng": 151.2507062,
    "place_id": "ChIJCbhTCvqtEmsRPMYksuwtrfo",
    "maps_url": "https://www.google.com/maps/place/?q=place_id:ChIJCbhTCvqtEmsRPMYksuwtrfo"
  },
  {
    "name": "Precision Hearing",
    "address": "Level 2, Suite 15/51-53 Spring St, Bondi Junction NSW 2022, Australia",
    "suburb": "Suite 15/51-53 Spring St",
    "state": "NSW",
    "rating": 5,
    "reviews": 8,
    "lat": -33.89245,
    "lng": 151.246766,
    "place_id": "ChIJN8wjwPCtEmsRpd1Uqd6Gi90",
    "maps_url": "https://www.google.com/maps/place/?q=place_id:ChIJN8wjwPCtEmsRpd1Uqd6Gi90"
  },
  {
    "name": "Attune Hearing Newtown",
    "address": "Suite 7/155 Missenden Rd, Newtown NSW 2042, Australia",
    "suburb": "Newtown NSW 2042",
    "state": "NSW",
    "rating": 4.6,
    "reviews": 45,
    "lat": -33.892069,
    "lng": 151.182786,
    "place_id": "ChIJT2GwlC2wEmsR_bf-BVFf-pY",
    "maps_url": "https://www.google.com/maps/place/?q=place_id:ChIJT2GwlC2wEmsR_bf-BVFf-pY"
  },
  {
    "name": "Connect Hearing",
    "address": "Missenden Medical Suites, Shop 2a/155 Missenden Rd, Newtown NSW 2042, Australia",
    "suburb": "Shop 2a/155 Missenden Rd",
    "state": "NSW",
    "rating": 4.9,
    "reviews": 23,
    "lat": -33.89187,
    "lng": 151.1826986,
    "place_id": "ChIJ_xB6ki2wEmsRxOE3mA6UEb8",
    "maps_url": "https://www.google.com/maps/place/?q=place_id:ChIJ_xB6ki2wEmsRxOE3mA6UEb8"
  },
  {
    "name": "Missenden Medical Suites",
    "address": "Shop 1/155 Missenden Rd, Newtown NSW 2042, Australia",
    "suburb": "Newtown NSW 2042",
    "state": "NSW",
    "rating": 3.3,
    "reviews": 4,
    "lat": -33.8922255,
    "lng": 151.1827492,
    "place_id": "ChIJ_xB6ki2wEmsR0e0z_supQ_E",
    "maps_url": "https://www.google.com/maps/place/?q=place_id:ChIJ_xB6ki2wEmsR0e0z_supQ_E"
  },
  {
    "name": "Audika Hearing Clinic Marrickville",
    "address": "20 Smidmore St Shop 095B, Metro, Ground Floor, Marrickville NSW 2204, Australia",
    "suburb": "Metro",
    "state": "NSW",
    "rating": 5,
    "reviews": 2,
    "lat": -33.9074025,
    "lng": 151.1717369,
    "place_id": "ChIJ-yGkxD-xEmsRv3SWSJFoF60",
    "maps_url": "https://www.google.com/maps/place/?q=place_id:ChIJ-yGkxD-xEmsRv3SWSJFoF60"
  },
  {
    "name": "The Shepherd Centre",
    "address": "146 Burren St, Newtown NSW 2042, Australia",
    "suburb": "Newtown NSW 2042",
    "state": "NSW",
    "rating": 4.6,
    "reviews": 20,
    "lat": -33.8959525,
    "lng": 151.1846107,
    "place_id": "ChIJ5ZMYUNKxEmsR3oQjG2LLRhQ",
    "maps_url": "https://www.google.com/maps/place/?q=place_id:ChIJ5ZMYUNKxEmsR3oQjG2LLRhQ"
  },
  {
    "name": "Inner West Hearing",
    "address": "114 Percival Rd, Stanmore NSW 2048, Australia",
    "suburb": "Stanmore NSW 2048",
    "state": "NSW",
    "rating": 5,
    "reviews": 13,
    "lat": -33.8929833,
    "lng": 151.1643283,
    "place_id": "ChIJr-5fLz6wEmsRcl-kmTw9rQI",
    "maps_url": "https://www.google.com/maps/place/?q=place_id:ChIJr-5fLz6wEmsRcl-kmTw9rQI"
  },
  {
    "name": "Sydney Hearing Clinic",
    "address": "Shop 2/322 Kingsgrove Rd, Kingsgrove NSW 2208, Australia",
    "suburb": "Kingsgrove NSW 2208",
    "state": "NSW",
    "rating": 5,
    "reviews": 61,
    "lat": -33.9439333,
    "lng": 151.1020746,
    "place_id": "ChIJf_yK4Wi5EmsR9GkkftHwOF8",
    "maps_url": "https://www.google.com/maps/place/?q=place_id:ChIJf_yK4Wi5EmsR9GkkftHwOF8"
  },
  {
    "name": "Newtown ENT",
    "address": "Shop 6/155 Missenden Rd, Newtown NSW 2042, Australia",
    "suburb": "Newtown NSW 2042",
    "state": "NSW",
    "rating": 4.5,
    "reviews": 11,
    "lat": -33.8920002,
    "lng": 151.1824411,
    "place_id": "ChIJ4Wti7S2wEmsR1svwt4kTeSs",
    "maps_url": "https://www.google.com/maps/place/?q=place_id:ChIJ4Wti7S2wEmsR1svwt4kTeSs"
  },
  {
    "name": "Aids in Hearing",
    "address": "Shop 6/155 Missenden Rd, Newtown NSW 2042, Australia",
    "suburb": "Newtown NSW 2042",
    "state": "NSW",
    "rating": null,
    "reviews": 0,
    "lat": -33.8922267,
    "lng": 151.1827495,
    "place_id": "ChIJUUO4ypaxEmsRLxCzmEFa6ug",
    "maps_url": "https://www.google.com/maps/place/?q=place_id:ChIJUUO4ypaxEmsRLxCzmEFa6ug"
  },
  {
    "name": "Audika Hearing Clinic Wagga Wagga",
    "address": "Shop 1/179 Baylis St, Wagga Wagga NSW 2650, Australia",
    "suburb": "Wagga Wagga NSW 2650",
    "state": "NSW",
    "rating": 4.8,
    "reviews": 33,
    "lat": -35.112163,
    "lng": 147.3703313,
    "place_id": "ChIJbxjVjX-ZGGsRvadiKacvZ3U",
    "maps_url": "https://www.google.com/maps/place/?q=place_id:ChIJbxjVjX-ZGGsRvadiKacvZ3U"
  },
  {
    "name": "Hearing Australia Wagga Wagga",
    "address": "Commonwealth Government Offices, 2nd Floor/2 O'Reilly St, Wagga Wagga NSW 2650, Australia",
    "suburb": "2nd Floor/2 O'Reilly St",
    "state": "NSW",
    "rating": 4.6,
    "reviews": 39,
    "lat": -35.1116262,
    "lng": 147.372024,
    "place_id": "ChIJJ6ERqiqaGGsRS0yMg_gaoe4",
    "maps_url": "https://www.google.com/maps/place/?q=place_id:ChIJJ6ERqiqaGGsRS0yMg_gaoe4"
  },
  {
    "name": "Clayden Hearing",
    "address": "Unit 11/2-10 Docker St, Wagga Wagga NSW 2650, Australia",
    "suburb": "Wagga Wagga NSW 2650",
    "state": "NSW",
    "rating": 5,
    "reviews": 6,
    "lat": -35.1212838,
    "lng": 147.3549671,
    "place_id": "ChIJNbixTYGZGGsRIwBFUoXgdy4",
    "maps_url": "https://www.google.com/maps/place/?q=place_id:ChIJNbixTYGZGGsRIwBFUoXgdy4"
  },
  {
    "name": "Amplifon Wagga Wagga",
    "address": "52B Baylis St, Wagga Wagga NSW 2650, Australia",
    "suburb": "Wagga Wagga NSW 2650",
    "state": "NSW",
    "rating": 5,
    "reviews": 9,
    "lat": -35.1169078,
    "lng": 147.3688838,
    "place_id": "ChIJY_eQMXyZGGsRm2O1yCiZbPI",
    "maps_url": "https://www.google.com/maps/place/?q=place_id:ChIJY_eQMXyZGGsRm2O1yCiZbPI"
  },
  {
    "name": "bloom hearing specialists Wagga Wagga",
    "address": "135, Sturt Mall, Shop 3/143 Baylis St, Wagga Wagga NSW 2650, Australia",
    "suburb": "Sturt Mall",
    "state": "NSW",
    "rating": 4.4,
    "reviews": 5,
    "lat": -35.1135108,
    "lng": 147.3702123,
    "place_id": "ChIJd4JU3n6ZGGsRJjluxjrAPqQ",
    "maps_url": "https://www.google.com/maps/place/?q=place_id:ChIJd4JU3n6ZGGsRJjluxjrAPqQ"
  },
  {
    "name": "Essence Audiology Wagga Wagga",
    "address": "189 Baylis St, Wagga Wagga NSW 2650, Australia",
    "suburb": "Wagga Wagga NSW 2650",
    "state": "NSW",
    "rating": 5,
    "reviews": 1,
    "lat": -35.1117367,
    "lng": 147.3703335,
    "place_id": "ChIJnSs87bKZGGsRxU_DO3NyArQ",
    "maps_url": "https://www.google.com/maps/place/?q=place_id:ChIJnSs87bKZGGsRxU_DO3NyArQ"
  },
  {
    "name": "Connect Hearing",
    "address": "197 Baylis St, Wagga Wagga NSW 2650, Australia",
    "suburb": "Wagga Wagga NSW 2650",
    "state": "NSW",
    "rating": 5,
    "reviews": 2,
    "lat": -35.1114827,
    "lng": 147.3705485,
    "place_id": "ChIJnY-QIYCZGGsREmcJbHBzqg4",
    "maps_url": "https://www.google.com/maps/place/?q=place_id:ChIJnY-QIYCZGGsREmcJbHBzqg4"
  },
  {
    "name": "Wagga Hearing Support Centre",
    "address": "256 Kincaid St, Wagga Wagga NSW 2650, Australia",
    "suburb": "Wagga Wagga NSW 2650",
    "state": "NSW",
    "rating": 5,
    "reviews": 3,
    "lat": -35.1099844,
    "lng": 147.3501733,
    "place_id": "ChIJnxBsfY2ZGGsR9A3psQu6DfM",
    "maps_url": "https://www.google.com/maps/place/?q=place_id:ChIJnxBsfY2ZGGsR9A3psQu6DfM"
  },
  {
    "name": "Freedom Hearing Wagga Wagga",
    "address": "shop 32/269 Lake Albert Rd, Wagga Wagga NSW 2650, Australia",
    "suburb": "Wagga Wagga NSW 2650",
    "state": "NSW",
    "rating": 2.5,
    "reviews": 2,
    "lat": -35.1414301,
    "lng": 147.375585,
    "place_id": "ChIJE65hZHCZGGsRJbpV0x4qKIo",
    "maps_url": "https://www.google.com/maps/place/?q=place_id:ChIJE65hZHCZGGsRJbpV0x4qKIo"
  },
  {
    "name": "Amplifon Wagga Wagga Retail",
    "address": "Sturt Mall, 6/134 Baylis St, Wagga Wagga NSW 2650, Australia",
    "suburb": "6/134 Baylis St",
    "state": "NSW",
    "rating": 3.9,
    "reviews": 7,
    "lat": -35.1134865,
    "lng": 147.3706819,
    "place_id": "ChIJAeV8jCKZGGsRaEwmSO9edEs",
    "maps_url": "https://www.google.com/maps/place/?q=place_id:ChIJAeV8jCKZGGsRaEwmSO9edEs"
  },
  {
    "name": "Hearing Australia Tamworth",
    "address": "422/426 Peel St, Tamworth NSW 2340, Australia",
    "suburb": "Tamworth NSW 2340",
    "state": "NSW",
    "rating": 4.8,
    "reviews": 40,
    "lat": -31.0923232,
    "lng": 150.9317125,
    "place_id": "ChIJF3497O6YCmsRvCbd5qFyL84",
    "maps_url": "https://www.google.com/maps/place/?q=place_id:ChIJF3497O6YCmsRvCbd5qFyL84"
  },
  {
    "name": "Audika Hearing Clinic Tamworth",
    "address": "Tamworth Square, Shop T37/432-452 Peel St, Tamworth NSW 2340, Australia",
    "suburb": "Shop T37/432-452 Peel St",
    "state": "NSW",
    "rating": 4.8,
    "reviews": 20,
    "lat": -31.0927507,
    "lng": 150.9324757,
    "place_id": "ChIJNTrb_cmYCmsRo1kE4EOo5SU",
    "maps_url": "https://www.google.com/maps/place/?q=place_id:ChIJNTrb_cmYCmsRo1kE4EOo5SU"
  },
  {
    "name": "Southern Cross Audiology",
    "address": "110 Carthage St, East Tamworth NSW 2340, Australia",
    "suburb": "East Tamworth NSW 2340",
    "state": "NSW",
    "rating": 5,
    "reviews": 10,
    "lat": -31.0894741,
    "lng": 150.9354235,
    "place_id": "ChIJfTzBI46ZCmsRq_5rhF2O4K4",
    "maps_url": "https://www.google.com/maps/place/?q=place_id:ChIJfTzBI46ZCmsRq_5rhF2O4K4"
  },
  {
    "name": "Sharon King Hearing Centres",
    "address": "518 Peel St, Tamworth NSW 2340, Australia",
    "suburb": "Tamworth NSW 2340",
    "state": "NSW",
    "rating": 4.9,
    "reviews": 18,
    "lat": -31.0981583,
    "lng": 150.9371734,
    "place_id": "ChIJ1_2wG7qYCmsRxf5MsvPhPqM",
    "maps_url": "https://www.google.com/maps/place/?q=place_id:ChIJ1_2wG7qYCmsRxf5MsvPhPqM"
  },
  {
    "name": "Amplifon Tamworth",
    "address": "Shop 27, Tamworth Square, 432/452 Peel St, Tamworth NSW 2340, Australia",
    "suburb": "Tamworth Square",
    "state": "NSW",
    "rating": 5,
    "reviews": 7,
    "lat": -31.092778,
    "lng": 150.9323818,
    "place_id": "ChIJJ5oQPraYCmsRvyNw9hjERkE",
    "maps_url": "https://www.google.com/maps/place/?q=place_id:ChIJJ5oQPraYCmsRvyNw9hjERkE"
  },
  {
    "name": "bloom hearing specialists Tamworth",
    "address": "29 Dean St, North Tamworth NSW 2340, Australia",
    "suburb": "North Tamworth NSW 2340",
    "state": "NSW",
    "rating": 5,
    "reviews": 5,
    "lat": -31.0754908,
    "lng": 150.9231435,
    "place_id": "ChIJeQsF4TCfCmsReK-PxR3LMyo",
    "maps_url": "https://www.google.com/maps/place/?q=place_id:ChIJeQsF4TCfCmsReK-PxR3LMyo"
  },
  {
    "name": "Amplifon Tamworth Retail",
    "address": "Shop 28, Tamworth Shoppingworld, 67/81 Bridge St, Tamworth NSW 2340, Australia",
    "suburb": "Tamworth Shoppingworld",
    "state": "NSW",
    "rating": 5,
    "reviews": 6,
    "lat": -31.0916095,
    "lng": 150.9192159,
    "place_id": "ChIJpWXFSzyZCmsRsJCfq0jlo54",
    "maps_url": "https://www.google.com/maps/place/?q=place_id:ChIJpWXFSzyZCmsRsJCfq0jlo54"
  },
  {
    "name": "Audika Hearing Clinic Orange",
    "address": "Orange Central Square, Shop 15/227 Summer St, Orange NSW 2800, Australia",
    "suburb": "Shop 15/227 Summer St",
    "state": "NSW",
    "rating": 5,
    "reviews": 1,
    "lat": -33.2830966,
    "lng": 149.1001517,
    "place_id": "ChIJdZKaahotEGsRJ0FgsETty18",
    "maps_url": "https://www.google.com/maps/place/?q=place_id:ChIJdZKaahotEGsRJ0FgsETty18"
  },
  {
    "name": "Advanced Hearing Solutions",
    "address": "1/256-258 Anson St, Orange NSW 2800, Australia",
    "suburb": "Orange NSW 2800",
    "state": "NSW",
    "rating": 4.1,
    "reviews": 10,
    "lat": -33.280063,
    "lng": 149.099932,
    "place_id": "ChIJlTfbjM0sEGsRmPy3QiKnNd8",
    "maps_url": "https://www.google.com/maps/place/?q=place_id:ChIJlTfbjM0sEGsRmPy3QiKnNd8"
  },
  {
    "name": "Hearing Australia Orange",
    "address": "Level 1/122 Kite St, Orange NSW 2800, Australia",
    "suburb": "Orange NSW 2800",
    "state": "NSW",
    "rating": 4.5,
    "reviews": 31,
    "lat": -33.2863121,
    "lng": 149.1013336,
    "place_id": "ChIJsQK3idMsEGsROTm8Se5AqLM",
    "maps_url": "https://www.google.com/maps/place/?q=place_id:ChIJsQK3idMsEGsROTm8Se5AqLM"
  },
  {
    "name": "Connect Hearing",
    "address": "130-132 Summer St, Orange NSW 2800, Australia",
    "suburb": "Orange NSW 2800",
    "state": "NSW",
    "rating": 4.8,
    "reviews": 28,
    "lat": -33.2833454,
    "lng": 149.0966056,
    "place_id": "ChIJqXoJATzTEWsRytoJ9tzBOHU",
    "maps_url": "https://www.google.com/maps/place/?q=place_id:ChIJqXoJATzTEWsRytoJ9tzBOHU"
  },
  {
    "name": "Amplifon Orange Retail",
    "address": "Centre, Shop SV08/190 Anson St, Orange NSW 2800, Australia",
    "suburb": "Shop SV08/190 Anson St",
    "state": "NSW",
    "rating": 5,
    "reviews": 6,
    "lat": -33.285035,
    "lng": 149.0996914,
    "place_id": "ChIJkfhmHcotEGsRfI-rPBBLaK0",
    "maps_url": "https://www.google.com/maps/place/?q=place_id:ChIJkfhmHcotEGsRfI-rPBBLaK0"
  },
  {
    "name": "Central West Audiology",
    "address": "Level 5/1521 Forest Rd, Orange NSW 2800, Australia",
    "suburb": "Orange NSW 2800",
    "state": "NSW",
    "rating": null,
    "reviews": 0,
    "lat": -33.3157009,
    "lng": 149.0901052,
    "place_id": "ChIJx8Mv9mktEGsRDuAKpDqbmYY",
    "maps_url": "https://www.google.com/maps/place/?q=place_id:ChIJx8Mv9mktEGsRDuAKpDqbmYY"
  },
  {
    "name": "Amplifon Orange",
    "address": "Shop L144, Orange Central Square Shopping Centre, 227/237 Summer St, Orange NSW 2800, Australia",
    "suburb": "Orange Central Square Shopping Centre",
    "state": "NSW",
    "rating": 4.8,
    "reviews": 4,
    "lat": -33.2828833,
    "lng": 149.100123,
    "place_id": "ChIJt4dGStIsEGsRzMEEHDRxsBY",
    "maps_url": "https://www.google.com/maps/place/?q=place_id:ChIJt4dGStIsEGsRzMEEHDRxsBY"
  },
  {
    "name": "Telex Hearing Centre",
    "address": "170 Summer St, Orange NSW 2800, Australia",
    "suburb": "Orange NSW 2800",
    "state": "NSW",
    "rating": null,
    "reviews": 0,
    "lat": -33.28361599999999,
    "lng": 149.097779,
    "place_id": "ChIJsXPEZ9EsEGsRtB7xnQ9iWSE",
    "maps_url": "https://www.google.com/maps/place/?q=place_id:ChIJsXPEZ9EsEGsRtB7xnQ9iWSE"
  },
  {
    "name": "Audiology Dubbo Hearing Centre",
    "address": "129 Talbragar St, Dubbo NSW 2830, Australia",
    "suburb": "Dubbo NSW 2830",
    "state": "NSW",
    "rating": 5,
    "reviews": 5,
    "lat": -32.2456224,
    "lng": 148.6053253,
    "place_id": "ChIJb-R1ZrJxD2sRihSXt538Hs4",
    "maps_url": "https://www.google.com/maps/place/?q=place_id:ChIJb-R1ZrJxD2sRihSXt538Hs4"
  },
  {
    "name": "Audika Hearing Clinic Dubbo",
    "address": "66 Bultje St, Dubbo NSW 2830, Australia",
    "suburb": "Dubbo NSW 2830",
    "state": "NSW",
    "rating": 4.8,
    "reviews": 33,
    "lat": -32.2513756,
    "lng": 148.6049819,
    "place_id": "ChIJ1xJ7MKxxD2sR5IN6sxpG_lo",
    "maps_url": "https://www.google.com/maps/place/?q=place_id:ChIJ1xJ7MKxxD2sR5IN6sxpG_lo"
  },
  {
    "name": "Hearing Australia",
    "address": "10/12 Cobra St, Dubbo NSW 2830, Australia",
    "suburb": "Dubbo NSW 2830",
    "state": "NSW",
    "rating": 5,
    "reviews": 23,
    "lat": -32.2528628,
    "lng": 148.6008214,
    "place_id": "ChIJ1bAUXatxD2sRc-7dJ_CCHaM",
    "maps_url": "https://www.google.com/maps/place/?q=place_id:ChIJ1bAUXatxD2sRc-7dJ_CCHaM"
  },
  {
    "name": "Bay Audio Dubbo Square",
    "address": "Dubbo Square, Shop 32/177 Macquarie St, Dubbo NSW 2830, Australia",
    "suburb": "Shop 32/177 Macquarie St",
    "state": "NSW",
    "rating": 5,
    "reviews": 3,
    "lat": -32.2502091,
    "lng": 148.6000789,
    "place_id": "ChIJ55x1KK1xD2sRUZcS25C1GFE",
    "maps_url": "https://www.google.com/maps/place/?q=place_id:ChIJ55x1KK1xD2sRUZcS25C1GFE"
  },
  {
    "name": "Amplifon Orana Mall Retail",
    "address": "Orana Mall, Shop 36/56 Windsor Parade, Dubbo NSW 2830, Australia",
    "suburb": "Shop 36/56 Windsor Parade",
    "state": "NSW",
    "rating": 4.8,
    "reviews": 4,
    "lat": -32.2559128,
    "lng": 148.6308613,
    "place_id": "ChIJ8w_-D_VxD2sRvtNl3sBH_vo",
    "maps_url": "https://www.google.com/maps/place/?q=place_id:ChIJ8w_-D_VxD2sRvtNl3sBH_vo"
  },
  {
    "name": "Amplifon Dubbo",
    "address": "Riverdale Shopping Centre, 2/49-65 Macquarie St, Dubbo NSW 2830, Australia",
    "suburb": "2/49-65 Macquarie St",
    "state": "NSW",
    "rating": 5,
    "reviews": 4,
    "lat": -32.2456729,
    "lng": 148.601363,
    "place_id": "ChIJQa8bxrJxD2sRd1qM6ytc-Xw",
    "maps_url": "https://www.google.com/maps/place/?q=place_id:ChIJQa8bxrJxD2sRd1qM6ytc-Xw"
  },
  {
    "name": "Freedom Hearing Dubbo",
    "address": "205 Darling St, Dubbo NSW 2830, Australia",
    "suburb": "Dubbo NSW 2830",
    "state": "NSW",
    "rating": null,
    "reviews": 0,
    "lat": -32.2505862,
    "lng": 148.6053519,
    "place_id": "ChIJMZ6j-1VxD2sRZyvRl6HSclA",
    "maps_url": "https://www.google.com/maps/place/?q=place_id:ChIJMZ6j-1VxD2sRZyvRl6HSclA"
  },
  {
    "name": "Dr Hayder Ridha",
    "address": "100 Bultje St, Dubbo NSW 2830, Australia",
    "suburb": "Dubbo NSW 2830",
    "state": "NSW",
    "rating": 2.9,
    "reviews": 19,
    "lat": -32.2517269,
    "lng": 148.6079713,
    "place_id": "ChIJlYWM5upxD2sRv_AdIPnrUbo",
    "maps_url": "https://www.google.com/maps/place/?q=place_id:ChIJlYWM5upxD2sRv_AdIPnrUbo"
  },
  {
    "name": "Dubbo Base Hospital",
    "address": "Myall St, Dubbo NSW 2830, Australia",
    "suburb": "Dubbo NSW 2830",
    "state": "NSW",
    "rating": 3.2,
    "reviews": 165,
    "lat": -32.239117,
    "lng": 148.6211451,
    "place_id": "ChIJzfTxs8FxD2sRcM79c7UJBg8",
    "maps_url": "https://www.google.com/maps/place/?q=place_id:ChIJzfTxs8FxD2sRcM79c7UJBg8"
  },
  {
    "name": "Riverdale Shopping Centre",
    "address": "Shop 7/65 Macquarie St, Dubbo NSW 2830, Australia",
    "suburb": "Dubbo NSW 2830",
    "state": "NSW",
    "rating": 4.1,
    "reviews": 492,
    "lat": -32.2460343,
    "lng": 148.6013352,
    "place_id": "ChIJQa8bxrJxD2sRUCU3AFw5JJI",
    "maps_url": "https://www.google.com/maps/place/?q=place_id:ChIJQa8bxrJxD2sRUCU3AFw5JJI"
  },
  {
    "name": "Hear Our Heart Ear Bus Project",
    "address": "24 Erskine St, Dubbo NSW 2830, Australia",
    "suburb": "Dubbo NSW 2830",
    "state": "NSW",
    "rating": null,
    "reviews": 0,
    "lat": -32.24299999999999,
    "lng": 148.605437,
    "place_id": "ChIJ__-rBrRxD2sRxAhZhPigwO8",
    "maps_url": "https://www.google.com/maps/place/?q=place_id:ChIJ__-rBrRxD2sRxAhZhPigwO8"
  },
  {
    "name": "Telex Hearing Centre",
    "address": "Suite 4/49 Wingewarra St, Dubbo NSW 2830, Australia",
    "suburb": "Dubbo NSW 2830",
    "state": "NSW",
    "rating": null,
    "reviews": 0,
    "lat": -32.249263,
    "lng": 148.6021984,
    "place_id": "ChIJddp-PK1xD2sRt0NHSE1sIEg",
    "maps_url": "https://www.google.com/maps/place/?q=place_id:ChIJddp-PK1xD2sRt0NHSE1sIEg"
  },
  {
    "name": "Attune Hearing Coffs Harbour",
    "address": "Suite 2/73 Albany St, Coffs Harbour NSW 2450, Australia",
    "suburb": "Coffs Harbour NSW 2450",
    "state": "NSW",
    "rating": 4.9,
    "reviews": 222,
    "lat": -30.3005106,
    "lng": 153.1161975,
    "place_id": "ChIJG8dEvdkNnGsRjkOccZjdHHs",
    "maps_url": "https://www.google.com/maps/place/?q=place_id:ChIJG8dEvdkNnGsRjkOccZjdHHs"
  },
  {
    "name": "Hearing Australia Coffs Harbour",
    "address": "Coffs Central, 35, Level 1/61 Harbour Dr, Coffs Harbour NSW 2450, Australia",
    "suburb": "35",
    "state": "NSW",
    "rating": 4.9,
    "reviews": 43,
    "lat": -30.2965515,
    "lng": 153.1154073,
    "place_id": "ChIJy5tO_dgNnGsRA0yn3Wb2oR8",
    "maps_url": "https://www.google.com/maps/place/?q=place_id:ChIJy5tO_dgNnGsRA0yn3Wb2oR8"
  },
  {
    "name": "Audika Hearing Clinic Coffs Harbour",
    "address": "66, Shop 84/90 Harbour Dr, Coffs Harbour NSW 2450, Australia",
    "suburb": "Shop 84/90 Harbour Dr",
    "state": "NSW",
    "rating": 4.8,
    "reviews": 30,
    "lat": -30.2976397,
    "lng": 153.1151681,
    "place_id": "ChIJMfR5QNkNnGsR31MDxf7UeB0",
    "maps_url": "https://www.google.com/maps/place/?q=place_id:ChIJMfR5QNkNnGsR31MDxf7UeB0"
  },
  {
    "name": "Earworx",
    "address": "Shop 303, Park Beach Plaza, 253 Pacific Hwy, Coffs Harbour NSW 2450, Australia",
    "suburb": "Park Beach Plaza",
    "state": "NSW",
    "rating": 4.9,
    "reviews": 329,
    "lat": -30.2828608,
    "lng": 153.1291391,
    "place_id": "ChIJh2u4RFMNnGsRpXriRDRRBS4",
    "maps_url": "https://www.google.com/maps/place/?q=place_id:ChIJh2u4RFMNnGsRpXriRDRRBS4"
  },
  {
    "name": "Freedom Hearing Coffs Harbour",
    "address": "Unit 1/6 Elbow St, Coffs Harbour NSW 2450, Australia",
    "suburb": "Coffs Harbour NSW 2450",
    "state": "NSW",
    "rating": 3,
    "reviews": 2,
    "lat": -30.2944836,
    "lng": 153.114165,
    "place_id": "ChIJYfP1Lt4NnGsRTen9ikM0X7M",
    "maps_url": "https://www.google.com/maps/place/?q=place_id:ChIJYfP1Lt4NnGsRTen9ikM0X7M"
  },
  {
    "name": "Amplifon Park Beach Plaza Retail",
    "address": "Park Beach Plaza, Shop 71/253 Pacific Hwy, Coffs Harbour NSW 2450, Australia",
    "suburb": "Shop 71/253 Pacific Hwy",
    "state": "NSW",
    "rating": 4.2,
    "reviews": 10,
    "lat": -30.2827443,
    "lng": 153.1314107,
    "place_id": "ChIJCehe7DUMnGsR_8dNKWAUT3Q",
    "maps_url": "https://www.google.com/maps/place/?q=place_id:ChIJCehe7DUMnGsR_8dNKWAUT3Q"
  },
  {
    "name": "Advanced Hearing Aid Centre",
    "address": "Suite G05, Specialist Medical Centre, 343/345 Pacific Hwy, Coffs Harbour NSW 2450, Australia",
    "suburb": "Specialist Medical Centre",
    "state": "NSW",
    "rating": 5,
    "reviews": 1,
    "lat": -30.3162676,
    "lng": 153.0930195,
    "place_id": "ChIJewbMutYPnGsRasdX-AxPlQM",
    "maps_url": "https://www.google.com/maps/place/?q=place_id:ChIJewbMutYPnGsRasdX-AxPlQM"
  },
  {
    "name": "Premier Hearing",
    "address": "63 Grafton St, Coffs Harbour NSW 2450, Australia",
    "suburb": "Coffs Harbour NSW 2450",
    "state": "NSW",
    "rating": 5,
    "reviews": 3,
    "lat": -30.297019,
    "lng": 153.1134859,
    "place_id": "ChIJ4YtEbdkNnGsRf0p5b4MVwh8",
    "maps_url": "https://www.google.com/maps/place/?q=place_id:ChIJ4YtEbdkNnGsRf0p5b4MVwh8"
  },
  {
    "name": "Amplifon Coffs Harbour",
    "address": "Shop No SR 117, Coffs Central, 41/61 Harbour Dr, Coffs Harbour NSW 2450, Australia",
    "suburb": "Coffs Central",
    "state": "NSW",
    "rating": 4,
    "reviews": 4,
    "lat": -30.2966265,
    "lng": 153.1157701,
    "place_id": "ChIJscbWTjQMnGsRChqCp6N4Kw8",
    "maps_url": "https://www.google.com/maps/place/?q=place_id:ChIJscbWTjQMnGsRChqCp6N4Kw8"
  },
  {
    "name": "Coffs ENT Centre",
    "address": "16 Edgar St, Coffs Harbour NSW 2450, Australia",
    "suburb": "Coffs Harbour NSW 2450",
    "state": "NSW",
    "rating": 4,
    "reviews": 22,
    "lat": -30.3017172,
    "lng": 153.1370095,
    "place_id": "ChIJx7TAMjMMnGsR97QO1ELzsnU",
    "maps_url": "https://www.google.com/maps/place/?q=place_id:ChIJx7TAMjMMnGsR97QO1ELzsnU"
  },
  {
    "name": "Amplifon Toormina",
    "address": "SP042, Toormina Gardens Shopping Centre, 5 Toormina Rd, Toormina NSW 2452, Australia",
    "suburb": "Toormina Gardens Shopping Centre",
    "state": "NSW",
    "rating": 3.8,
    "reviews": 14,
    "lat": -30.3536722,
    "lng": 153.0918452,
    "place_id": "ChIJ1zctGpoRnGsR3HmBjvX1jbs",
    "maps_url": "https://www.google.com/maps/place/?q=place_id:ChIJ1zctGpoRnGsR3HmBjvX1jbs"
  },
  {
    "name": "Specsavers Optometrists & Audiology - Coffs Harbour - Park Beach",
    "address": "Park Beach Plaza, Shop 21/253 Pacific Hwy, Coffs Harbour NSW 2450, Australia",
    "suburb": "Shop 21/253 Pacific Hwy",
    "state": "NSW",
    "rating": 4.6,
    "reviews": 387,
    "lat": -30.283711,
    "lng": 153.1315647,
    "place_id": "ChIJ2Qyx7TUMnGsRVt3ZHPt9De0",
    "maps_url": "https://www.google.com/maps/place/?q=place_id:ChIJ2Qyx7TUMnGsRVt3ZHPt9De0"
  },
  {
    "name": "Coffs Coastal Hearing Service",
    "address": "27 Orlando St, Coffs Harbour NSW 2450, Australia",
    "suburb": "Coffs Harbour NSW 2450",
    "state": "NSW",
    "rating": null,
    "reviews": 0,
    "lat": -30.30131,
    "lng": 153.137896,
    "place_id": "ChIJsSd7hLkNnGsRMHVXT3sXRU0",
    "maps_url": "https://www.google.com/maps/place/?q=place_id:ChIJsSd7hLkNnGsRMHVXT3sXRU0"
  },
  {
    "name": "Clear Ear Clinic",
    "address": "Port Health, Suite 28/38 Clifton Dr, Port Macquarie NSW 2444, Australia",
    "suburb": "Suite 28/38 Clifton Dr",
    "state": "NSW",
    "rating": 5,
    "reviews": 134,
    "lat": -31.4357825,
    "lng": 152.8884618,
    "place_id": "ChIJo7TqqKn_nWsRLpMo4OmEh-4",
    "maps_url": "https://www.google.com/maps/place/?q=place_id:ChIJo7TqqKn_nWsRLpMo4OmEh-4"
  },
  {
    "name": "Manning Audiology Port Macquarie",
    "address": "Suite 27A/38 Clifton Dr, Port Macquarie NSW 2444, Australia",
    "suburb": "Port Macquarie NSW 2444",
    "state": "NSW",
    "rating": 4.9,
    "reviews": 81,
    "lat": -31.4354392,
    "lng": 152.8883834,
    "place_id": "ChIJkSd5AOf_nWsRx4DRBcZ94sU",
    "maps_url": "https://www.google.com/maps/place/?q=place_id:ChIJkSd5AOf_nWsRx4DRBcZ94sU"
  },
  {
    "name": "Audika Hearing Clinic Port Macquarie",
    "address": "93 William St, Port Macquarie NSW 2444, Australia",
    "suburb": "Port Macquarie NSW 2444",
    "state": "NSW",
    "rating": 4.9,
    "reviews": 37,
    "lat": -31.430803,
    "lng": 152.9117609,
    "place_id": "ChIJ2cmPACn_nWsRVQ9DK1P5unw",
    "maps_url": "https://www.google.com/maps/place/?q=place_id:ChIJ2cmPACn_nWsRVQ9DK1P5unw"
  },
  {
    "name": "Hearing Australia Port Macquarie",
    "address": "Spot Light Centre, Shop 6/180 Lake Rd, Port Macquarie NSW 2444, Australia",
    "suburb": "Shop 6/180 Lake Rd",
    "state": "NSW",
    "rating": 4.8,
    "reviews": 54,
    "lat": -31.4489794,
    "lng": 152.8828404,
    "place_id": "ChIJ3SAWnHH_nWsRZE538Jva34g",
    "maps_url": "https://www.google.com/maps/place/?q=place_id:ChIJ3SAWnHH_nWsRZE538Jva34g"
  },
  {
    "name": "The Hearing Shop",
    "address": "4/15 Short St, Port Macquarie NSW 2444, Australia",
    "suburb": "Port Macquarie NSW 2444",
    "state": "NSW",
    "rating": 5,
    "reviews": 35,
    "lat": -31.43204009999999,
    "lng": 152.9066382,
    "place_id": "ChIJKaY5WHn_nWsRBWSwETSINX4",
    "maps_url": "https://www.google.com/maps/place/?q=place_id:ChIJKaY5WHn_nWsRBWSwETSINX4"
  },
  {
    "name": "Connect Hearing",
    "address": "78 Hill St, Port Macquarie NSW 2444, Australia",
    "suburb": "Port Macquarie NSW 2444",
    "state": "NSW",
    "rating": 4.9,
    "reviews": 234,
    "lat": -31.4394431,
    "lng": 152.9146311,
    "place_id": "ChIJxWVmfMDNnWsRyhcgrMdpSh8",
    "maps_url": "https://www.google.com/maps/place/?q=place_id:ChIJxWVmfMDNnWsRyhcgrMdpSh8"
  },
  {
    "name": "Amplex Hearing Centres",
    "address": "Shop 10/146-150 Gordon St, Port Macquarie NSW 2444, Australia",
    "suburb": "Port Macquarie NSW 2444",
    "state": "NSW",
    "rating": 4.8,
    "reviews": 24,
    "lat": -31.435015,
    "lng": 152.9006943,
    "place_id": "ChIJOz7aOiP_nWsRQg02kVt_wmI",
    "maps_url": "https://www.google.com/maps/place/?q=place_id:ChIJOz7aOiP_nWsRQg02kVt_wmI"
  },
  {
    "name": "Amplifon Port Macquarie",
    "address": "1/17 Short St, Port Macquarie NSW 2444, Australia",
    "suburb": "Port Macquarie NSW 2444",
    "state": "NSW",
    "rating": 4.1,
    "reviews": 7,
    "lat": -31.43230119999999,
    "lng": 152.9067476,
    "place_id": "ChIJfUb2xCX_nWsRXfjtMSJOCe0",
    "maps_url": "https://www.google.com/maps/place/?q=place_id:ChIJfUb2xCX_nWsRXfjtMSJOCe0"
  },
  {
    "name": "Port Macquarie Acoustics",
    "address": "9 Merrigal Rd, Port Macquarie NSW 2444, Australia",
    "suburb": "Port Macquarie NSW 2444",
    "state": "NSW",
    "rating": 4.5,
    "reviews": 13,
    "lat": -31.4527868,
    "lng": 152.881904,
    "place_id": "ChIJK1BS4Tz_nWsRGv576BkawOY",
    "maps_url": "https://www.google.com/maps/place/?q=place_id:ChIJK1BS4Tz_nWsRGv576BkawOY"
  },
  {
    "name": "Amplifon Port Macquarie Retail",
    "address": "Settlement City Shopping Centre, Shop GD031/3 Bay St, Port Macquarie NSW 2444, Australia",
    "suburb": "Shop GD031/3 Bay St",
    "state": "NSW",
    "rating": 3.5,
    "reviews": 8,
    "lat": -31.4265335,
    "lng": 152.8944775,
    "place_id": "ChIJ4-r-o0__nWsRgP2kgNqDaJQ",
    "maps_url": "https://www.google.com/maps/place/?q=place_id:ChIJ4-r-o0__nWsRgP2kgNqDaJQ"
  },
  {
    "name": "Freedom Hearing Port Macquarie",
    "address": "Peach Tree Arcade, Shop 5/78 Horton St, Port Macquarie NSW 2444, Australia",
    "suburb": "Shop 5/78 Horton St",
    "state": "NSW",
    "rating": null,
    "reviews": 0,
    "lat": -31.4306214,
    "lng": 152.9082816,
    "place_id": "ChIJAWuYYIb_nWsRdgZEi6aUGrg",
    "maps_url": "https://www.google.com/maps/place/?q=place_id:ChIJAWuYYIb_nWsRdgZEi6aUGrg"
  },
  {
    "name": "bloom hearing specialists Port Macquarie",
    "address": "Greenmeadows Medical Centre, 152 Greenmeadows Dr, Port Macquarie NSW 2444, Australia",
    "suburb": "152 Greenmeadows Dr",
    "state": "NSW",
    "rating": 3,
    "reviews": 2,
    "lat": -31.4564938,
    "lng": 152.8974572,
    "place_id": "ChIJ8edQiDn_nWsROvU0Iujfmh8",
    "maps_url": "https://www.google.com/maps/place/?q=place_id:ChIJ8edQiDn_nWsROvU0Iujfmh8"
  },
  {
    "name": "Hearing Australia- Call Centre only no services",
    "address": "oxley house, 133 Gordon St, Port Macquarie NSW 2444, Australia",
    "suburb": "133 Gordon St",
    "state": "NSW",
    "rating": 4,
    "reviews": 1,
    "lat": -31.4344148,
    "lng": 152.9035523,
    "place_id": "ChIJV_PghCT_nWsR3ma7MpEiV94",
    "maps_url": "https://www.google.com/maps/place/?q=place_id:ChIJV_PghCT_nWsR3ma7MpEiV94"
  },
  {
    "name": "Amplifon Lismore Retail",
    "address": "Lismore Square Shopping centre, Shop 29 Uralba St, Lismore NSW 2480, Australia",
    "suburb": "Shop 29 Uralba St",
    "state": "NSW",
    "rating": 4.6,
    "reviews": 13,
    "lat": -28.8096068,
    "lng": 153.2891828,
    "place_id": "ChIJnVBQSwSekGsRVIpyE6hQc_E",
    "maps_url": "https://www.google.com/maps/place/?q=place_id:ChIJnVBQSwSekGsRVIpyE6hQc_E"
  },
  {
    "name": "Hearing Australia Lismore",
    "address": "1 Conway Plaza Molesworth Street &, Conway St, Lismore NSW 2480, Australia",
    "suburb": "Conway St",
    "state": "NSW",
    "rating": 4.7,
    "reviews": 41,
    "lat": -28.8108997,
    "lng": 153.2747192,
    "place_id": "ChIJ7SqTaB-ekGsRQTkfYRbftJQ",
    "maps_url": "https://www.google.com/maps/place/?q=place_id:ChIJ7SqTaB-ekGsRQTkfYRbftJQ"
  },
  {
    "name": "Neurosensory Lismore",
    "address": "86 Uralba St, Lismore NSW 2480, Australia",
    "suburb": "Lismore NSW 2480",
    "state": "NSW",
    "rating": 5,
    "reviews": 1,
    "lat": -28.8086737,
    "lng": 153.2935626,
    "place_id": "ChIJxzzwJAaekGsR1VxkBGwwSp0",
    "maps_url": "https://www.google.com/maps/place/?q=place_id:ChIJxzzwJAaekGsR1VxkBGwwSp0"
  },
  {
    "name": "Amplifon Lismore",
    "address": "Lismore Central Shopping Centre, Shop T07/44 Carrington St, Lismore NSW 2480, Australia",
    "suburb": "Shop T07/44 Carrington St",
    "state": "NSW",
    "rating": 3.3,
    "reviews": 3,
    "lat": -28.8105293,
    "lng": 153.2765374,
    "place_id": "ChIJJXd3Jh-ekGsRlwr7EC1JKVk",
    "maps_url": "https://www.google.com/maps/place/?q=place_id:ChIJJXd3Jh-ekGsRlwr7EC1JKVk"
  },
  {
    "name": "bloom hearing specialists Lismore",
    "address": "Central Shopping Centre, 44 Carrington St, Lismore NSW 2480, Australia",
    "suburb": "44 Carrington St",
    "state": "NSW",
    "rating": 4,
    "reviews": 8,
    "lat": -28.8107188,
    "lng": 153.2766914,
    "place_id": "ChIJKfZlah-ekGsRMSEkRavlEW0",
    "maps_url": "https://www.google.com/maps/place/?q=place_id:ChIJKfZlah-ekGsRMSEkRavlEW0"
  },
  {
    "name": "Bay Audio Ballina",
    "address": "Ballina Fair Shopping Centre, 86 Kerr St, Ballina NSW 2478, Australia",
    "suburb": "86 Kerr St",
    "state": "NSW",
    "rating": 4.6,
    "reviews": 9,
    "lat": -28.858223,
    "lng": 153.5592294,
    "place_id": "ChIJGxsRTxSAkGsRbW27zIo_98o",
    "maps_url": "https://www.google.com/maps/place/?q=place_id:ChIJGxsRTxSAkGsRbW27zIo_98o"
  },
  {
    "name": "Hearing Australia Ballina",
    "address": "3/95 Tamar St, Ballina NSW 2478, Australia",
    "suburb": "Ballina NSW 2478",
    "state": "NSW",
    "rating": 4.9,
    "reviews": 27,
    "lat": -28.86800749999999,
    "lng": 153.5588339,
    "place_id": "ChIJHXAvcxyAkGsRQi5NtaLS5nQ",
    "maps_url": "https://www.google.com/maps/place/?q=place_id:ChIJHXAvcxyAkGsRQi5NtaLS5nQ"
  },
  {
    "name": "Audika Hearing Clinic Ballina",
    "address": "Unit 2/191 River St, Ballina NSW 2478, Australia",
    "suburb": "Ballina NSW 2478",
    "state": "NSW",
    "rating": 4.4,
    "reviews": 18,
    "lat": -28.869465,
    "lng": 153.5585685,
    "place_id": "ChIJhYnASh-AkGsROJLiIYeEu-I",
    "maps_url": "https://www.google.com/maps/place/?q=place_id:ChIJhYnASh-AkGsROJLiIYeEu-I"
  },
  {
    "name": "bloom hearing specialists Ballina",
    "address": "3/88 Tamar St, Ballina NSW 2478, Australia",
    "suburb": "Ballina NSW 2478",
    "state": "NSW",
    "rating": 4.8,
    "reviews": 6,
    "lat": -28.8692057,
    "lng": 153.55991,
    "place_id": "ChIJAzBl2BiAkGsRXshVDzdnvZY",
    "maps_url": "https://www.google.com/maps/place/?q=place_id:ChIJAzBl2BiAkGsRXshVDzdnvZY"
  },
  {
    "name": "Neurosensory Ballina",
    "address": "East Ballina Shopping Centre, Shop 3/44 Links Ave, Ballina NSW 2478, Australia",
    "suburb": "Shop 3/44 Links Ave",
    "state": "NSW",
    "rating": 4.2,
    "reviews": 5,
    "lat": -28.8507443,
    "lng": 153.5831847,
    "place_id": "ChIJ13FXuyp_kGsRhmYgS2FMFio",
    "maps_url": "https://www.google.com/maps/place/?q=place_id:ChIJ13FXuyp_kGsRhmYgS2FMFio"
  },
  {
    "name": "Amplifon Ballina",
    "address": "Shop 6, 37/41 Cherry St, Ballina NSW 2478, Australia",
    "suburb": "37/41 Cherry St",
    "state": "NSW",
    "rating": 4.6,
    "reviews": 14,
    "lat": -28.8696896,
    "lng": 153.5624638,
    "place_id": "ChIJH2hsWhmAkGsRaqdFxC6FCYg",
    "maps_url": "https://www.google.com/maps/place/?q=place_id:ChIJH2hsWhmAkGsRaqdFxC6FCYg"
  },
  {
    "name": "Freedom Hearing Ballina",
    "address": "Shop 19, Ballina Boulevard, 70 River St, Ballina NSW 2478, Australia",
    "suburb": "Ballina Boulevard",
    "state": "NSW",
    "rating": 5,
    "reviews": 1,
    "lat": -28.8713361,
    "lng": 153.5622718,
    "place_id": "ChIJCXPOFROBkGsRy5yxAyIFtw8",
    "maps_url": "https://www.google.com/maps/place/?q=place_id:ChIJCXPOFROBkGsRy5yxAyIFtw8"
  },
  {
    "name": "Hearing Australia Tweed Heads",
    "address": "shop 2/103/105 Minjungbal Dr, Tweed Heads South NSW 2486, Australia",
    "suburb": "Tweed Heads South NSW 2486",
    "state": "NSW",
    "rating": 4.9,
    "reviews": 60,
    "lat": -28.2007044,
    "lng": 153.5435309,
    "place_id": "ChIJTQRmStj_kGsRwlvHP8hzX58",
    "maps_url": "https://www.google.com/maps/place/?q=place_id:ChIJTQRmStj_kGsRwlvHP8hzX58"
  },
  {
    "name": "Australian Audiology Hearing Specialists",
    "address": "112/54 Minjungbal Dr, Tweed Heads South NSW 2486, Australia",
    "suburb": "Tweed Heads South NSW 2486",
    "state": "NSW",
    "rating": 4.8,
    "reviews": 82,
    "lat": -28.2024253,
    "lng": 153.5459962,
    "place_id": "ChIJj8h9Brj_kGsR8HU78My3vu0",
    "maps_url": "https://www.google.com/maps/place/?q=place_id:ChIJj8h9Brj_kGsR8HU78My3vu0"
  },
  {
    "name": "Audika Hearing Clinic Banora Point",
    "address": "Banora Chiropractic, 2, 44 Greenway Dr, Tweed Heads South NSW 2486, Australia",
    "suburb": "2",
    "state": "NSW",
    "rating": 5,
    "reviews": 4,
    "lat": -28.205742,
    "lng": 153.535676,
    "place_id": "ChIJ9XjZ8q7_kGsRl2HMwccAn4g",
    "maps_url": "https://www.google.com/maps/place/?q=place_id:ChIJ9XjZ8q7_kGsRl2HMwccAn4g"
  },
  {
    "name": "Amplifon Tweed Heads",
    "address": "Tweed City Shopping Centre, 228/54 Minjungbal Dr, Tweed Heads South NSW 2486, Australia",
    "suburb": "228/54 Minjungbal Dr",
    "state": "NSW",
    "rating": 4.1,
    "reviews": 11,
    "lat": -28.2011279,
    "lng": 153.5462197,
    "place_id": "ChIJPeilIsj_kGsRtPFHuOHFtPw",
    "maps_url": "https://www.google.com/maps/place/?q=place_id:ChIJPeilIsj_kGsRtPFHuOHFtPw"
  },
  {
    "name": "Amplifon Tweed City Retail",
    "address": "Tweed City Shopping Centre, Unit 45/54 Minjungbal Dr, Tweed Heads South NSW 2486, Australia",
    "suburb": "Unit 45/54 Minjungbal Dr",
    "state": "NSW",
    "rating": 5,
    "reviews": 7,
    "lat": -28.2004134,
    "lng": 153.5459414,
    "place_id": "ChIJ__9e-cf_kGsRYAPv3jLW6LY",
    "maps_url": "https://www.google.com/maps/place/?q=place_id:ChIJ__9e-cf_kGsRYAPv3jLW6LY"
  },
  {
    "name": "Amplifon Tweed Heads Retail",
    "address": "Shop 30, Tweed Mall, Wharf St, Tweed Heads NSW 2485, Australia",
    "suburb": "Tweed Mall",
    "state": "NSW",
    "rating": 4.8,
    "reviews": 6,
    "lat": -28.1723679,
    "lng": 153.5442336,
    "place_id": "ChIJRyNWASkAkWsRqk6Iqra2CFA",
    "maps_url": "https://www.google.com/maps/place/?q=place_id:ChIJRyNWASkAkWsRqk6Iqra2CFA"
  },
  {
    "name": "Freedom Hearing Tweed Heads",
    "address": "6/75 Wharf St, Tweed Heads NSW 2485, Australia",
    "suburb": "Tweed Heads NSW 2485",
    "state": "NSW",
    "rating": null,
    "reviews": 0,
    "lat": -28.1731486,
    "lng": 153.5423456,
    "place_id": "ChIJxWAdMBUBkWsRG99ffzOA9zc",
    "maps_url": "https://www.google.com/maps/place/?q=place_id:ChIJxWAdMBUBkWsRG99ffzOA9zc"
  },
  {
    "name": "Expert Hearing Solutions",
    "address": "Banora Shopping Village, 3 Leisure Dr, Banora Point NSW 2486, Australia",
    "suburb": "3 Leisure Dr",
    "state": "NSW",
    "rating": 5,
    "reviews": 4,
    "lat": -28.214904,
    "lng": 153.5410548,
    "place_id": "ChIJJW4__m7_kGsRxz-JN2S1WRU",
    "maps_url": "https://www.google.com/maps/place/?q=place_id:ChIJJW4__m7_kGsRxz-JN2S1WRU"
  },
  {
    "name": "bloom hearing specialists Tweed Heads",
    "address": "54 Minjungbal Drive Tweed City Family Practice, Shopping Centre, Tweed Heads South NSW 2486, Australia",
    "suburb": "Shopping Centre",
    "state": "NSW",
    "rating": null,
    "reviews": 0,
    "lat": -28.2012925,
    "lng": 153.5450725,
    "place_id": "ChIJ4_z_drj_kGsREIBAS4ayGZM",
    "maps_url": "https://www.google.com/maps/place/?q=place_id:ChIJ4_z_drj_kGsREIBAS4ayGZM"
  },
  {
    "name": "Ear and Hearing Australia - Melbourne",
    "address": "414 La Trobe St, Melbourne VIC 3000, Australia",
    "suburb": "Melbourne VIC 3000",
    "state": "VIC",
    "rating": 4.8,
    "reviews": 154,
    "lat": -37.8112323,
    "lng": 144.9572322,
    "place_id": "ChIJU90kbUpd1moR6enM3VIcWc4",
    "maps_url": "https://www.google.com/maps/place/?q=place_id:ChIJU90kbUpd1moR6enM3VIcWc4"
  },
  {
    "name": "Melbourne Hearing Care Clinic",
    "address": "Ground Floor/550 Swanston St, Carlton VIC 3053, Australia",
    "suburb": "Carlton VIC 3053",
    "state": "VIC",
    "rating": 5,
    "reviews": 11,
    "lat": -37.8038449,
    "lng": 144.9638925,
    "place_id": "ChIJt0vSe81C1moRHHVQ3Ig4K_Q",
    "maps_url": "https://www.google.com/maps/place/?q=place_id:ChIJt0vSe81C1moRHHVQ3Ig4K_Q"
  },
  {
    "name": "Victorian Hearing",
    "address": "Kurrajong, House, Level 2/175 Collins St, Melbourne VIC 3000, Australia",
    "suburb": "House",
    "state": "VIC",
    "rating": 4.7,
    "reviews": 31,
    "lat": -37.8153123,
    "lng": 144.9680179,
    "place_id": "ChIJm77wRbRC1moRcPpsvBtZ4VI",
    "maps_url": "https://www.google.com/maps/place/?q=place_id:ChIJm77wRbRC1moRcPpsvBtZ4VI"
  },
  {
    "name": "Melbourne Audiology Centre | Ear Wax Removal and Hearing Aids Fitzroy",
    "address": "185 Victoria Parade, Fitzroy VIC 3065, Australia",
    "suburb": "Fitzroy VIC 3065",
    "state": "VIC",
    "rating": 4.8,
    "reviews": 162,
    "lat": -37.8084194,
    "lng": 144.9812551,
    "place_id": "ChIJL7fxPN1C1moRvJFbF8WTNOo",
    "maps_url": "https://www.google.com/maps/place/?q=place_id:ChIJL7fxPN1C1moRvJFbF8WTNOo"
  },
  {
    "name": "Hear With Me | Audiology Care - Melbourne",
    "address": "Suite 207, Level 2/488 Bourke St, Melbourne VIC 3000, Australia",
    "suburb": "Level 2/488 Bourke St",
    "state": "VIC",
    "rating": 5,
    "reviews": 21,
    "lat": -37.815152,
    "lng": 144.959272,
    "place_id": "ChIJpecjNjFD1moRURcnPNcy1eE",
    "maps_url": "https://www.google.com/maps/place/?q=place_id:ChIJpecjNjFD1moRURcnPNcy1eE"
  },
  {
    "name": "University of Melbourne Audiology Department",
    "address": "550 Swanston St, Carlton VIC 3053, Australia",
    "suburb": "Carlton VIC 3053",
    "state": "VIC",
    "rating": 4.2,
    "reviews": 12,
    "lat": -37.80381,
    "lng": 144.9636841,
    "place_id": "ChIJBUIVec1C1moRWJgl4SI7IsI",
    "maps_url": "https://www.google.com/maps/place/?q=place_id:ChIJBUIVec1C1moRWJgl4SI7IsI"
  },
  {
    "name": "Connect Hearing",
    "address": "Manchester Unity Building, Suite 301 Level 3/220 Collins St, Melbourne VIC 3000, Australia",
    "suburb": "Suite 301 Level 3/220 Collins St",
    "state": "VIC",
    "rating": 4.8,
    "reviews": 25,
    "lat": -37.8153783,
    "lng": 144.9661692,
    "place_id": "ChIJ2f1s27VC1moRWYnzKQXxj_o",
    "maps_url": "https://www.google.com/maps/place/?q=place_id:ChIJ2f1s27VC1moRWYnzKQXxj_o"
  },
  {
    "name": "Balance & Hearing Centre",
    "address": "level 4/182 Victoria Parade, East Melbourne VIC 3002, Australia",
    "suburb": "East Melbourne VIC 3002",
    "state": "VIC",
    "rating": 4.3,
    "reviews": 7,
    "lat": -37.808869,
    "lng": 144.977873,
    "place_id": "ChIJK7cHV8NC1moR291y-JXzAPY",
    "maps_url": "https://www.google.com/maps/place/?q=place_id:ChIJK7cHV8NC1moR291y-JXzAPY"
  },
  {
    "name": "City Hearing Pty Ltd - Peter Cichello",
    "address": "454 Collins St, Melbourne VIC 3000, Australia",
    "suburb": "Melbourne VIC 3000",
    "state": "VIC",
    "rating": 4.6,
    "reviews": 11,
    "lat": -37.8174351,
    "lng": 144.9593121,
    "place_id": "ChIJGVFWp51C1moRY7frvardRg0",
    "maps_url": "https://www.google.com/maps/place/?q=place_id:ChIJGVFWp51C1moRY7frvardRg0"
  },
  {
    "name": "Academic Hearing Aids",
    "address": "550 Swanston St, Carlton VIC 3053, Australia",
    "suburb": "Carlton VIC 3053",
    "state": "VIC",
    "rating": 4.5,
    "reviews": 2,
    "lat": -37.80381,
    "lng": 144.963684,
    "place_id": "ChIJHUIVec1C1moRpwSILf5t6Rw",
    "maps_url": "https://www.google.com/maps/place/?q=place_id:ChIJHUIVec1C1moRpwSILf5t6Rw"
  },
  {
    "name": "Ear and Hearing Australia - Docklands",
    "address": "Shop 1/850 Collins St, Docklands VIC 3008, Australia",
    "suburb": "Docklands VIC 3008",
    "state": "VIC",
    "rating": 5,
    "reviews": 2,
    "lat": -37.8209549,
    "lng": 144.944578,
    "place_id": "ChIJ6ZQ4S1ld1moR4duzkF_IJyc",
    "maps_url": "https://www.google.com/maps/place/?q=place_id:ChIJ6ZQ4S1ld1moR4duzkF_IJyc"
  },
  {
    "name": "Connect Hearing",
    "address": "145-147 Bouverie St, Carlton VIC 3053, Australia",
    "suburb": "Carlton VIC 3053",
    "state": "VIC",
    "rating": 4.8,
    "reviews": 46,
    "lat": -37.8031086,
    "lng": 144.9617233,
    "place_id": "ChIJRyL0_ypD1moRyygKlLAdJuA",
    "maps_url": "https://www.google.com/maps/place/?q=place_id:ChIJRyL0_ypD1moRyygKlLAdJuA"
  },
  {
    "name": "The Ear Nurses at Crystal Clear Ears Melbourne (East)",
    "address": "7/250 Victoria Parade, East Melbourne VIC 3002, Australia",
    "suburb": "East Melbourne VIC 3002",
    "state": "VIC",
    "rating": 4.9,
    "reviews": 122,
    "lat": -37.8091011,
    "lng": 144.9800552,
    "place_id": "ChIJHaMP9iFd1moRYKnnjmx4X0I",
    "maps_url": "https://www.google.com/maps/place/?q=place_id:ChIJHaMP9iFd1moRYKnnjmx4X0I"
  },
  {
    "name": "AudioHearing Melbourne - South Yarra",
    "address": "132 Toorak Rd, South Yarra VIC 3141, Australia",
    "suburb": "South Yarra VIC 3141",
    "state": "VIC",
    "rating": 5,
    "reviews": 522,
    "lat": -37.8389806,
    "lng": 144.9905626,
    "place_id": "ChIJHY6uu51C1moRIH59lqhv_IM",
    "maps_url": "https://www.google.com/maps/place/?q=place_id:ChIJHY6uu51C1moRIH59lqhv_IM"
  },
  {
    "name": "Neurosensory East Melbourne",
    "address": "223/100 Victoria Parade, East Melbourne VIC 3002, Australia",
    "suburb": "East Melbourne VIC 3002",
    "state": "VIC",
    "rating": 4.2,
    "reviews": 6,
    "lat": -37.8086319,
    "lng": 144.9748947,
    "place_id": "ChIJ3-hKzelC1moRbmkHZrYHqNQ",
    "maps_url": "https://www.google.com/maps/place/?q=place_id:ChIJ3-hKzelC1moRbmkHZrYHqNQ"
  },
  {
    "name": "True Hearing - Independent Audiology Clinic",
    "address": "25/141 Grey St, East Melbourne VIC 3002, Australia",
    "suburb": "East Melbourne VIC 3002",
    "state": "VIC",
    "rating": null,
    "reviews": 0,
    "lat": -37.8122859,
    "lng": 144.9844548,
    "place_id": "ChIJ_z4bAW5D1moRtO8LVYqtgWc",
    "maps_url": "https://www.google.com/maps/place/?q=place_id:ChIJ_z4bAW5D1moRtO8LVYqtgWc"
  },
  {
    "name": "Abi Hearing",
    "address": "228/55 Flemington Rd, North Melbourne VIC 3051, Australia",
    "suburb": "North Melbourne VIC 3051",
    "state": "VIC",
    "rating": 5,
    "reviews": 9,
    "lat": -37.7997199,
    "lng": 144.9543329,
    "place_id": "ChIJceMu3DFd1moRgxIB7WKmzN8",
    "maps_url": "https://www.google.com/maps/place/?q=place_id:ChIJceMu3DFd1moRgxIB7WKmzN8"
  },
  {
    "name": "Hearlink",
    "address": "Medical One Centre, QV Terrace, 23/292 Swanston St, Melbourne VIC 3000, Australia",
    "suburb": "QV Terrace",
    "state": "VIC",
    "rating": 5,
    "reviews": 1,
    "lat": -37.8105572,
    "lng": 144.964972,
    "place_id": "ChIJFyypUspC1moR1YIUDXDEa4o",
    "maps_url": "https://www.google.com/maps/place/?q=place_id:ChIJFyypUspC1moR1YIUDXDEa4o"
  },
  {
    "name": "Soundhealth Hearing Clinic",
    "address": "352 Dandenong Rd, St Kilda East VIC 3183, Australia",
    "suburb": "St Kilda East VIC 3183",
    "state": "VIC",
    "rating": 5,
    "reviews": 1,
    "lat": -37.8606152,
    "lng": 145.0095611,
    "place_id": "ChIJh3P-dUdo1moREzI1gZrb9yc",
    "maps_url": "https://www.google.com/maps/place/?q=place_id:ChIJh3P-dUdo1moREzI1gZrb9yc"
  },
  {
    "name": "Quick Easy Hearing",
    "address": "Ground Floor/470 St Kilda Rd, Melbourne VIC 3004, Australia",
    "suburb": "Melbourne VIC 3004",
    "state": "VIC",
    "rating": 1,
    "reviews": 2,
    "lat": -37.8412471,
    "lng": 144.9766798,
    "place_id": "ChIJNfZA7hto1moR1wRBABv_M3M",
    "maps_url": "https://www.google.com/maps/place/?q=place_id:ChIJNfZA7hto1moR1wRBABv_M3M"
  },
  {
    "name": "Hearing Healthcare",
    "address": "Suite 3/189-191 Balaclava Rd, Caulfield North VIC 3161, Australia",
    "suburb": "Caulfield North VIC 3161",
    "state": "VIC",
    "rating": 5,
    "reviews": 10,
    "lat": -37.8725688,
    "lng": 145.0226029,
    "place_id": "ChIJaWOgYb5p1moRdgMhCN9jSwM",
    "maps_url": "https://www.google.com/maps/place/?q=place_id:ChIJaWOgYb5p1moRdgMhCN9jSwM"
  },
  {
    "name": "AudioHearing Melbourne - Brighton",
    "address": "380A Bay St, Brighton VIC 3186, Australia",
    "suburb": "Brighton VIC 3186",
    "state": "VIC",
    "rating": 5,
    "reviews": 83,
    "lat": -37.905966,
    "lng": 145.004723,
    "place_id": "ChIJ4y7Jqtho1moRufcLx6zjfz8",
    "maps_url": "https://www.google.com/maps/place/?q=place_id:ChIJ4y7Jqtho1moRufcLx6zjfz8"
  },
  {
    "name": "Helix Hearing - Richmond",
    "address": "449 Swan St, Richmond VIC 3121, Australia",
    "suburb": "Richmond VIC 3121",
    "state": "VIC",
    "rating": 5,
    "reviews": 21,
    "lat": -37.8266785,
    "lng": 145.0088218,
    "place_id": "ChIJAYGGzvFC1moRH1hLF06re1g",
    "maps_url": "https://www.google.com/maps/place/?q=place_id:ChIJAYGGzvFC1moRH1hLF06re1g"
  },
  {
    "name": "Hearing Australia Richmond",
    "address": "369-371 Bridge Rd, Richmond VIC 3121, Australia",
    "suburb": "Richmond VIC 3121",
    "state": "VIC",
    "rating": 5,
    "reviews": 12,
    "lat": -37.8187157,
    "lng": 145.0027288,
    "place_id": "ChIJc07zLBdD1moRf4TJSiNxsz8",
    "maps_url": "https://www.google.com/maps/place/?q=place_id:ChIJc07zLBdD1moRf4TJSiNxsz8"
  },
  {
    "name": "earLAB: Ear Wax Removal & Custom Ear Plugs",
    "address": "132 Burnley St, Richmond VIC 3121, Australia",
    "suburb": "Richmond VIC 3121",
    "state": "VIC",
    "rating": 4.9,
    "reviews": 221,
    "lat": -37.8173319,
    "lng": 145.0084476,
    "place_id": "ChIJycwdK0lD1moRnj4QZUWXHUQ",
    "maps_url": "https://www.google.com/maps/place/?q=place_id:ChIJycwdK0lD1moRnj4QZUWXHUQ"
  },