[
  {
    "name": "Silkari Urban CKS Sydney Airport Hotel",
    "address": "35 Levey St, Wolli Creek",
    "suburb": "Sydney CBD",
    "state": "NSW",
    "lat": -33.934803,
    "lng": 151.1555023,
    "place_id": "ChIJR88pV5awEmsRXrl766dbFFU",
    "maps_url": "https://www.google.com/maps/place/?q=place_id:ChIJR88pV5awEmsRXrl766dbFFU",
    "rating": 3.8,
    "total_ratings": 1404
  },
  {
    "name": "ibis budget St Peters",
    "address": "178 Princes Hwy, St Peters",
    "suburb": "Sydney CBD",
    "state": "NSW",
    "lat": -33.9145983,
    "lng": 151.1778726,
    "place_id": "ChIJRUSPVFCwEmsR982Xz-JTQrE",
    "maps_url": "https://www.google.com/maps/place/?q=place_id:ChIJRUSPVFCwEmsR982Xz-JTQrE",
    "rating": 3.1,
    "total_ratings": 1346
  },
  {
    "name": "ibis Styles Sydney Central",
    "address": "27 Wentworth Ave, Sydney",
    "suburb": "Sydney CBD",
    "state": "NSW",
    "lat": -33.878206,
    "lng": 151.2108101,
    "place_id": "ChIJ77-q5xeuEmsR94myNvknlck",
    "maps_url": "https://www.google.com/maps/place/?q=place_id:ChIJ77-q5xeuEmsR94myNvknlck",
    "rating": 3.9,
    "total_ratings": 1509
  },
  {
    "name": "Newtown Cozy Stays (formerly Newtown Budget Hotel)",
    "address": "485 King St, Newtown",
    "suburb": "Sydney CBD",
    "state": "NSW",
    "lat": -33.90220559999999,
    "lng": 151.1789,
    "place_id": "ChIJH8RM2EmwEmsRIKS9ju-uJFQ",
    "maps_url": "https://www.google.com/maps/place/?q=place_id:ChIJH8RM2EmwEmsRIKS9ju-uJFQ",
    "rating": 3.1,
    "total_ratings": 220
  },
  {
    "name": "Mantra on Sydney Airport",
    "address": "3 Ross Smith Ave, Mascot",
    "suburb": "Sydney CBD",
    "state": "NSW",
    "lat": -33.9326545,
    "lng": 151.1870238,
    "place_id": "ChIJB_SkYv2wEmsRg5O-4bc-eRY",
    "maps_url": "https://www.google.com/maps/place/?q=place_id:ChIJB_SkYv2wEmsRg5O-4bc-eRY",
    "rating": 4,
    "total_ratings": 1121
  },
  {
    "name": "Twin Towers Inn",
    "address": "260-264 Pacific Hwy, Greenwich",
    "suburb": "Sydney CBD",
    "state": "NSW",
    "lat": -33.8190432,
    "lng": 151.1831339,
    "place_id": "ChIJceRzpiGvEmsRs831h6HGhJk",
    "maps_url": "https://www.google.com/maps/place/?q=place_id:ChIJceRzpiGvEmsRs831h6HGhJk",
    "rating": 4,
    "total_ratings": 443
  },
  {
    "name": "The Alison Randwick",
    "address": "136-138 Alison Rd, Randwick",
    "suburb": "Sydney CBD",
    "state": "NSW",
    "lat": -33.9120879,
    "lng": 151.2378064,
    "place_id": "ChIJjWdInx6yEmsR5hn0WxmTH-I",
    "maps_url": "https://www.google.com/maps/place/?q=place_id:ChIJjWdInx6yEmsR5hn0WxmTH-I",
    "rating": 3.9,
    "total_ratings": 236
  },
  {
    "name": "Airport Hotel Sydney",
    "address": "185 Princes Hwy, Arncliffe",
    "suburb": "Sydney CBD",
    "state": "NSW",
    "lat": -33.939322,
    "lng": 151.147397,
    "place_id": "ChIJj8tJ8qOwEmsR7_FDFG7Qegs",
    "maps_url": "https://www.google.com/maps/place/?q=place_id:ChIJj8tJ8qOwEmsR7_FDFG7Qegs",
    "rating": 2.6,
    "total_ratings": 1610
  },
  {
    "name": "Quality Inn Sunshine Haberfield",
    "address": "169-173 Parramatta Rd, Haberfield",
    "suburb": "Sydney CBD",
    "state": "NSW",
    "lat": -33.8828989,
    "lng": 151.1341111,
    "place_id": "ChIJEQ7r9Ga7EmsRFr1Ztqu2S3I",
    "maps_url": "https://www.google.com/maps/place/?q=place_id:ChIJEQ7r9Ga7EmsRFr1Ztqu2S3I",
    "rating": 4.3,
    "total_ratings": 140
  },
  {
    "name": "Westside Motor Inn",
    "address": "85-87 Liverpool Rd, Ashfield",
    "suburb": "Sydney CBD",
    "state": "NSW",
    "lat": -33.888967,
    "lng": 151.1327629,
    "place_id": "ChIJM-JHepi6EmsR4fyQbwPYEfw",
    "maps_url": "https://www.google.com/maps/place/?q=place_id:ChIJM-JHepi6EmsR4fyQbwPYEfw",
    "rating": 4,
    "total_ratings": 234
  },
  {
    "name": "The Urban Newtown",
    "address": "52-60 Enmore Rd, Newtown",
    "suburb": "Sydney CBD",
    "state": "NSW",
    "lat": -33.898824,
    "lng": 151.17634,
    "place_id": "ChIJOZLmnTewEmsRsBlEVVY8jj4",
    "maps_url": "https://www.google.com/maps/place/?q=place_id:ChIJOZLmnTewEmsRsBlEVVY8jj4",
    "rating": 4.1,
    "total_ratings": 859
  },
  {
    "name": "ibis Sydney Barangaroo",
    "address": "22 Shelley St, Sydney",
    "suburb": "Sydney CBD",
    "state": "NSW",
    "lat": -33.866582,
    "lng": 151.202769,
    "place_id": "ChIJkzN9YUeuEmsRXS5xib231aQ",
    "maps_url": "https://www.google.com/maps/place/?q=place_id:ChIJkzN9YUeuEmsRXS5xib231aQ",
    "rating": 4,
    "total_ratings": 867
  },
  {
    "name": "Cremorne Point Manor",
    "address": "6 Cremorne Rd, Cremorne Point",
    "suburb": "Sydney CBD",
    "state": "NSW",
    "lat": -33.8445264,
    "lng": 151.2292888,
    "place_id": "ChIJ67B4FYOuEmsRvvtV9L7sjZE",
    "maps_url": "https://www.google.com/maps/place/?q=place_id:ChIJ67B4FYOuEmsRvvtV9L7sjZE",
    "rating": 4.5,
    "total_ratings": 395
  },
  {
    "name": "Bridgeview Hotel",
    "address": "580 Willoughby Rd, Willoughby",
    "suburb": "Sydney CBD",
    "state": "NSW",
    "lat": -33.8072602,
    "lng": 151.1990473,
    "place_id": "ChIJs19DfVtTDWsRx-3_9Wx0jOg",
    "maps_url": "https://www.google.com/maps/place/?q=place_id:ChIJs19DfVtTDWsRx-3_9Wx0jOg",
    "rating": 4.1,
    "total_ratings": 657
  },
  {
    "name": "Novotel Sydney International Airport",
    "address": "22 Levey St, Wolli Creek",
    "suburb": "Sydney CBD",
    "state": "NSW",
    "lat": -33.9345148,
    "lng": 151.1571378,
    "place_id": "ChIJySVgm5awEmsRN95-D11ahRg",
    "maps_url": "https://www.google.com/maps/place/?q=place_id:ChIJySVgm5awEmsRN95-D11ahRg",
    "rating": 4.1,
    "total_ratings": 2371
  },
  {
    "name": "ibis Sydney Airport",
    "address": "205 O'Riordan St, Mascot",
    "suburb": "Sydney CBD",
    "state": "NSW",
    "lat": -33.9281323,
    "lng": 151.1867554,
    "place_id": "ChIJx_4V4AGxEmsRVuPVnUQzIaY",
    "maps_url": "https://www.google.com/maps/place/?q=place_id:ChIJx_4V4AGxEmsRVuPVnUQzIaY",
    "rating": 3.5,
    "total_ratings": 2220
  },
  {
    "name": "Hotel Hacienda",
    "address": "179 Cleveland St, Redfern",
    "suburb": "Sydney CBD",
    "state": "NSW",
    "lat": -33.8890521,
    "lng": 151.2007372,
    "place_id": "ChIJp02lWtixEmsRKuZV8s8AQ7A",
    "maps_url": "https://www.google.com/maps/place/?q=place_id:ChIJp02lWtixEmsRKuZV8s8AQ7A",
    "rating": 3.5,
    "total_ratings": 714
  },
  {
    "name": "Lord Wolseley Hotel",
    "address": "265 Bulwara Rd, Ultimo",
    "suburb": "Sydney CBD",
    "state": "NSW",
    "lat": -33.8766475,
    "lng": 151.1967118,
    "place_id": "ChIJFc6Hwy-uEmsRgmTrfcj8G4A",
    "maps_url": "https://www.google.com/maps/place/?q=place_id:ChIJFc6Hwy-uEmsRgmTrfcj8G4A",
    "rating": 4.4,
    "total_ratings": 793
  },
  {
    "name": "DeVere Hotel",
    "address": "44-46 Macleay St, Potts Point",
    "suburb": "Sydney CBD",
    "state": "NSW",
    "lat": -33.870779,
    "lng": 151.2253747,
    "place_id": "ChIJeb3ADnOuEmsRtNP0VODCK0E",
    "maps_url": "https://www.google.com/maps/place/?q=place_id:ChIJeb3ADnOuEmsRtNP0VODCK0E",
    "rating": 3.4,
    "total_ratings": 667
  },
  {
    "name": "Hughenden Hotel",
    "address": "14 Queen St, Woollahra",
    "suburb": "Sydney CBD",
    "state": "NSW",
    "lat": -33.8888476,
    "lng": 151.2335864,
    "place_id": "ChIJt9wRYAeuEmsRGbARaq_D7KE",
    "maps_url": "https://www.google.com/maps/place/?q=place_id:ChIJt9wRYAeuEmsRGbARaq_D7KE",
    "rating": 4.1,
    "total_ratings": 285
  },
  {
    "name": "Park Regis Concierge Apartments, Cremorne",
    "address": "287 Military Rd, Cremorne",
    "suburb": "Sydney CBD",
    "state": "NSW",
    "lat": -33.8285861,
    "lng": 151.2296199,
    "place_id": "ChIJYzFtO6GuEmsRTR3ot6jg-2U",
    "maps_url": "https://www.google.com/maps/place/?q=place_id:ChIJYzFtO6GuEmsRTR3ot6jg-2U",
    "rating": 4.1,
    "total_ratings": 337
  },
  {
    "name": "Coogee Beach House",
    "address": "171 Arden St, Coogee",
    "suburb": "Sydney CBD",
    "state": "NSW",
    "lat": -33.91851,
    "lng": 151.2575109,
    "place_id": "ChIJOemwMGuyEmsRGgXYgOkPSwY",
    "maps_url": "https://www.google.com/maps/place/?q=place_id:ChIJOemwMGuyEmsRGgXYgOkPSwY",
    "rating": 4,
    "total_ratings": 130
  },
  {
    "name": "Holiday Inn & Suites Sydney Bondi Junction, an IHG Hotel",
    "address": "28 Spring St, Bondi Junction",
    "suburb": "Sydney CBD",
    "state": "NSW",
    "lat": -33.89186979999999,
    "lng": 151.2465485,
    "place_id": "ChIJVX4_wrKtEmsRSR0Ngj_5csc",
    "maps_url": "https://www.google.com/maps/place/?q=place_id:ChIJVX4_wrKtEmsRSR0Ngj_5csc",
    "rating": 4,
    "total_ratings": 143
  },
  {
    "name": "The Baxley Bondi",
    "address": "44 Flood St, Bondi",
    "suburb": "Sydney CBD",
    "state": "NSW",
    "lat": -33.8926217,
    "lng": 151.2591323,
    "place_id": "ChIJLZDc55KtEmsRW6ULzy4QvDw",
    "maps_url": "https://www.google.com/maps/place/?q=place_id:ChIJLZDc55KtEmsRW6ULzy4QvDw",
    "rating": 4.5,
    "total_ratings": 397
  },
  {
    "name": "Silkari The Charrington at Chatswood",
    "address": "22 Centennial Ave, Chatswood",
    "suburb": "Sydney CBD",
    "state": "NSW",
    "lat": -33.799072,
    "lng": 151.176658,
    "place_id": "ChIJgQhLtdKoEmsR2kgXjqmGJuA",
    "maps_url": "https://www.google.com/maps/place/?q=place_id:ChIJgQhLtdKoEmsR2kgXjqmGJuA",
    "rating": 4.5,
    "total_ratings": 229
  },
  {
    "name": "Neutral Bay Lodge",
    "address": "45 Kurraba Rd, Neutral Bay",
    "suburb": "Sydney CBD",
    "state": "NSW",
    "lat": -33.8400976,
    "lng": 151.2192719,
    "place_id": "ChIJZ9XALZCuEmsRRfyqB5F3YnI",
    "maps_url": "https://www.google.com/maps/place/?q=place_id:ChIJZ9XALZCuEmsRRfyqB5F3YnI",
    "rating": 3.8,
    "total_ratings": 150
  },
  {
    "name": "Metro Hotel Marlow Sydney Central",
    "address": "431-439 Pitt St, Haymarket",
    "suburb": "Sydney CBD",
    "state": "NSW",
    "lat": -33.8791611,
    "lng": 151.2068743,
    "place_id": "ChIJX-77JSOuEmsR2QhWjS9FlYg",
    "maps_url": "https://www.google.com/maps/place/?q=place_id:ChIJX-77JSOuEmsR2QhWjS9FlYg",
    "rating": 3.5,
    "total_ratings": 1697
  },
  {
    "name": "Little Coogee Hotel",
    "address": "272 Clovelly Rd, Coogee",
    "suburb": "Sydney CBD",
    "state": "NSW",
    "lat": -33.9123348,
    "lng": 151.2582655,
    "place_id": "ChIJkZkcYW2yEmsRhOWLyLopps8",
    "maps_url": "https://www.google.com/maps/place/?q=place_id:ChIJkZkcYW2yEmsRhOWLyLopps8",
    "rating": 4.4,
    "total_ratings": 442
  },
  {
    "name": "Hotel Bondi",
    "address": "178 Campbell Parade, Bondi Beach",
    "suburb": "Sydney CBD",
    "state": "NSW",
    "lat": -33.8898692,
    "lng": 151.2752082,
    "place_id": "ChIJ_UHCsZ6tEmsRv7VoMBTS-B8",
    "maps_url": "https://www.google.com/maps/place/?q=place_id:ChIJ_UHCsZ6tEmsRv7VoMBTS-B8",
    "rating": 3.9,
    "total_ratings": 1386
  },
  {
    "name": "Dalziel Lodge",
    "address": "44 West St, North Sydney",
    "suburb": "Sydney CBD",
    "state": "NSW",
    "lat": -33.8317582,
    "lng": 151.2053396,
    "place_id": "ChIJDzzj9uuuEmsRK0RUpYey-ME",
    "maps_url": "https://www.google.com/maps/place/?q=place_id:ChIJDzzj9uuuEmsRK0RUpYey-ME",
    "rating": 4.4,
    "total_ratings": 223
  },
  {
    "name": "ibis budget Sydney Airport",
    "address": "5 Ross Smith Ave, Mascot",
    "suburb": "Sydney CBD",
    "state": "NSW",
    "lat": -33.9327008,
    "lng": 151.1874378,
    "place_id": "ChIJtcSyhQKxEmsRdYKutjwmF3g",
    "maps_url": "https://www.google.com/maps/place/?q=place_id:ChIJtcSyhQKxEmsRdYKutjwmF3g",
    "rating": 3.2,
    "total_ratings": 2814
  },
  {
    "name": "Little Drifter Bondi Beach",
    "address": "19 Lamrock Ave, Bondi Beach",
    "suburb": "Sydney CBD",
    "state": "NSW",
    "lat": -33.8913495,
    "lng": 151.2714412,
    "place_id": "ChIJuXqVTJqtEmsRRZL0tSjerxk",
    "maps_url": "https://www.google.com/maps/place/?q=place_id:ChIJuXqVTJqtEmsRRZL0tSjerxk",
    "rating": 4,
    "total_ratings": 757
  },
  {
    "name": "Hotel Urban St Leonards",
    "address": "194 Pacific Hwy, Greenwich",
    "suburb": "Sydney CBD",
    "state": "NSW",
    "lat": -33.8229741,
    "lng": 151.1866991,
    "place_id": "ChIJD8DU4x-vEmsRXjV3ZcQihSY",
    "maps_url": "https://www.google.com/maps/place/?q=place_id:ChIJD8DU4x-vEmsRXjV3ZcQihSY",
    "rating": 4.2,
    "total_ratings": 650
  },
  {
    "name": "Kith Hotel Darling Harbour",
    "address": "131-133 Murray St, Pyrmont",
    "suburb": "Sydney CBD",
    "state": "NSW",
    "lat": -33.872284,
    "lng": 151.1971126,
    "place_id": "ChIJGwPNlDCuEmsRnGlmBCzAXYs",
    "maps_url": "https://www.google.com/maps/place/?q=place_id:ChIJGwPNlDCuEmsRnGlmBCzAXYs",
    "rating": 4.3,
    "total_ratings": 441
  },
  {
    "name": "The Savoy",
    "address": "2/45 Knox St, Double Bay",
    "suburb": "Sydney CBD",
    "state": "NSW",
    "lat": -33.876554,
    "lng": 151.242163,
    "place_id": "ChIJLxThgt2tEmsRzDFfaT-f05Q",
    "maps_url": "https://www.google.com/maps/place/?q=place_id:ChIJLxThgt2tEmsRzDFfaT-f05Q",
    "rating": 3.7,
    "total_ratings": 177
  },
  {
    "name": "The Blenheim Randwick",
    "address": "26 Blenheim St, Randwick",
    "suburb": "Sydney CBD",
    "state": "NSW",
    "lat": -33.9165238,
    "lng": 151.2387462,
    "place_id": "ChIJ60UfUB-yEmsRkVfvqki-ifY",
    "maps_url": "https://www.google.com/maps/place/?q=place_id:ChIJ60UfUB-yEmsRkVfvqki-ifY",
    "rating": 3.8,
    "total_ratings": 138
  },
  {
    "name": "Crown Hotel Surry Hills",
    "address": "587/589 Crown St, Surry Hills",
    "suburb": "Sydney CBD",
    "state": "NSW",
    "lat": -33.8913372,
    "lng": 151.2126746,
    "place_id": "ChIJHwGGRybIEWsRLSg5bVhyRAM",
    "maps_url": "https://www.google.com/maps/place/?q=place_id:ChIJHwGGRybIEWsRLSg5bVhyRAM",
    "rating": 3.7,
    "total_ratings": 609
  },
  {
    "name": "The Occidental Hotel",
    "address": "43 York St, Sydney",
    "suburb": "Sydney CBD",
    "state": "NSW",
    "lat": -33.8667279,
    "lng": 151.205624,
    "place_id": "ChIJ21jHvkCuEmsRhu0KZ5m9Dh0",
    "maps_url": "https://www.google.com/maps/place/?q=place_id:ChIJ21jHvkCuEmsRhu0KZ5m9Dh0",
    "rating": 4,
    "total_ratings": 1446
  },
  {
    "name": "Sydney Boutique Hotel",
    "address": "114 Darlinghurst Rd, Darlinghurst",
    "suburb": "Sydney CBD",
    "state": "NSW",
    "lat": -33.87669700000001,
    "lng": 151.2214883,
    "place_id": "ChIJ6W_3AxKuEmsRbx-4bSRa3m4",
    "maps_url": "https://www.google.com/maps/place/?q=place_id:ChIJ6W_3AxKuEmsRbx-4bSRa3m4",
    "rating": 4.3,
    "total_ratings": 1102
  },
  {
    "name": "Song Hotel Sydney",
    "address": "5/11 Wentworth Ave, Sydney",
    "suburb": "Sydney CBD",
    "state": "NSW",
    "lat": -33.87732630000001,
    "lng": 151.2116089,
    "place_id": "ChIJj51ltReuEmsRvRgllUGii1M",
    "maps_url": "https://www.google.com/maps/place/?q=place_id:ChIJj51ltReuEmsRvRgllUGii1M",
    "rating": 4.2,
    "total_ratings": 3719
  },
  {
    "name": "High Cross Randwick by Sydney Lodges",
    "address": "7-9 Cuthill St, Randwick",
    "suburb": "Sydney CBD",
    "state": "NSW",
    "lat": -33.9183768,
    "lng": 151.241526,
    "place_id": "ChIJW1ZCcCKyEmsR8UZSGZdrUko",
    "maps_url": "https://www.google.com/maps/place/?q=place_id:ChIJW1ZCcCKyEmsR8UZSGZdrUko",
    "rating": 4.5,
    "total_ratings": 495
  },
  {
    "name": "Marco Polo Motor Inn Sydney Hotel",
    "address": "42/44 Parramatta Rd, Summer Hill",
    "suburb": "Sydney CBD",
    "state": "NSW",
    "lat": -33.8881604,
    "lng": 151.1418597,
    "place_id": "ChIJeykCIwqwEmsR3sj8cJ_aEn0",
    "maps_url": "https://www.google.com/maps/place/?q=place_id:ChIJeykCIwqwEmsR3sj8cJ_aEn0",
    "rating": 3.6,
    "total_ratings": 584
  },
  {
    "name": "North Shore Hotel",
    "address": "310 Miller St, North Sydney",
    "suburb": "Sydney CBD",
    "state": "NSW",
    "lat": -33.8298497,
    "lng": 151.2082483,
    "place_id": "ChIJnzHC4-quEmsRKD-JhozJIVI",
    "maps_url": "https://www.google.com/maps/place/?q=place_id:ChIJnzHC4-quEmsRKD-JhozJIVI",
    "rating": 3.7,
    "total_ratings": 227
  },
  {
    "name": "Cambridge Lodge",
    "address": "109 Cambridge St, Stanmore",
    "suburb": "Sydney CBD",
    "state": "NSW",
    "lat": -33.8957545,
    "lng": 151.1672888,
    "place_id": "ChIJgyXK-j6wEmsRzF0_scOhfHQ",
    "maps_url": "https://www.google.com/maps/place/?q=place_id:ChIJgyXK-j6wEmsRzF0_scOhfHQ",
    "rating": 3.9,
    "total_ratings": 244
  },
  {
    "name": "Nomads Sydney",
    "address": "477 Kent St, Sydney",
    "suburb": "Sydney CBD",
    "state": "NSW",
    "lat": -33.8732123,
    "lng": 151.2049633,
    "place_id": "ChIJKwL_BDyuEmsROVMxBbEOOnk",
    "maps_url": "https://www.google.com/maps/place/?q=place_id:ChIJKwL_BDyuEmsROVMxBbEOOnk",
    "rating": 4,
    "total_ratings": 1478
  },
  {
    "name": "General Gordon Hotel",
    "address": "20 Swain St, Sydenham",
    "suburb": "Sydney CBD",
    "state": "NSW",
    "lat": -33.915303,
    "lng": 151.166426,
    "place_id": "ChIJfzwTYF6wEmsRm3b_OEV78Qo",
    "maps_url": "https://www.google.com/maps/place/?q=place_id:ChIJfzwTYF6wEmsRm3b_OEV78Qo",
    "rating": 4.4,
    "total_ratings": 1106
  },
  {
    "name": "Illinois Hotel Five Dock",
    "address": "15 Parramatta Rd, Five Dock",
    "suburb": "Sydney CBD",
    "state": "NSW",
    "lat": -33.8726997,
    "lng": 151.1259766,
    "place_id": "ChIJocycLLK6EmsRfU1pB9Un-D0",
    "maps_url": "https://www.google.com/maps/place/?q=place_id:ChIJocycLLK6EmsRfU1pB9Un-D0",
    "rating": 3.8,
    "total_ratings": 220
  },
  {
    "name": "Veriu Central",
    "address": "75 Wentworth Ave, Sydney",
    "suburb": "Sydney CBD",
    "state": "NSW",
    "lat": -33.8792654,
    "lng": 151.2093716,
    "place_id": "ChIJ1RYusiKuEmsRh6rlefxx4ec",
    "maps_url": "https://www.google.com/maps/place/?q=place_id:ChIJ1RYusiKuEmsRh6rlefxx4ec",
    "rating": 3.7,
    "total_ratings": 1113
  },
  {
    "name": "Azzurro Boutique Hotel - Surry Hills",
    "address": "84 Flinders St, Darlinghurst",
    "suburb": "Sydney CBD",
    "state": "NSW",
    "lat": -33.8834554,
    "lng": 151.2178275,
    "place_id": "ChIJK4bhSxquEmsRzWhKYJTq_nc",
    "maps_url": "https://www.google.com/maps/place/?q=place_id:ChIJK4bhSxquEmsRzWhKYJTq_nc",
    "rating": 3.8,
    "total_ratings": 211
  },
  {
    "name": "Newtown Backpackers",
    "address": "5/11 Egan St, Newtown",
    "suburb": "Sydney CBD",
    "state": "NSW",
    "lat": -33.8939403,
    "lng": 151.1820372,
    "place_id": "ChIJ5xb4f7axEmsRv972gxD8VxU",
    "maps_url": "https://www.google.com/maps/place/?q=place_id:ChIJ5xb4f7axEmsRv972gxD8VxU",
    "rating": 3.3,
    "total_ratings": 161
  },
  {
    "name": "Edgecliff Lodge Motel",
    "address": "32-44 New South Head Rd, Edgecliff",
    "suburb": "Sydney CBD",
    "state": "NSW",
    "lat": -33.8768701,
    "lng": 151.2329921,
    "place_id": "ChIJc2aIs-atEmsRsQsjEerAmQ4",
    "maps_url": "https://www.google.com/maps/place/?q=place_id:ChIJc2aIs-atEmsRsQsjEerAmQ4",
    "rating": 3.6,
    "total_ratings": 280
  },
  {
    "name": "Nesuto Woolloomooloo Apartment Hotel",
    "address": "88 Dowling St, Woolloomooloo",
    "suburb": "Sydney CBD",
    "state": "NSW",
    "lat": -33.8701988,
    "lng": 151.2215925,
    "place_id": "ChIJBR88YW2uEmsRv3AFuZwdRhs",
    "maps_url": "https://www.google.com/maps/place/?q=place_id:ChIJBR88YW2uEmsRv3AFuZwdRhs",
    "rating": 4.3,
    "total_ratings": 345
  },
  {
    "name": "Coogee Beachside Hostel",
    "address": "178 Coogee Bay Rd, Coogee",
    "suburb": "Sydney CBD",
    "state": "NSW",
    "lat": -33.9201997,
    "lng": 151.2536509,
    "place_id": "ChIJ7YIUnBWyEmsRaBAOhS4MykY",
    "maps_url": "https://www.google.com/maps/place/?q=place_id:ChIJ7YIUnBWyEmsRaBAOhS4MykY",
    "rating": 4,
    "total_ratings": 294
  },
  {
    "name": "Central Studio Hotel Sydney",
    "address": "803-813 George St, Haymarket",
    "suburb": "Sydney CBD",
    "state": "NSW",
    "lat": -33.8826478,
    "lng": 151.2036672,
    "place_id": "ChIJf0G9tsivEmsRG3ivK4dfMhg",
    "maps_url": "https://www.google.com/maps/place/?q=place_id:ChIJf0G9tsivEmsRG3ivK4dfMhg",
    "rating": 3.2,
    "total_ratings": 484
  },
  {
    "name": "The Ultimo Sydney",
    "address": "4/37 Ultimo Rd, Haymarket",
    "suburb": "Sydney CBD",
    "state": "NSW",
    "lat": -33.8806794,
    "lng": 151.2034411,
    "place_id": "ChIJGc3AaSSuEmsRN-dY0AiwO3U",
    "maps_url": "https://www.google.com/maps/place/?q=place_id:ChIJGc3AaSSuEmsRN-dY0AiwO3U",
    "rating": 4.2,
    "total_ratings": 995
  },
  {
    "name": "Space Q Capsule Hotel",
    "address": "752 George St, Haymarket",
    "suburb": "Sydney CBD",
    "state": "NSW",
    "lat": -33.8800922,
    "lng": 151.2053111,
    "place_id": "ChIJFW1tcSOuEmsRH2zgwxUOIKY",
    "maps_url": "https://www.google.com/maps/place/?q=place_id:ChIJFW1tcSOuEmsRH2zgwxUOIKY",
    "rating": 3.9,
    "total_ratings": 853
  },
  {
    "name": "Little Drifter Surry Hills",
    "address": "203 Cleveland St, Surry Hills",
    "suburb": "Sydney CBD",
    "state": "NSW",
    "lat": -33.8895221,
    "lng": 151.2037383,
    "place_id": "ChIJQcCmztixEmsRtXU2hiHZQyA",
    "maps_url": "https://www.google.com/maps/place/?q=place_id:ChIJQcCmztixEmsRtXU2hiHZQyA",
    "rating": 4.2,
    "total_ratings": 1301
  },
  {
    "name": "Darling Harbour",
    "address": "22 Allen St, Pyrmont",
    "suburb": "Sydney CBD",
    "state": "NSW",
    "lat": -33.8729842,
    "lng": 151.1967718,
    "place_id": "ChIJfUIfMK2vEmsR1NyaTHoocUQ",
    "maps_url": "https://www.google.com/maps/place/?q=place_id:ChIJfUIfMK2vEmsR1NyaTHoocUQ",
    "rating": 4.3,
    "total_ratings": 7
  },
  {
    "name": "Cityview Studio Accommodation-Sydney Leichhardt Apartment hotel",
    "address": "347-349 Parramatta Rd, Leichhardt",
    "suburb": "Sydney CBD",
    "state": "NSW",
    "lat": -33.8876851,
    "lng": 151.1591758,
    "place_id": "ChIJ4y48QhewEmsRFmhkdiNuJUY",
    "maps_url": "https://www.google.com/maps/place/?q=place_id:ChIJ4y48QhewEmsRFmhkdiNuJUY",
    "rating": 3.4,
    "total_ratings": 95
  },
  {
    "name": "Metro Aspire Hotel Sydney",
    "address": "383-389 Bulwara Rd, Ultimo",
    "suburb": "Sydney CBD",
    "state": "NSW",
    "lat": -33.8803313,
    "lng": 151.1985576,
    "place_id": "ChIJ62O3LjyuEmsRaaDHZIqUXNg",
    "maps_url": "https://www.google.com/maps/place/?q=place_id:ChIJ62O3LjyuEmsRaaDHZIqUXNg",
    "rating": 4.2,
    "total_ratings": 1132
  },
  {
    "name": "Holiday Inn Express Sydney Macquarie Park by IHG",
    "address": "10 Byfield St, Macquarie Park",
    "suburb": "North Sydney",
    "state": "NSW",
    "lat": -33.7808967,
    "lng": 151.1201109,
    "place_id": "ChIJyYA_oAumEmsRaAGoDVDIluU",
    "maps_url": "https://www.google.com/maps/place/?q=place_id:ChIJyYA_oAumEmsRaAGoDVDIluU",
    "rating": 4.2,
    "total_ratings": 989
  },
  {
    "name": "Meriton Suites North Ryde",
    "address": "88 Talavera Rd, North Ryde",
    "suburb": "North Sydney",
    "state": "NSW",
    "lat": -33.7754091,
    "lng": 151.1221387,
    "place_id": "ChIJH4KixxKmEmsRq_ww1mFbTmM",
    "maps_url": "https://www.google.com/maps/place/?q=place_id:ChIJH4KixxKmEmsRq_ww1mFbTmM",
    "rating": 4.4,
    "total_ratings": 811
  },
  {
    "name": "Killara Hotel & Suites",
    "address": "480 Pacific Hwy, Killara",
    "suburb": "North Sydney",
    "state": "NSW",
    "lat": -33.7719039,
    "lng": 151.1610412,
    "place_id": "ChIJvZAD-5SoEmsRRuMVc5NbvGk",
    "maps_url": "https://www.google.com/maps/place/?q=place_id:ChIJvZAD-5SoEmsRRuMVc5NbvGk",
    "rating": 3.6,
    "total_ratings": 295
  },
  {
    "name": "Mantra Sydney Central",
    "address": "653 George St, Haymarket",
    "suburb": "North Sydney",
    "state": "NSW",
    "lat": -33.8790321,
    "lng": 151.205166,
    "place_id": "ChIJK7YzQyOuEmsRwAxIacG2RMg",
    "maps_url": "https://www.google.com/maps/place/?q=place_id:ChIJK7YzQyOuEmsRwAxIacG2RMg",
    "rating": 3.6,
    "total_ratings": 1136
  },
  {
    "name": "Aiden Hotel Darling Harbour",
    "address": "45 Murray St, Pyrmont",
    "suburb": "North Sydney",
    "state": "NSW",
    "lat": -33.8702783,
    "lng": 151.1975857,
    "place_id": "ChIJzV04vCKvEmsRmIULacWbs34",
    "maps_url": "https://www.google.com/maps/place/?q=place_id:ChIJzV04vCKvEmsRmIULacWbs34",
    "rating": 4.5,
    "total_ratings": 345
  },
  {
    "name": "Dunkirk Hotel",
    "address": "205 Harris St, Pyrmont",
    "suburb": "North Sydney",
    "state": "NSW",
    "lat": -33.8713327,
    "lng": 151.1947142,
    "place_id": "ChIJ4UEnPTGuEmsRkjpDW7FRSko",
    "maps_url": "https://www.google.com/maps/place/?q=place_id:ChIJ4UEnPTGuEmsRkjpDW7FRSko",
    "rating": 4.3,
    "total_ratings": 783
  },
  {
    "name": "The Native Rose Hotel",
    "address": "68 Victoria Rd, Rozelle",
    "suburb": "North Sydney",
    "state": "NSW",
    "lat": -33.8658977,
    "lng": 151.172411,
    "place_id": "ChIJQRDWtMWvEmsRM9vU41q-8Pk",
    "maps_url": "https://www.google.com/maps/place/?q=place_id:ChIJQRDWtMWvEmsRM9vU41q-8Pk",
    "rating": 4.3,
    "total_ratings": 326
  },
  {
    "name": "Quest Macquarie Park",
    "address": "71 Epping Rd, Macquarie Park",
    "suburb": "North Sydney",
    "state": "NSW",
    "lat": -33.78806,
    "lng": 151.127486,
    "place_id": "ChIJ8S77wOKlEmsR-ASoSVVzvZk",
    "maps_url": "https://www.google.com/maps/place/?q=place_id:ChIJ8S77wOKlEmsR-ASoSVVzvZk",
    "rating": 4.2,
    "total_ratings": 827
  },
  {
    "name": "Quest St Leonards",
    "address": "10 Atchison St, St Leonards",
    "suburb": "North Sydney",
    "state": "NSW",
    "lat": -33.8226849,
    "lng": 151.196092,
    "place_id": "ChIJAWh7Dt2uEmsRcQQVOil5gaY",
    "maps_url": "https://www.google.com/maps/place/?q=place_id:ChIJAWh7Dt2uEmsRcQQVOil5gaY",
    "rating": 4.4,
    "total_ratings": 430
  },
  {
    "name": "The Merton Hotel",
    "address": "38 Victoria Rd, Rozelle",
    "suburb": "North Sydney",
    "state": "NSW",
    "lat": -33.86633,
    "lng": 151.173499,
    "place_id": "ChIJFz87v8WvEmsRPf8F3Yo8KBE",
    "maps_url": "https://www.google.com/maps/place/?q=place_id:ChIJFz87v8WvEmsRPf8F3Yo8KBE",
    "rating": 4.5,
    "total_ratings": 384
  },
  {
    "name": "Wake Up! Sydney",
    "address": "ATM 7232/509 Pitt St, Haymarket",
    "suburb": "North Sydney",
    "state": "NSW",
    "lat": -33.8823104,
    "lng": 151.2046682,
    "place_id": "ChIJ1_5Y_yOuEmsRU3ORQg0SYpg",
    "maps_url": "https://www.google.com/maps/place/?q=place_id:ChIJ1_5Y_yOuEmsRU3ORQg0SYpg",
    "rating": 4.5,
    "total_ratings": 2756
  },
  {
    "name": "Courthouse Hotel",
    "address": "189 Oxford St, Darlinghurst",
    "suburb": "North Sydney",
    "state": "NSW",
    "lat": -33.8806558,
    "lng": 151.2166346,
    "place_id": "ChIJeTTZqBCuEmsReniFW-xJ8pM",
    "maps_url": "https://www.google.com/maps/place/?q=place_id:ChIJeTTZqBCuEmsReniFW-xJ8pM",
    "rating": 4,
    "total_ratings": 402
  },
  {
    "name": "Blues Point Hotel",
    "address": "116 Blues Point Rd, McMahons Point",
    "suburb": "North Sydney",
    "state": "NSW",
    "lat": -33.84563320000001,
    "lng": 151.2038812,
    "place_id": "ChIJVed6dPauEmsR2LztWS0CopA",
    "maps_url": "https://www.google.com/maps/place/?q=place_id:ChIJVed6dPauEmsR2LztWS0CopA",
    "rating": 4.1,
    "total_ratings": 741
  },
  {
    "name": "Ryde Inn",
    "address": "860 Victoria Rd, Ryde",
    "suburb": "Chatswood",
    "state": "NSW",
    "lat": -33.8139399,
    "lng": 151.096245,
    "place_id": "ChIJJcYRhqylEmsRkKCM2ybklI8",
    "maps_url": "https://www.google.com/maps/place/?q=place_id:ChIJJcYRhqylEmsRkKCM2ybklI8",
    "rating": 3.8,
    "total_ratings": 387
  },
  {
    "name": "The Palace Hotel",
    "address": "62 Tennyson Rd, Mortlake",
    "suburb": "Chatswood",
    "state": "NSW",
    "lat": -33.8424521,
    "lng": 151.1075007,
    "place_id": "ChIJuRYM2RelEmsR9tYjuwtHweg",
    "maps_url": "https://www.google.com/maps/place/?q=place_id:ChIJuRYM2RelEmsR9tYjuwtHweg",
    "rating": 4.1,
    "total_ratings": 747
  },
  {
    "name": "Nightcap at Pymble Hotel",
    "address": "1134 Pacific Hwy, Pymble",
    "suburb": "Chatswood",
    "state": "NSW",
    "lat": -33.743976,
    "lng": 151.1405353,
    "place_id": "ChIJazk73aahEmsR4QVg7hJT_Vo",
    "maps_url": "https://www.google.com/maps/place/?q=place_id:ChIJazk73aahEmsR4QVg7hJT_Vo",
    "rating": 3.9,
    "total_ratings": 461
  },
  {
    "name": "Royal Hotel Ryde",
    "address": "68 Blaxland Rd, Ryde",
    "suburb": "Chatswood",
    "state": "NSW",
    "lat": -33.8143163,
    "lng": 151.1065983,
    "place_id": "ChIJlfMSdKWlEmsRtEl1_h7cAU8",
    "maps_url": "https://www.google.com/maps/place/?q=place_id:ChIJlfMSdKWlEmsRtEl1_h7cAU8",
    "rating": 4,
    "total_ratings": 517
  },
  {
    "name": "Mercure Sydney Macquarie Park",
    "address": "81 Talavera Rd, North Ryde",
    "suburb": "Chatswood",
    "state": "NSW",
    "lat": -33.7724758,
    "lng": 151.1169929,
    "place_id": "ChIJpStFh0SnEmsRDq8forxEK8A",
    "maps_url": "https://www.google.com/maps/place/?q=place_id:ChIJpStFh0SnEmsRDq8forxEK8A",
    "rating": 4.5,
    "total_ratings": 624
  },
  {
    "name": "Seranin | Gordon",
    "address": "807 Pacific Hwy, Gordon",
    "suburb": "Chatswood",
    "state": "NSW",
    "lat": -33.7523696,
    "lng": 151.1499921,
    "place_id": "ChIJ-T05l4eoEmsRLpVkxu2vKdg",
    "maps_url": "https://www.google.com/maps/place/?q=place_id:ChIJ-T05l4eoEmsRLpVkxu2vKdg",
    "rating": 3.5,
    "total_ratings": 68
  },
  {
    "name": "Rydges North Sydney",
    "address": "54 McLaren St, North Sydney",
    "suburb": "Chatswood",
    "state": "NSW",
    "lat": -33.8343062,
    "lng": 151.2088325,
    "place_id": "ChIJ9cSv5-yuEmsRmZ1qhZs5F9M",
    "maps_url": "https://www.google.com/maps/place/?q=place_id:ChIJ9cSv5-yuEmsRmZ1qhZs5F9M",
    "rating": 3.4,
    "total_ratings": 1225
  },
  {
    "name": "Lakeside Hotel & Conference Centre",
    "address": "1 Executive Rd, Macquarie Park",
    "suburb": "Chatswood",
    "state": "NSW",
    "lat": -33.7713301,
    "lng": 151.1158846,
    "place_id": "ChIJIfusgRKmEmsRtvhS0vWCtew",
    "maps_url": "https://www.google.com/maps/place/?q=place_id:ChIJIfusgRKmEmsRtvhS0vWCtew",
    "rating": 3.8,
    "total_ratings": 39
  },
  {
    "name": "Studio 8 Residences in Ryde",
    "address": "8 Tucker St, Ryde",
    "suburb": "Chatswood",
    "state": "NSW",
    "lat": -33.8134497,
    "lng": 151.1064097,
    "place_id": "ChIJL_iNa6WlEmsRcebd7l_DG1M",
    "maps_url": "https://www.google.com/maps/place/?q=place_id:ChIJL_iNa6WlEmsRcebd7l_DG1M",
    "rating": 4.4,
    "total_ratings": 420
  },
  {
    "name": "Hotel St Leonards",
    "address": "196 Pacific Hwy, St Leonards",
    "suburb": "Chatswood",
    "state": "NSW",
    "lat": -33.8226354,
    "lng": 151.1865541,
    "place_id": "ChIJ___T5B-vEmsRRN6nPxWRNWU",
    "maps_url": "https://www.google.com/maps/place/?q=place_id:ChIJ___T5B-vEmsRRN6nPxWRNWU",
    "rating": 3.4,
    "total_ratings": 115
  },
  {
    "name": "North Ryde guest house",
    "address": "22 David Ave, North Ryde",
    "suburb": "Chatswood",
    "state": "NSW",
    "lat": -33.78638890000001,
    "lng": 151.1205556,
    "place_id": "ChIJNRIhseGlEmsRg7VesBbOTK4",
    "maps_url": "https://www.google.com/maps/place/?q=place_id:ChIJNRIhseGlEmsRg7VesBbOTK4",
    "rating": 3.3,
    "total_ratings": 77
  },
  {
    "name": "North Sydney Hotel",
    "address": "292 Miller St, North Sydney",
    "suburb": "Chatswood",
    "state": "NSW",
    "lat": -33.8307113,
    "lng": 151.2083783,
    "place_id": "ChIJs19DfVtTDWsRxQ0lqs3fmaE",
    "maps_url": "https://www.google.com/maps/place/?q=place_id:ChIJs19DfVtTDWsRxQ0lqs3fmaE",
    "rating": 4.2,
    "total_ratings": 563
  },
  {
    "name": "The Sebel Sydney Martin Place",
    "address": "165 Phillip St, Sydney",
    "suburb": "Chatswood",
    "state": "NSW",
    "lat": -33.8685829,
    "lng": 151.2108889,
    "place_id": "ChIJo_kkKAuvEmsR6lAbiOS5G5s",
    "maps_url": "https://www.google.com/maps/place/?q=place_id:ChIJo_kkKAuvEmsR6lAbiOS5G5s",
    "rating": 3.8,
    "total_ratings": 280
  },
  {
    "name": "Crowne Plaza Sydney Macquarie Park by IHG",
    "address": "7/11 Talavera Rd, North Ryde",
    "suburb": "Chatswood",
    "state": "NSW",
    "lat": -33.7831597,
    "lng": 151.1297062,
    "place_id": "ChIJG9H2EAamEmsRcHd9FMpiCio",
    "maps_url": "https://www.google.com/maps/place/?q=place_id:ChIJG9H2EAamEmsRcHd9FMpiCio",
    "rating": 3.9,
    "total_ratings": 158
  },
  {
    "name": "Greenwich Inn Hotel",
    "address": "196 Pacific Hwy, Greenwich",
    "suburb": "Chatswood",
    "state": "NSW",
    "lat": -33.82269350000001,
    "lng": 151.186409,
    "place_id": "ChIJXXaW_B-vEmsRtV9-Mb2ZykY",
    "maps_url": "https://www.google.com/maps/place/?q=place_id:ChIJXXaW_B-vEmsRtV9-Mb2ZykY",
    "rating": 3.4,
    "total_ratings": 222
  },
  {
    "name": "The Australian Heritage Hotel",
    "address": "100 Cumberland St, The Rocks",
    "suburb": "Chatswood",
    "state": "NSW",
    "lat": -33.8596507,
    "lng": 151.2069695,
    "place_id": "ChIJEdFzHEOuEmsRBIxhVFm8H_U",
    "maps_url": "https://www.google.com/maps/place/?q=place_id:ChIJEdFzHEOuEmsRBIxhVFm8H_U",
    "rating": 4.3,
    "total_ratings": 2113
  },
  {
    "name": "Quest Chatswood",
    "address": "38 Albert Ave, Chatswood",
    "suburb": "Chatswood",
    "state": "NSW",
    "lat": -33.7975858,
    "lng": 151.186077,
    "place_id": "ChIJG9T58NWoEmsRFULQqYjUtkg",
    "maps_url": "https://www.google.com/maps/place/?q=place_id:ChIJG9T58NWoEmsRFULQqYjUtkg",
    "rating": 4,
    "total_ratings": 384
  },
  {
    "name": "The Ascot Motel",
    "address": "55 Cam St, Wahroonga",
    "suburb": "Hornsby",
    "state": "NSW",
    "lat": -33.7160131,
    "lng": 151.1091819,
    "place_id": "ChIJ2TgxxZanEmsReTJ0oIkose8",
    "maps_url": "https://www.google.com/maps/place/?q=place_id:ChIJ2TgxxZanEmsReTJ0oIkose8",
    "rating": 3.5,
    "total_ratings": 335
  },
  {
    "name": "ibis Sydney Thornleigh",
    "address": "200/212 Pennant Hills Rd, Thornleigh",
    "suburb": "Hornsby",
    "state": "NSW",
    "lat": -33.7278485,
    "lng": 151.0833844,
    "place_id": "ChIJUW5ZwASnEmsRmFrKyNKuT2c",
    "maps_url": "https://www.google.com/maps/place/?q=place_id:ChIJUW5ZwASnEmsRmFrKyNKuT2c",
    "rating": 3.8,
    "total_ratings": 724
  },
  {
    "name": "Mount Kuring-Gai Motel",
    "address": "705 Pacific Hwy, Mount Kuring-gai",
    "suburb": "Hornsby",
    "state": "NSW",
    "lat": -33.6602177,
    "lng": 151.1275096,
    "place_id": "ChIJVzBawNlZDWsR_HVTMDsP6pk",
    "maps_url": "https://www.google.com/maps/place/?q=place_id:ChIJVzBawNlZDWsR_HVTMDsP6pk",
    "rating": 4.3,
    "total_ratings": 163
  },
  {
    "name": "Nesuto Pennant Hills Apartment Hotel",
    "address": "2 City View Rd, Pennant Hills",
    "suburb": "Hornsby",
    "state": "NSW",
    "lat": -33.7399195,
    "lng": 151.0682262,
    "place_id": "ChIJU75WJN2mEmsRipUtsIVA4Ag",
    "maps_url": "https://www.google.com/maps/place/?q=place_id:ChIJU75WJN2mEmsRipUtsIVA4Ag",
    "rating": 3.6,
    "total_ratings": 188
  },
  {
    "name": "The Hornsby Inn",
    "address": "Burdett St &, 37 Hunter St, Hornsby",
    "suburb": "Hornsby",
    "state": "NSW",
    "lat": -33.70294510000001,
    "lng": 151.1006003,
    "place_id": "ChIJ-XMpqYanEmsRzT9mWWJ5AOI",
    "maps_url": "https://www.google.com/maps/place/?q=place_id:ChIJ-XMpqYanEmsRzT9mWWJ5AOI",
    "rating": 4,
    "total_ratings": 693
  },
  {
    "name": "Wahroonga Furnished Apartments",
    "address": "1 Woolcott Ave, Wahroonga",
    "suburb": "Hornsby",
    "state": "NSW",
    "lat": -33.716291,
    "lng": 151.1083268,
    "place_id": "ChIJ__-P35anEmsRlsOptJMEGPU",
    "maps_url": "https://www.google.com/maps/place/?q=place_id:ChIJ__-P35anEmsRlsOptJMEGPU",
    "rating": 4.3,
    "total_ratings": 7
  },
  {
    "name": "Dural Hotel/Motel",
    "address": "271 New Line Rd, Dural",
    "suburb": "Hornsby",
    "state": "NSW",
    "lat": -33.6981102,
    "lng": 151.0278455,
    "place_id": "ChIJzQzIFr-gEmsRz85fDcH3H-M",
    "maps_url": "https://www.google.com/maps/place/?q=place_id:ChIJzQzIFr-gEmsRz85fDcH3H-M",
    "rating": 3.6,
    "total_ratings": 16
  },
  {
    "name": "Time and Tide Hotel",
    "address": "30 Campbell Ave, Dee Why",
    "suburb": "Manly",
    "state": "NSW",
    "lat": -33.7420765,
    "lng": 151.2879386,
    "place_id": "ChIJ0TbiWnxVDWsRAmOQAmWh0rM",
    "maps_url": "https://www.google.com/maps/place/?q=place_id:ChIJ0TbiWnxVDWsRAmOQAmWh0rM",
    "rating": 4,
    "total_ratings": 566
  },
  {
    "name": "Mercure Sydney Manly Warringah",
    "address": "4 Victor Rd, Brookvale",
    "suburb": "Manly",
    "state": "NSW",
    "lat": -33.7603568,
    "lng": 151.2767779,
    "place_id": "ChIJed40FwSrEmsROa4VnijOu_0",
    "maps_url": "https://www.google.com/maps/place/?q=place_id:ChIJed40FwSrEmsROa4VnijOu_0",
    "rating": 3.8,
    "total_ratings": 363
  },
  {
    "name": "Manly Paradise Motel & Apartments",
    "address": "54 N Steyne, Manly",
    "suburb": "Manly",
    "state": "NSW",
    "lat": -33.7959805,
    "lng": 151.2873219,
    "place_id": "ChIJpe6m8wWrEmsRF41jnHCDinE",
    "maps_url": "https://www.google.com/maps/place/?q=place_id:ChIJpe6m8wWrEmsRF41jnHCDinE",
    "rating": 4.1,
    "total_ratings": 151
  },
  {
    "name": "Stoke Beach House, Manly",
    "address": "24-28 Raglan St, Manly",
    "suburb": "Manly",
    "state": "NSW",
    "lat": -33.795311,
    "lng": 151.2855739,
    "place_id": "ChIJE8j8z4GrEmsRhfXKLkIN_-g",
    "maps_url": "https://www.google.com/maps/place/?q=place_id:ChIJE8j8z4GrEmsRhfXKLkIN_-g",
    "rating": 4.2,
    "total_ratings": 271
  },
  {
    "name": "Mariners Court Hotel Sydney",
    "address": "44-50 McElhone St, Woolloomooloo",
    "suburb": "Manly",
    "state": "NSW",
    "lat": -33.87065330000001,
    "lng": 151.2218744,
    "place_id": "ChIJOyPSn3KuEmsRiO-FEg8jFH4",
    "maps_url": "https://www.google.com/maps/place/?q=place_id:ChIJOyPSn3KuEmsRiO-FEg8jFH4",
    "rating": 4,
    "total_ratings": 537
  },
  {
    "name": "Manly Waves Hotel: Studios & Apartments",
    "address": "19 Pacific St, Manly",
    "suburb": "Manly",
    "state": "NSW",
    "lat": -33.7881489,
    "lng": 151.2858443,
    "place_id": "ChIJQ_EfgQGrEmsRr-Qrdc9MnJI",
    "maps_url": "https://www.google.com/maps/place/?q=place_id:ChIJQ_EfgQGrEmsRr-Qrdc9MnJI",
    "rating": 3.7,
    "total_ratings": 144
  },
  {
    "name": "Macleay Hotel",
    "address": "28 Macleay St, Elizabeth Bay",
    "suburb": "Manly",
    "state": "NSW",
    "lat": -33.8698073,
    "lng": 151.2256715,
    "place_id": "ChIJ089or3OuEmsR_Jjys3rXBoQ",
    "maps_url": "https://www.google.com/maps/place/?q=place_id:ChIJ089or3OuEmsR_Jjys3rXBoQ",
    "rating": 4.2,
    "total_ratings": 746
  },
  {
    "name": "Astra Apartments North Sydney",
    "address": "Angelo St, North Sydney",
    "suburb": "Manly",
    "state": "NSW",
    "lat": -33.8355403,
    "lng": 151.2057972,
    "place_id": "ChIJwb_d9-2uEmsRSb9zPHCFoH0",
    "maps_url": "https://www.google.com/maps/place/?q=place_id:ChIJwb_d9-2uEmsRSb9zPHCFoH0",
    "rating": 4.8,
    "total_ratings": 35
  },
  {
    "name": "The Grace Sydney",
    "address": "77 York St, Sydney",
    "suburb": "Manly",
    "state": "NSW",
    "lat": -33.86896410000001,
    "lng": 151.2058908,
    "place_id": "ChIJnzcAQT-uEmsRHzT8I_C279w",
    "maps_url": "https://www.google.com/maps/place/?q=place_id:ChIJnzcAQT-uEmsRHzT8I_C279w",
    "rating": 4.3,
    "total_ratings": 3297
  },
  {
    "name": "The Albert Mosman",
    "address": "89B Cowles Rd, Mosman",
    "suburb": "Manly",
    "state": "NSW",
    "lat": -33.8238741,
    "lng": 151.2387231,
    "place_id": "ChIJ2008msatEmsRRT4jd92QyAM",
    "maps_url": "https://www.google.com/maps/place/?q=place_id:ChIJ2008msatEmsRRT4jd92QyAM",
    "rating": 4.8,
    "total_ratings": 258
  },
  {
    "name": "Meriton Suites North Sydney",
    "address": "80 Arthur St, North Sydney",
    "suburb": "Manly",
    "state": "NSW",
    "lat": -33.8402964,
    "lng": 151.2095872,
    "place_id": "ChIJj5q_2fKuEmsRsiwK3-p_s9E",
    "maps_url": "https://www.google.com/maps/place/?q=place_id:ChIJj5q_2fKuEmsRsiwK3-p_s9E",
    "rating": 4.5,
    "total_ratings": 941
  },
  {
    "name": "The Grand Hotel",
    "address": "Level 1/30 Hunter St, Sydney",
    "suburb": "Manly",
    "state": "NSW",
    "lat": -33.8654628,
    "lng": 151.2082644,
    "place_id": "ChIJydDNtkGuEmsRACYpPzuLkII",
    "maps_url": "https://www.google.com/maps/place/?q=place_id:ChIJydDNtkGuEmsRACYpPzuLkII",
    "rating": 3.8,
    "total_ratings": 875
  },
  {
    "name": "Vibe Hotel North Sydney",
    "address": "171 Pacific Hwy, North Sydney",
    "suburb": "Manly",
    "state": "NSW",
    "lat": -33.8377066,
    "lng": 151.2063688,
    "place_id": "ChIJ_XNlw-2uEmsRLmGtd7OZ084",
    "maps_url": "https://www.google.com/maps/place/?q=place_id:ChIJ_XNlw-2uEmsRLmGtd7OZ084",
    "rating": 4.1,
    "total_ratings": 781
  },
  {
    "name": "Citadines Walker North Sydney",
    "address": "88 Walker St, North Sydney",
    "suburb": "Manly",
    "state": "NSW",
    "lat": -33.8384542,
    "lng": 151.2086047,
    "place_id": "ChIJ6bu0mfKuEmsRO0kNgzh7Gww",
    "maps_url": "https://www.google.com/maps/place/?q=place_id:ChIJ6bu0mfKuEmsRO0kNgzh7Gww",
    "rating": 4.2,
    "total_ratings": 478
  },
  {
    "name": "Siesta Sydney",
    "address": "301 Kent St, Sydney",
    "suburb": "Manly",
    "state": "NSW",
    "lat": -33.867039,
    "lng": 151.2042382,
    "place_id": "ChIJcU_qU0euEmsRccFLm6g_9us",
    "maps_url": "https://www.google.com/maps/place/?q=place_id:ChIJcU_qU0euEmsRccFLm6g_9us",
    "rating": 4,
    "total_ratings": 386
  },
  {
    "name": "Hotel Steyne",
    "address": "75 The Corso, Manly",
    "suburb": "Manly",
    "state": "NSW",
    "lat": -33.7970838,
    "lng": 151.2878116,
    "place_id": "ChIJ0SobZw-rEmsR8XKo0XEZCPE",
    "maps_url": "https://www.google.com/maps/place/?q=place_id:ChIJ0SobZw-rEmsR8XKo0XEZCPE",
    "rating": 3.7,
    "total_ratings": 3448
  },
  {
    "name": "Hotel Challis Potts Point",
    "address": "21-23 Challis Ave, Potts Point",
    "suburb": "Manly",
    "state": "NSW",
    "lat": -33.8691503,
    "lng": 151.2246873,
    "place_id": "ChIJS8J6S3KuEmsRRRztG8zcspA",
    "maps_url": "https://www.google.com/maps/place/?q=place_id:ChIJS8J6S3KuEmsRRRztG8zcspA",
    "rating": 4.1,
    "total_ratings": 707
  },
  {
    "name": "Quest North Sydney",
    "address": "223 Miller St, North Sydney",
    "suburb": "Manly",
    "state": "NSW",
    "lat": -33.8358282,
    "lng": 151.2078803,
    "place_id": "ChIJCRlZ_nuvEmsRSaec0oM86sw",
    "maps_url": "https://www.google.com/maps/place/?q=place_id:ChIJCRlZ_nuvEmsRSaec0oM86sw",
    "rating": 4.6,
    "total_ratings": 296
  },
  {
    "name": "Lil Roo Hostel",
    "address": "87 Macleay St, Potts Point",
    "suburb": "Manly",
    "state": "NSW",
    "lat": -33.8710567,
    "lng": 151.2249111,
    "place_id": "ChIJ0aHqGiivEmsRBrTrkAXYAlo",
    "maps_url": "https://www.google.com/maps/place/?q=place_id:ChIJ0aHqGiivEmsRBrTrkAXYAlo",
    "rating": 3.8,
    "total_ratings": 213
  },
  {
    "name": "YHA Sydney Harbour - The Rocks",
    "address": "110 Cumberland St, The Rocks",
    "suburb": "Manly",
    "state": "NSW",
    "lat": -33.859953,
    "lng": 151.2069417,
    "place_id": "ChIJ7ROWBUOuEmsRxVKXiTS-KSo",
    "maps_url": "https://www.google.com/maps/place/?q=place_id:ChIJ7ROWBUOuEmsRxVKXiTS-KSo",
    "rating": 4.5,
    "total_ratings": 1542
  },
  {
    "name": "Ballantyne at Mosman",
    "address": "1 Ballantyne St, Mosman",
    "suburb": "Manly",
    "state": "NSW",
    "lat": -33.8315741,
    "lng": 151.2383162,
    "place_id": "ChIJD3EXxx6sEmsR5LllUH9CyDw",
    "maps_url": "https://www.google.com/maps/place/?q=place_id:ChIJD3EXxx6sEmsR5LllUH9CyDw",
    "rating": 4.3,
    "total_ratings": 84
  },
  {
    "name": "Milson Serviced Apartments",
    "address": "Milson Village, Shop 1b/48-50 Alfred Street South, 48 Alfred St S, Milsons Point",
    "suburb": "Manly",
    "state": "NSW",
    "lat": -33.8472959,
    "lng": 151.211386,
    "place_id": "ChIJzTC2x4quEmsRx9suFHrA-j4",
    "maps_url": "https://www.google.com/maps/place/?q=place_id:ChIJzTC2x4quEmsRx9suFHrA-j4",
    "rating": 3.9,
    "total_ratings": 124
  },
  {
    "name": "ibis budget Wentworthville",
    "address": "377-383 Great Western Hwy, Wentworthville",
    "suburb": "Parramatta",
    "state": "NSW",
    "lat": -33.8150457,
    "lng": 150.964961,
    "place_id": "ChIJoYPCTbqiEmsRKx_jK3oGRV0",
    "maps_url": "https://www.google.com/maps/place/?q=place_id:ChIJoYPCTbqiEmsRKx_jK3oGRV0",
    "rating": 3.4,
    "total_ratings": 999
  },
  {
    "name": "Novotel Sydney Olympic Park",
    "address": "11A Olympic Blvd, Sydney Olympic Park",
    "suburb": "Parramatta",
    "state": "NSW",
    "lat": -33.8478982,
    "lng": 151.0676393,
    "place_id": "ChIJecTU1LWkEmsR2Xk8_zpqEvU",
    "maps_url": "https://www.google.com/maps/place/?q=place_id:ChIJecTU1LWkEmsR2Xk8_zpqEvU",
    "rating": 4.1,
    "total_ratings": 1584
  },
  {
    "name": "Nightcap at Fairfield",
    "address": "47 Stanbrook St, Fairfield Heights",
    "suburb": "Parramatta",
    "state": "NSW",
    "lat": -33.8642747,
    "lng": 150.9395416,
    "place_id": "ChIJ2bKjqTOWEmsRsX5kGlRSe_E",
    "maps_url": "https://www.google.com/maps/place/?q=place_id:ChIJ2bKjqTOWEmsRsX5kGlRSe_E",
    "rating": 4.1,
    "total_ratings": 211
  },
  {
    "name": "ibis budget Enfield",
    "address": "626 Liverpool Rd, Strathfield South",
    "suburb": "Parramatta",
    "state": "NSW",
    "lat": -33.8871084,
    "lng": 151.0713713,
    "place_id": "ChIJG9LnJA27EmsR1uxtIbaMDws",
    "maps_url": "https://www.google.com/maps/place/?q=place_id:ChIJG9LnJA27EmsR1uxtIbaMDws",
    "rating": 3.3,
    "total_ratings": 705
  },
  {
    "name": "Melton Hotel",
    "address": "163 Parramatta Rd, Auburn",
    "suburb": "Parramatta",
    "state": "NSW",
    "lat": -33.84310809999999,
    "lng": 151.0398043,
    "place_id": "ChIJb-ToQVKjEmsRRMRNxXS1CwQ",
    "maps_url": "https://www.google.com/maps/place/?q=place_id:ChIJb-ToQVKjEmsRRMRNxXS1CwQ",
    "rating": 4.1,
    "total_ratings": 607
  },
  {
    "name": "Hotel Concord",
    "address": "39 Victoria Ave, Concord West",
    "suburb": "Parramatta",
    "state": "NSW",
    "lat": -33.8477727,
    "lng": 151.0862177,
    "place_id": "ChIJ8y8onNCkEmsRPgGMlKWQWng",
    "maps_url": "https://www.google.com/maps/place/?q=place_id:ChIJ8y8onNCkEmsRPgGMlKWQWng",
    "rating": 4.1,
    "total_ratings": 776
  },
  {
    "name": "Villawood Hotel",
    "address": "924 Woodville Rd, Villawood",
    "suburb": "Parramatta",
    "state": "NSW",
    "lat": -33.8860397,
    "lng": 150.974823,
    "place_id": "ChIJsW6A0pW9EmsRvd_lAlrFliI",
    "maps_url": "https://www.google.com/maps/place/?q=place_id:ChIJsW6A0pW9EmsRvd_lAlrFliI",
    "rating": 3.7,
    "total_ratings": 377
  },
  {
    "name": "Nightcap at Regents Park Hotel",
    "address": "2A Amy St, Regents Park",
    "suburb": "Parramatta",
    "state": "NSW",
    "lat": -33.8837507,
    "lng": 151.0245131,
    "place_id": "ChIJwyicDmC8EmsRv7F3aNKO2bs",
    "maps_url": "https://www.google.com/maps/place/?q=place_id:ChIJwyicDmC8EmsRv7F3aNKO2bs",
    "rating": 4.2,
    "total_ratings": 84
  },
  {
    "name": "Toongabbie Hotel",
    "address": "15 Aurelia St, Toongabbie",
    "suburb": "Parramatta",
    "state": "NSW",
    "lat": -33.7874772,
    "lng": 150.9502244,
    "place_id": "ChIJDVCzMHmYEmsRRbS4nLw92eE",
    "maps_url": "https://www.google.com/maps/place/?q=place_id:ChIJDVCzMHmYEmsRRbS4nLw92eE",
    "rating": 3.9,
    "total_ratings": 633
  },
  {
    "name": "Wentworth Hotel",
    "address": "195 Parramatta Rd, Homebush West",
    "suburb": "Parramatta",
    "state": "NSW",
    "lat": -33.8598247,
    "lng": 151.0732024,
    "place_id": "ChIJFZS2DUy7EmsRp-6Qr-Ct39s",
    "maps_url": "https://www.google.com/maps/place/?q=place_id:ChIJFZS2DUy7EmsRp-6Qr-Ct39s",
    "rating": 4,
    "total_ratings": 1400
  },
  {
    "name": "175 Hotel Westmead",
    "address": "175 Hawkesbury Rd, Westmead",
    "suburb": "Parramatta",
    "state": "NSW",
    "lat": -33.8056568,
    "lng": 150.9894385,
    "place_id": "ChIJIQXlj-WiEmsRh_UKADjfxI8",
    "maps_url": "https://www.google.com/maps/place/?q=place_id:ChIJIQXlj-WiEmsRh_UKADjfxI8",
    "rating": 4.4,
    "total_ratings": 345
  },
  {
    "name": "Quest at Sydney Olympic Park",
    "address": "6 Edwin Flack Ave, Sydney Olympic Park",
    "suburb": "Parramatta",
    "state": "NSW",
    "lat": -33.850611,
    "lng": 151.062445,
    "place_id": "ChIJa1vYBrOkEmsRjAMGjHm7FeI",
    "maps_url": "https://www.google.com/maps/place/?q=place_id:ChIJa1vYBrOkEmsRjAMGjHm7FeI",
    "rating": 3.9,
    "total_ratings": 668
  },
  {
    "name": "Markets Hotel",
    "address": "268 Parramatta Rd, Homebush West",
    "suburb": "Parramatta",
    "state": "NSW",
    "lat": -33.8601456,
    "lng": 151.0722399,
    "place_id": "ChIJtxiYbTa7EmsRcZFqsancXh0",
    "maps_url": "https://www.google.com/maps/place/?q=place_id:ChIJtxiYbTa7EmsRcZFqsancXh0",
    "rating": 4,
    "total_ratings": 416
  },
  {
    "name": "ibis budget Sydney Olympic Park",
    "address": "8 Edwin Flack Ave, Sydney Olympic Park",
    "suburb": "Parramatta",
    "state": "NSW",
    "lat": -33.8500039,
    "lng": 151.0621794,
    "place_id": "ChIJj58SKrSkEmsR4mdP13-EKyo",
    "maps_url": "https://www.google.com/maps/place/?q=place_id:ChIJj58SKrSkEmsR4mdP13-EKyo",
    "rating": 3.2,
    "total_ratings": 1101
  },
  {
    "name": "Granville Hotel",
    "address": "10 Good St, Granville",
    "suburb": "Parramatta",
    "state": "NSW",
    "lat": -33.831848,
    "lng": 151.011182,
    "place_id": "ChIJrdfFOy6jEmsRN0TioRDyexU",
    "maps_url": "https://www.google.com/maps/place/?q=place_id:ChIJrdfFOy6jEmsRN0TioRDyexU",
    "rating": 3.8,
    "total_ratings": 542
  },
  {
    "name": "Prospect Hotel Motel",
    "address": "3 Great Western Hwy, Prospect",
    "suburb": "Parramatta",
    "state": "NSW",
    "lat": -33.8053862,
    "lng": 150.9264174,
    "place_id": "ChIJR5O0wTyYEmsRPU6ppnXRIa8",
    "maps_url": "https://www.google.com/maps/place/?q=place_id:ChIJR5O0wTyYEmsRPU6ppnXRIa8",
    "rating": 3.9,
    "total_ratings": 546
  },
  {
    "name": "Guildford Hotel",
    "address": "309 Guildford Rd, Guildford",
    "suburb": "Parramatta",
    "state": "NSW",
    "lat": -33.8539872,
    "lng": 150.9865377,
    "place_id": "ChIJ4XDGyRe9EmsRp_tlcfconhA",
    "maps_url": "https://www.google.com/maps/place/?q=place_id:ChIJ4XDGyRe9EmsRp_tlcfconhA",
    "rating": 3.9,
    "total_ratings": 552
  },
  {
    "name": "Darcys Hotel",
    "address": "2 Abbotsford Rd, Homebush",
    "suburb": "Parramatta",
    "state": "NSW",
    "lat": -33.870266,
    "lng": 151.087036,
    "place_id": "ChIJz2yQzyW7EmsRcd-ko-VSFn8",
    "maps_url": "https://www.google.com/maps/place/?q=place_id:ChIJz2yQzyW7EmsRcd-ko-VSFn8",
    "rating": 4.4,
    "total_ratings": 153
  },
  {
    "name": "Fairfield Hotel",
    "address": "1 Hamilton Rd, Fairfield",
    "suburb": "Parramatta",
    "state": "NSW",
    "lat": -33.8738784,
    "lng": 150.9543151,
    "place_id": "ChIJ9azB9Ie9EmsRu9RaxkFY__o",
    "maps_url": "https://www.google.com/maps/place/?q=place_id:ChIJ9azB9Ie9EmsRu9RaxkFY__o",
    "rating": 3.9,
    "total_ratings": 248
  },
  {
    "name": "Doonside Hotel",
    "address": "23 Graham St, Doonside",
    "suburb": "Blacktown",
    "state": "NSW",
    "lat": -33.7622262,
    "lng": 150.8704312,
    "place_id": "ChIJ0dMcYoKZEmsRxIqUVwGiYWk",
    "maps_url": "https://www.google.com/maps/place/?q=place_id:ChIJ0dMcYoKZEmsRxIqUVwGiYWk",
    "rating": 3.8,
    "total_ratings": 364
  },
  {
    "name": "Blacktown Tavern",
    "address": "81 Kildare Rd, Blacktown",
    "suburb": "Blacktown",
    "state": "NSW",
    "lat": -33.769288,
    "lng": 150.8980395,
    "place_id": "ChIJR_kMJKiZEmsRgWnF51v_Ijg",
    "maps_url": "https://www.google.com/maps/place/?q=place_id:ChIJR_kMJKiZEmsRgWnF51v_Ijg",
    "rating": 4.1,
    "total_ratings": 632
  },
  {
    "name": "Atura Blacktown",
    "address": "32 Cricketers Arms Rd, Prospect",
    "suburb": "Blacktown",
    "state": "NSW",
    "lat": -33.8063433,
    "lng": 150.9029452,
    "place_id": "ChIJl74YPdSZEmsRu_CIxOsyWto",
    "maps_url": "https://www.google.com/maps/place/?q=place_id:ChIJl74YPdSZEmsRu_CIxOsyWto",
    "rating": 4.2,
    "total_ratings": 1206
  },
  {
    "name": "Novotel Sydney West HQ",
    "address": "55 Sherbrooke St, Rooty Hill",
    "suburb": "Blacktown",
    "state": "NSW",
    "lat": -33.769087,
    "lng": 150.833951,
    "place_id": "ChIJ18lRvEGaEmsR5LtS3e8mkkM",
    "maps_url": "https://www.google.com/maps/place/?q=place_id:ChIJ18lRvEGaEmsR5LtS3e8mkkM",
    "rating": 4.4,
    "total_ratings": 956
  },
  {
    "name": "Visy Dior",
    "address": "1 Columbia Ct, Norwest",
    "suburb": "Blacktown",
    "state": "NSW",
    "lat": -33.7315492,
    "lng": 150.97151,
    "place_id": "ChIJ20HHq-6hEmsRn9qgMUOqkow",
    "maps_url": "https://www.google.com/maps/place/?q=place_id:ChIJ20HHq-6hEmsRn9qgMUOqkow",
    "rating": 4,
    "total_ratings": 966
  },
  {
    "name": "Voyager Motel",
    "address": "863 Great Western Hwy, Minchinbury",
    "suburb": "Blacktown",
    "state": "NSW",
    "lat": -33.7870397,
    "lng": 150.8450279,
    "place_id": "ChIJh9AKQA6aEmsRPaMj1TbfvOQ",
    "maps_url": "https://www.google.com/maps/place/?q=place_id:ChIJh9AKQA6aEmsRPaMj1TbfvOQ",
    "rating": 3.7,
    "total_ratings": 163
  },
  {
    "name": "Mercure Sydney Blacktown",
    "address": "170 Reservoir Rd, Arndell Park",
    "suburb": "Blacktown",
    "state": "NSW",
    "lat": -33.7942851,
    "lng": 150.8955125,
    "place_id": "ChIJNw1z3Q-ZEmsRsZQ4GvY-hrE",
    "maps_url": "https://www.google.com/maps/place/?q=place_id:ChIJNw1z3Q-ZEmsRsZQ4GvY-hrE",
    "rating": 3.5,
    "total_ratings": 472
  },
  {
    "name": "Quest Bella Vista",
    "address": "24 Norbrik Dr, Bella Vista",
    "suburb": "Blacktown",
    "state": "NSW",
    "lat": -33.746745,
    "lng": 150.955003,
    "place_id": "ChIJMcm3uwCiEmsRZe4Ix08__RE",
    "maps_url": "https://www.google.com/maps/place/?q=place_id:ChIJMcm3uwCiEmsRZe4Ix08__RE",
    "rating": 4.5,
    "total_ratings": 1561
  },
  {
    "name": "Kaban Power 7, 7 Kaban St Doonside NSW 2767",
    "address": "7 Kaban St, Doonside",
    "suburb": "Blacktown",
    "state": "NSW",
    "lat": -33.7645578,
    "lng": 150.8733879,
    "place_id": "ChIJdbskshyZEmsRXY3GAOnDMF4",
    "maps_url": "https://www.google.com/maps/place/?q=place_id:ChIJdbskshyZEmsRXY3GAOnDMF4",
    "rating": 3.7,
    "total_ratings": 26
  },
  {
    "name": "Alpha Hotel Eastern Creek",
    "address": "Brabham Dr, and/1 Peter Brock Dr, Eastern Creek",
    "suburb": "Blacktown",
    "state": "NSW",
    "lat": -33.8020274,
    "lng": 150.8709603,
    "place_id": "ChIJLVHvsuKZEmsR03gOkZYQS0M",
    "maps_url": "https://www.google.com/maps/place/?q=place_id:ChIJLVHvsuKZEmsR03gOkZYQS0M",
    "rating": 3.9,
    "total_ratings": 599
  },
  {
    "name": "Kaban Power 6",
    "address": "6 Power St, Doonside",
    "suburb": "Blacktown",
    "state": "NSW",
    "lat": -33.7568527,
    "lng": 150.8747356,
    "place_id": "ChIJa5yTD6yZEmsRb6kar9y7AJ8",
    "maps_url": "https://www.google.com/maps/place/?q=place_id:ChIJa5yTD6yZEmsRb6kar9y7AJ8",
    "rating": 3.5,
    "total_ratings": 16
  },
  {
    "name": "Kaban Power 35",
    "address": "35 Lovegrove Dr, Quakers Hill",
    "suburb": "Blacktown",
    "state": "NSW",
    "lat": -33.729337,
    "lng": 150.8844642,
    "place_id": "ChIJtapqJkqZEmsR-SV6uoAGFus",
    "maps_url": "https://www.google.com/maps/place/?q=place_id:ChIJtapqJkqZEmsR-SV6uoAGFus",
    "rating": 3.3,
    "total_ratings": 7
  },
  {
    "name": "Plumpton Hotel",
    "address": "556 Richmond Rd, Glendenning",
    "suburb": "Blacktown",
    "state": "NSW",
    "lat": -33.7404665,
    "lng": 150.8609334,
    "place_id": "ChIJZW8pid-bEmsRuM3ZyeryXSQ",
    "maps_url": "https://www.google.com/maps/place/?q=place_id:ChIJZW8pid-bEmsRuM3ZyeryXSQ",
    "rating": 3.9,
    "total_ratings": 557
  },
  {
    "name": "St Marys Park View Motel",
    "address": "465 Great Western Hwy, St Marys",
    "suburb": "Penrith",
    "state": "NSW",
    "lat": -33.7690292,
    "lng": 150.7698596,
    "place_id": "ChIJcYeHw6yaEmsR-OGrv7CApr8",
    "maps_url": "https://www.google.com/maps/place/?q=place_id:ChIJcYeHw6yaEmsR-OGrv7CApr8",
    "rating": 4.3,
    "total_ratings": 462
  },
  {
    "name": "The Select Inn Penrith | Hotel in Penrith",
    "address": "708-710 High St, Penrith",
    "suburb": "Penrith",
    "state": "NSW",
    "lat": -33.7485215,
    "lng": 150.6839773,
    "place_id": "ChIJKQWlj3mFEmsRpwyMzobMBE4",
    "maps_url": "https://www.google.com/maps/place/?q=place_id:ChIJKQWlj3mFEmsRpwyMzobMBE4",
    "rating": 4,
    "total_ratings": 530
  },
  {
    "name": "Mercure Penrith",
    "address": "Panthers Pl, Penrith",
    "suburb": "Penrith",
    "state": "NSW",
    "lat": -33.7574478,
    "lng": 150.6835628,
    "place_id": "ChIJeQsI3VCPEmsR_bwqVGfhnE8",
    "maps_url": "https://www.google.com/maps/place/?q=place_id:ChIJeQsI3VCPEmsR_bwqVGfhnE8",
    "rating": 4.2,
    "total_ratings": 1163
  },
  {
    "name": "Nightcap at Blue Cattle Dog Hotel",
    "address": "249 Mamre Rd, St Clair",
    "suburb": "Penrith",
    "state": "NSW",
    "lat": -33.7875676,
    "lng": 150.771229,
    "place_id": "ChIJq6pqzhyQEmsRGL-EN6VCx00",
    "maps_url": "https://www.google.com/maps/place/?q=place_id:ChIJq6pqzhyQEmsRGL-EN6VCx00",
    "rating": 4,
    "total_ratings": 77
  },
  {
    "name": "Quality Inn Penrith",
    "address": "261 Mulgoa Rd, Jamisontown",
    "suburb": "Penrith",
    "state": "NSW",
    "lat": -33.7693195,
    "lng": 150.6748778,
    "place_id": "ChIJAzerKbWIEmsRPLzkvZ6jaGU",
    "maps_url": "https://www.google.com/maps/place/?q=place_id:ChIJAzerKbWIEmsRPLzkvZ6jaGU",
    "rating": 4.2,
    "total_ratings": 222
  },
  {
    "name": "Blue Cattle Dog Hotel",
    "address": "249 Mamre Rd, St Clair",
    "suburb": "Penrith",
    "state": "NSW",
    "lat": -33.7877012,
    "lng": 150.7714889,
    "place_id": "ChIJeYroGB2QEmsRiHrmYhENgLA",
    "maps_url": "https://www.google.com/maps/place/?q=place_id:ChIJeYroGB2QEmsRiHrmYhENgLA",
    "rating": 4.1,
    "total_ratings": 1274
  },
  {
    "name": "Ingenia Holidays Nepean River",
    "address": "Unit 91/95 Mackellar St, Emu Plains",
    "suburb": "Penrith",
    "state": "NSW",
    "lat": -33.7437321,
    "lng": 150.6772884,
    "place_id": "ChIJz__k3PyFEmsRD2-3PepP6R4",
    "maps_url": "https://www.google.com/maps/place/?q=place_id:ChIJz__k3PyFEmsRD2-3PepP6R4",
    "rating": 3.8,
    "total_ratings": 454
  },
  {
    "name": "Quest Penrith",
    "address": "83 Lord Sheffield Cct, Penrith",
    "suburb": "Penrith",
    "state": "NSW",
    "lat": -33.7494348,
    "lng": 150.697261,
    "place_id": "ChIJb56-7pmFEmsRzntviS3eiW0",
    "maps_url": "https://www.google.com/maps/place/?q=place_id:ChIJb56-7pmFEmsRzntviS3eiW0",
    "rating": 4.6,
    "total_ratings": 401
  },
  {
    "name": "Penrith Hotel Motel",
    "address": "303 High St, Penrith",
    "suburb": "Penrith",
    "state": "NSW",
    "lat": -33.7544152,
    "lng": 150.7020855,
    "place_id": "ChIJfasNkIuFEmsRFYjq1KDDS_c",
    "maps_url": "https://www.google.com/maps/place/?q=place_id:ChIJfasNkIuFEmsRFYjq1KDDS_c",
    "rating": 4,
    "total_ratings": 228
  },
  {
    "name": "ValueSuites Penrith",
    "address": "1-9 Lamrock St, Emu Plains",
    "suburb": "Penrith",
    "state": "NSW",
    "lat": -33.7454989,
    "lng": 150.6747136,
    "place_id": "ChIJX7XtkP2FEmsRaQZqB9EkkyU",
    "maps_url": "https://www.google.com/maps/place/?q=place_id:ChIJX7XtkP2FEmsRaQZqB9EkkyU",
    "rating": 4.1,
    "total_ratings": 326
  },
  {
    "name": "Astina Suites",
    "address": "21-25 Woodriff St, Penrith",
    "suburb": "Penrith",
    "state": "NSW",
    "lat": -33.7543438,
    "lng": 150.6966495,
    "place_id": "ChIJN0HgPZCFEmsRqeGHw1VPiK0",
    "maps_url": "https://www.google.com/maps/place/?q=place_id:ChIJN0HgPZCFEmsRqeGHw1VPiK0",
    "rating": 4.6,
    "total_ratings": 210
  },
  {
    "name": "Nightcap at Jamison Hotel",
    "address": "186 Smith St, Penrith",
    "suburb": "Penrith",
    "state": "NSW",
    "lat": -33.7674085,
    "lng": 150.7018226,
    "place_id": "ChIJAQAwT2aPEmsRTafTSxsKhWE",
    "maps_url": "https://www.google.com/maps/place/?q=place_id:ChIJAQAwT2aPEmsRTafTSxsKhWE",
    "rating": 3.7,
    "total_ratings": 43
  },
  {
    "name": "Littomore Suites Kingswood",
    "address": "10 Hargrave St, Kingswood",
    "suburb": "Penrith",
    "state": "NSW",
    "lat": -33.7612526,
    "lng": 150.716557,
    "place_id": "ChIJoRJoqyCFEmsR5zsvdAzkbxk",
    "maps_url": "https://www.google.com/maps/place/?q=place_id:ChIJoRJoqyCFEmsR5zsvdAzkbxk",
    "rating": 4.8,
    "total_ratings": 232
  },
  {
    "name": "Holiday Inn Sydney St Marys by IHG",
    "address": "Corner Forrester And, Boronia Rd, St Marys",
    "suburb": "Penrith",
    "state": "NSW",
    "lat": -33.7473065,
    "lng": 150.7800182,
    "place_id": "ChIJYeo0GtCaEmsRR8AIcL8AV1c",
    "maps_url": "https://www.google.com/maps/place/?q=place_id:ChIJYeo0GtCaEmsRR8AIcL8AV1c",
    "rating": 4.5,
    "total_ratings": 413
  },
  {
    "name": "St Marys Hotel",
    "address": "37 Queen St, St Marys",
    "suburb": "Penrith",
    "state": "NSW",
    "lat": -33.7632591,
    "lng": 150.774457,
    "place_id": "ChIJJR-TRLGaEmsRIrRmlgLFyis",
    "maps_url": "https://www.google.com/maps/place/?q=place_id:ChIJJR-TRLGaEmsRIrRmlgLFyis",
    "rating": 4,
    "total_ratings": 246
  },
  {
    "name": "Jamison Hotel",
    "address": "186 Smith St, Penrith",
    "suburb": "Penrith",
    "state": "NSW",
    "lat": -33.7675072,
    "lng": 150.7015558,
    "place_id": "ChIJ3RgWSWaPEmsRd-EZI9fjbqc",
    "maps_url": "https://www.google.com/maps/place/?q=place_id:ChIJ3RgWSWaPEmsRd-EZI9fjbqc",
    "rating": 4.1,
    "total_ratings": 1152
  },
  {
    "name": "Crossroads Hotel",
    "address": "2260 Camden Valley Wy, Casula",
    "suburb": "Liverpool",
    "state": "NSW",
    "lat": -33.9582053,
    "lng": 150.8857887,
    "place_id": "ChIJp20b_Q6WEmsRNKlujE4nZSI",
    "maps_url": "https://www.google.com/maps/place/?q=place_id:ChIJp20b_Q6WEmsRNKlujE4nZSI",
    "rating": 4.2,
    "total_ratings": 3391
  },
  {
    "name": "ibis budget Casula Liverpool",
    "address": "Corner Of Grove Street, 437 Hume Hwy, Casula",
    "suburb": "Liverpool",
    "state": "NSW",
    "lat": -33.9391012,
    "lng": 150.9125091,
    "place_id": "ChIJsQiMKwGVEmsRR2A0R-JzpB0",
    "maps_url": "https://www.google.com/maps/place/?q=place_id:ChIJsQiMKwGVEmsRR2A0R-JzpB0",
    "rating": 3.3,
    "total_ratings": 666
  },
  {
    "name": "Jolly Knight Motel",
    "address": "568 Hume Hwy, Casula",
    "suburb": "Liverpool",
    "state": "NSW",
    "lat": -33.9501666,
    "lng": 150.9059962,
    "place_id": "ChIJ9QnJj-GUEmsR1xFbF1yNotc",
    "maps_url": "https://www.google.com/maps/place/?q=place_id:ChIJ9QnJj-GUEmsR1xFbF1yNotc",
    "rating": 3.7,
    "total_ratings": 171
  },
  {
    "name": "Panania Hotel",
    "address": "63 Anderson Ave, Panania",
    "suburb": "Liverpool",
    "state": "NSW",
    "lat": -33.9538074,
    "lng": 150.9988896,
    "place_id": "ChIJW5qbw1W-EmsRpp9Jug_ViOc",
    "maps_url": "https://www.google.com/maps/place/?q=place_id:ChIJW5qbw1W-EmsRpp9Jug_ViOc",
    "rating": 4,
    "total_ratings": 571
  },
  {
    "name": "Nightcap at Pritchards Hotel",
    "address": "360 Elizabeth Dr, Mount Pritchard",
    "suburb": "Liverpool",
    "state": "NSW",
    "lat": -33.90263729999999,
    "lng": 150.8956916,
    "place_id": "ChIJV9XdC0uVEmsRpU98dQpUrR0",
    "maps_url": "https://www.google.com/maps/place/?q=place_id:ChIJV9XdC0uVEmsRpU98dQpUrR0",
    "rating": 4.4,
    "total_ratings": 26
  },
  {
    "name": "El Toro Hotel",
    "address": "6 Homepride Ave, Warwick Farm",
    "suburb": "Liverpool",
    "state": "NSW",
    "lat": -33.9125976,
    "lng": 150.9237823,
    "place_id": "ChIJoaukb8SVEmsREXN2ank_M60",
    "maps_url": "https://www.google.com/maps/place/?q=place_id:ChIJoaukb8SVEmsREXN2ank_M60",
    "rating": 3.8,
    "total_ratings": 668
  },
  {
    "name": "Rydges Bankstown",
    "address": "874 Hume Hwy, Bass Hill",
    "suburb": "Liverpool",
    "state": "NSW",
    "lat": -33.90009260000001,
    "lng": 150.9986492,
    "place_id": "ChIJf4VrCsu9EmsRkHPjPqxFWEU",
    "maps_url": "https://www.google.com/maps/place/?q=place_id:ChIJf4VrCsu9EmsRkHPjPqxFWEU",
    "rating": 4.2,
    "total_ratings": 1011
  },
  {
    "name": "Ramada Hotel & Suites by Wyndham Sydney Cabramatta",
    "address": "161 Hume Hwy, Cabramatta",
    "suburb": "Liverpool",
    "state": "NSW",
    "lat": -33.8948984,
    "lng": 150.9560928,
    "place_id": "ChIJC2NxCve9EmsRW1ZkXIUsdVM",
    "maps_url": "https://www.google.com/maps/place/?q=place_id:ChIJC2NxCve9EmsRW1ZkXIUsdVM",
    "rating": 4,
    "total_ratings": 480
  },
  {
    "name": "Best Western Casula",
    "address": "667 Hume Hwy, Casula",
    "suburb": "Liverpool",
    "state": "NSW",
    "lat": -33.9573179,
    "lng": 150.8872281,
    "place_id": "ChIJMZvR_saUEmsRv_75cqgsIj8",
    "maps_url": "https://www.google.com/maps/place/?q=place_id:ChIJMZvR_saUEmsRv_75cqgsIj8",
    "rating": 4.7,
    "total_ratings": 375
  },
  {
    "name": "The Mill Hotel",
    "address": "189 Beaconsfield St, Milperra",
    "suburb": "Liverpool",
    "state": "NSW",
    "lat": -33.9427797,
    "lng": 150.9979943,
    "place_id": "ChIJvVSc1li-EmsRsN25tD75JJ4",
    "maps_url": "https://www.google.com/maps/place/?q=place_id:ChIJvVSc1li-EmsRsN25tD75JJ4",
    "rating": 4.1,
    "total_ratings": 2172
  },
  {
    "name": "Mercure Sydney Liverpool",
    "address": "424-458 Hoxton Park Rd, Prestons",
    "suburb": "Liverpool",
    "state": "NSW",
    "lat": -33.929202,
    "lng": 150.8758675,
    "place_id": "ChIJ7-yn24iUEmsRYzfbCVh0xY0",
    "maps_url": "https://www.google.com/maps/place/?q=place_id:ChIJ7-yn24iUEmsRYzfbCVh0xY0",
    "rating": 4.4,
    "total_ratings": 994
  },
  {
    "name": "Bluetongue Hideout",
    "address": "218 Elizabeth Dr, Ashcroft",
    "suburb": "Liverpool",
    "state": "NSW",
    "lat": -33.9101725,
    "lng": 150.8995784,
    "place_id": "ChIJ82Ii1fmVEmsRcbYKL_4ydAo",
    "maps_url": "https://www.google.com/maps/place/?q=place_id:ChIJ82Ii1fmVEmsRcbYKL_4ydAo",
    "rating": 4.6,
    "total_ratings": 31
  },
  {
    "name": "Nightcap at Chester Hill Hotel",
    "address": "196 Waldron Rd, Chester Hill",
    "suburb": "Liverpool",
    "state": "NSW",
    "lat": -33.882731,
    "lng": 150.9989307,
    "place_id": "ChIJzUSkog-9EmsR6f6PH0CJUNc",
    "maps_url": "https://www.google.com/maps/place/?q=place_id:ChIJzUSkog-9EmsR6f6PH0CJUNc",
    "rating": 4.2,
    "total_ratings": 72
  },
  {
    "name": "Nightcap at High Flyer Hotel",
    "address": "25 Birch St, Condell Park",
    "suburb": "Liverpool",
    "state": "NSW",
    "lat": -33.9168284,
    "lng": 150.9988864,
    "place_id": "ChIJAQAQZ9W9EmsRwoJIlE2hGmU",
    "maps_url": "https://www.google.com/maps/place/?q=place_id:ChIJAQAQZ9W9EmsRwoJIlE2hGmU",
    "rating": 4.2,
    "total_ratings": 58
  },
  {
    "name": "WM Hotel Bankstown",
    "address": "850 Hume Hwy, Bass Hill",
    "suburb": "Liverpool",
    "state": "NSW",
    "lat": -33.9022547,
    "lng": 151.0002724,
    "place_id": "ChIJ42iCqcy9EmsRkaUJyk49NHQ",
    "maps_url": "https://www.google.com/maps/place/?q=place_id:ChIJ42iCqcy9EmsRkaUJyk49NHQ",
    "rating": 3.6,
    "total_ratings": 161
  },
  {
    "name": "Hunts Hotel Liverpool",
    "address": "2415 Camden Valley Wy, Casula",
    "suburb": "Liverpool",
    "state": "NSW",
    "lat": -33.9573532,
    "lng": 150.886316,
    "place_id": "ChIJl9tG38aUEmsRGgN0kItx6uM",
    "maps_url": "https://www.google.com/maps/place/?q=place_id:ChIJl9tG38aUEmsRGgN0kItx6uM",
    "rating": 3.5,
    "total_ratings": 527
  },
  {
    "name": "Banksia Bass Hill Motel",
    "address": "966 Hume Hwy, Bass Hill",
    "suburb": "Liverpool",
    "state": "NSW",
    "lat": -33.8963802,
    "lng": 150.9915011,
    "place_id": "ChIJ1xTHTsi9EmsRgUvm9DRJgwI",
    "maps_url": "https://www.google.com/maps/place/?q=place_id:ChIJ1xTHTsi9EmsRgUvm9DRJgwI",
    "rating": 3.5,
    "total_ratings": 104
  },
  {
    "name": "Pritchard's Hotel",
    "address": "360 Elizabeth Dr, Mount Pritchard",
    "suburb": "Liverpool",
    "state": "NSW",
    "lat": -33.9026909,
    "lng": 150.8956604,
    "place_id": "ChIJp20b_Q6WEmsRkR7_0IqJP_U",
    "maps_url": "https://www.google.com/maps/place/?q=place_id:ChIJp20b_Q6WEmsRkR7_0IqJP_U",
    "rating": 4,
    "total_ratings": 1021
  },
  {
    "name": "Chester Hill Hotel",
    "address": "196 Waldron Rd, Chester Hill",
    "suburb": "Liverpool",
    "state": "NSW",
    "lat": -33.8826161,
    "lng": 150.9987625,
    "place_id": "ChIJ9b3p9Ky9EmsRn4pgSd6n-Kw",
    "maps_url": "https://www.google.com/maps/place/?q=place_id:ChIJ9b3p9Ky9EmsRn4pgSd6n-Kw",
    "rating": 3.9,
    "total_ratings": 369
  },
  {
    "name": "Golfview Hotel Motel",
    "address": "150 Rawson Rd, Guildford",
    "suburb": "Liverpool",
    "state": "NSW",
    "lat": -33.8618012,
    "lng": 150.9939098,
    "place_id": "ChIJTdBtnBu9EmsRLAstAU4pb2s",
    "maps_url": "https://www.google.com/maps/place/?q=place_id:ChIJTdBtnBu9EmsRLAstAU4pb2s",
    "rating": 4.3,
    "total_ratings": 328
  },
  {
    "name": "Quest Liverpool",
    "address": "39 Scott St, Liverpool",
    "suburb": "Liverpool",
    "state": "NSW",
    "lat": -33.924993,
    "lng": 150.925006,
    "place_id": "ChIJ2U5ICryVEmsRGoaffX8bm0M",
    "maps_url": "https://www.google.com/maps/place/?q=place_id:ChIJ2U5ICryVEmsRGoaffX8bm0M",
    "rating": 4,
    "total_ratings": 515
  },
  {
    "name": "Green Valley Hotel",
    "address": "5 Woodward Cres, Miller",
    "suburb": "Liverpool",
    "state": "NSW",
    "lat": -33.9199003,
    "lng": 150.8845029,
    "place_id": "ChIJsTTYY12UEmsRBILJXgY6blc",
    "maps_url": "https://www.google.com/maps/place/?q=place_id:ChIJsTTYY12UEmsRBILJXgY6blc",
    "rating": 4.1,
    "total_ratings": 391
  },
  {
    "name": "East Hills Hotel",
    "address": "19 Maclaurin Ave, East Hills",
    "suburb": "Liverpool",
    "state": "NSW",
    "lat": -33.9627638,
    "lng": 150.9845317,
    "place_id": "ChIJ_aagwrC_EmsRa0O2sJxUg9s",
    "maps_url": "https://www.google.com/maps/place/?q=place_id:ChIJ_aagwrC_EmsRa0O2sJxUg9s",
    "rating": 4.2,
    "total_ratings": 506
  },
  {
    "name": "Meriton Suites Liverpool",
    "address": "167 Northumberland St, Liverpool",
    "suburb": "Liverpool",
    "state": "NSW",
    "lat": -33.9217463,
    "lng": 150.9223322,
    "place_id": "ChIJFR96rjCVEmsR1TxFr-S5JfA",
    "maps_url": "https://www.google.com/maps/place/?q=place_id:ChIJFR96rjCVEmsR1TxFr-S5JfA",
    "rating": 4.2,
    "total_ratings": 311
  },
  {
    "name": "Holiday Inn Warwick Farm by IHG",
    "address": "355 Hume Hwy, Warwick Farm",
    "suburb": "Liverpool",
    "state": "NSW",
    "lat": -33.9027322,
    "lng": 150.9428932,
    "place_id": "ChIJJ1N0NK-VEmsRLu9CbdP1KIQ",
    "maps_url": "https://www.google.com/maps/place/?q=place_id:ChIJJ1N0NK-VEmsRLu9CbdP1KIQ",
    "rating": 4.3,
    "total_ratings": 934
  },
  {
    "name": "Astra Apartments Liverpool",
    "address": "73 Elizabeth Dr, Liverpool",
    "suburb": "Liverpool",
    "state": "NSW",
    "lat": -33.9195382,
    "lng": 150.921392,
    "place_id": "ChIJEQcZQ7iVEmsRz2BrIh0xB1w",
    "maps_url": "https://www.google.com/maps/place/?q=place_id:ChIJEQcZQ7iVEmsRz2BrIh0xB1w",
    "rating": 4.3,
    "total_ratings": 8
  },
  {
    "name": "The William Inglis Hotel Warwick Farm - MGallery Collection",
    "address": "155 Gov Macquarie Dr, Warwick Farm",
    "suburb": "Liverpool",
    "state": "NSW",
    "lat": -33.9143623,
    "lng": 150.9460005,
    "place_id": "ChIJZfr6wQS-EmsRtIc3YlzEcY0",
    "maps_url": "https://www.google.com/maps/place/?q=place_id:ChIJZfr6wQS-EmsRtIc3YlzEcY0",
    "rating": 4.5,
    "total_ratings": 1381
  },
  {
    "name": "Rydges Campbelltown",
    "address": "15 Old Menangle Rd, Campbelltown",
    "suburb": "Campbelltown",
    "state": "NSW",
    "lat": -34.0731028,
    "lng": 150.8072593,
    "place_id": "ChIJ31hGpazvEmsRhbZvIksniwg",
    "maps_url": "https://www.google.com/maps/place/?q=place_id:ChIJ31hGpazvEmsRhbZvIksniwg",
    "rating": 4.2,
    "total_ratings": 1204
  },
  {
    "name": "Maclin Lodge Motel",
    "address": "38 Queen St, Campbelltown",
    "suburb": "Campbelltown",
    "state": "NSW",
    "lat": -34.059875,
    "lng": 150.8211806,
    "place_id": "ChIJ5yEyXfHuEmsRCxe2UZWbH44",
    "maps_url": "https://www.google.com/maps/place/?q=place_id:ChIJ5yEyXfHuEmsRCxe2UZWbH44",
    "rating": 4.2,
    "total_ratings": 527
  },
  {
    "name": "ibis budget Campbelltown",
    "address": "3 Rennie Rd, Campbelltown",
    "suburb": "Campbelltown",
    "state": "NSW",
    "lat": -34.0478254,
    "lng": 150.8269057,
    "place_id": "ChIJ1fa2JJDuEmsRDG91N--UQlQ",
    "maps_url": "https://www.google.com/maps/place/?q=place_id:ChIJ1fa2JJDuEmsRDG91N--UQlQ",
    "rating": 3.6,
    "total_ratings": 851
  },
  {
    "name": "Narellan Motor Inn",
    "address": "5 The Old Northern Rd, Narellan",
    "suburb": "Campbelltown",
    "state": "NSW",
    "lat": -34.03998720000001,
    "lng": 150.7346031,
    "place_id": "ChIJjSKaYaXxEmsR0my78HwJ3XU",
    "maps_url": "https://www.google.com/maps/place/?q=place_id:ChIJjSKaYaXxEmsR0my78HwJ3XU",
    "rating": 4,
    "total_ratings": 263
  },
  {
    "name": "Campbelltown Colonial Motor Inn",
    "address": "20 Queen St, Campbelltown",
    "suburb": "Campbelltown",
    "state": "NSW",
    "lat": -34.0582535,
    "lng": 150.8234708,
    "place_id": "ChIJi3jdVfLuEmsRlDwU9J1jP-Y",
    "maps_url": "https://www.google.com/maps/place/?q=place_id:ChIJi3jdVfLuEmsRlDwU9J1jP-Y",
    "rating": 3.3,
    "total_ratings": 243
  },
  {
    "name": "The Hermitage Campbelltown",
    "address": "5 Grange Rd, Leumeah",
    "suburb": "Campbelltown",
    "state": "NSW",
    "lat": -34.04702690000001,
    "lng": 150.8296868,
    "place_id": "ChIJnY-ZgpDuEmsR0YLB2qJMr9Y",
    "maps_url": "https://www.google.com/maps/place/?q=place_id:ChIJnY-ZgpDuEmsR0YLB2qJMr9Y",
    "rating": 4.1,
    "total_ratings": 456
  },
  {
    "name": "Quest Apartment Hotel Campbelltown",
    "address": "1 Rennie Rd, Woodbine",
    "suburb": "Campbelltown",
    "state": "NSW",
    "lat": -34.0482507,
    "lng": 150.8261945,
    "place_id": "ChIJUSTWJ5DuEmsRiE-6mFoC7FE",
    "maps_url": "https://www.google.com/maps/place/?q=place_id:ChIJUSTWJ5DuEmsRiE-6mFoC7FE",
    "rating": 4.1,
    "total_ratings": 553
  },
  {
    "name": "Ingleburn Hotel",
    "address": "14 Ingleburn Rd, Ingleburn",
    "suburb": "Campbelltown",
    "state": "NSW",
    "lat": -33.9984321,
    "lng": 150.8643951,
    "place_id": "ChIJ_6F6SXzrEmsRO3DFZrUZxI8",
    "maps_url": "https://www.google.com/maps/place/?q=place_id:ChIJ_6F6SXzrEmsRO3DFZrUZxI8",
    "rating": 3.9,
    "total_ratings": 322
  },
  {
    "name": "Strathfield Hotel",
    "address": "27 Everton Rd, Strathfield",
    "suburb": "Bankstown",
    "state": "NSW",
    "lat": -33.8714599,
    "lng": 151.0951232,
    "place_id": "ChIJiW2vati6EmsRNFaGk3k4Drg",
    "maps_url": "https://www.google.com/maps/place/?q=place_id:ChIJiW2vati6EmsRNFaGk3k4Drg",
    "rating": 3.5,
    "total_ratings": 844
  },
  {
    "name": "Hurstville Ritz Hotel, Sydney",
    "address": "350 Forest Rd, Hurstville",
    "suburb": "Bankstown",
    "state": "NSW",
    "lat": -33.9657126,
    "lng": 151.1015556,
    "place_id": "ChIJGzvIRKK5EmsR_8lefXikcKs",
    "maps_url": "https://www.google.com/maps/place/?q=place_id:ChIJGzvIRKK5EmsR_8lefXikcKs",
    "rating": 3.7,
    "total_ratings": 607
  },
  {
    "name": "Palms Hotel",
    "address": "167 Hume Hwy, Greenacre",
    "suburb": "Bankstown",
    "state": "NSW",
    "lat": -33.8967528,
    "lng": 151.0507855,
    "place_id": "ChIJf75soIK7EmsRk8OK77OrQ-4",
    "maps_url": "https://www.google.com/maps/place/?q=place_id:ChIJf75soIK7EmsRk8OK77OrQ-4",
    "rating": 3.5,
    "total_ratings": 777
  },
  {
    "name": "The Peakhurst",
    "address": "705 Forest Rd, Peakhurst",
    "suburb": "Bankstown",
    "state": "NSW",
    "lat": -33.9599508,
    "lng": 151.0625587,
    "place_id": "ChIJVVUKxju5EmsRoks6CGYEJ8k",
    "maps_url": "https://www.google.com/maps/place/?q=place_id:ChIJVVUKxju5EmsRoks6CGYEJ8k",
    "rating": 4.3,
    "total_ratings": 1401
  },
  {
    "name": "Greenacre Hotel",
    "address": "166 Waterloo Rd, Greenacre",
    "suburb": "Bankstown",
    "state": "NSW",
    "lat": -33.9070536,
    "lng": 151.0570817,
    "place_id": "ChIJY7FZo427EmsRvZhWKH8A89g",
    "maps_url": "https://www.google.com/maps/place/?q=place_id:ChIJY7FZo427EmsRvZhWKH8A89g",
    "rating": 3.6,
    "total_ratings": 436
  },
  {
    "name": "Narwee Hotel",
    "address": "116 Penshurst Rd, Narwee",
    "suburb": "Bankstown",
    "state": "NSW",
    "lat": -33.9469791,
    "lng": 151.0709416,
    "place_id": "ChIJi8WIF2i5EmsRgZKnC1uU1tw",
    "maps_url": "https://www.google.com/maps/place/?q=place_id:ChIJi8WIF2i5EmsRgZKnC1uU1tw",
    "rating": 4.1,
    "total_ratings": 697
  },
  {
    "name": "Penshurst Hotel",
    "address": "29-31 Penshurst St, Penshurst",
    "suburb": "Bankstown",
    "state": "NSW",
    "lat": -33.9650885,
    "lng": 151.0879018,
    "place_id": "ChIJr5HX-Qu5EmsRd8qeQYb15PU",
    "maps_url": "https://www.google.com/maps/place/?q=place_id:ChIJr5HX-Qu5EmsRd8qeQYb15PU",
    "rating": 4,
    "total_ratings": 449
  },
  {
    "name": "Mortdale Hotel",
    "address": "1 Pitt St, Mortdale",
    "suburb": "Bankstown",
    "state": "NSW",
    "lat": -33.9715523,
    "lng": 151.0803342,
    "place_id": "ChIJRxccGxu5EmsRnqGNPHcI7zc",
    "maps_url": "https://www.google.com/maps/place/?q=place_id:ChIJRxccGxu5EmsRnqGNPHcI7zc",
    "rating": 3.8,
    "total_ratings": 312
  },
  {
    "name": "Campsie Hotel",
    "address": "327 Beamish St, Campsie",
    "suburb": "Bankstown",
    "state": "NSW",
    "lat": -33.9140251,
    "lng": 151.104443,
    "place_id": "ChIJLwvm5U-6EmsR0LEBOg2MR9Y",
    "maps_url": "https://www.google.com/maps/place/?q=place_id:ChIJLwvm5U-6EmsR0LEBOg2MR9Y",
    "rating": 3.7,
    "total_ratings": 832
  },
  {
    "name": "Travelodge Hotel Hurstville Sydney",
    "address": "6/8 Cross St, Hurstville",
    "suburb": "Bankstown",
    "state": "NSW",
    "lat": -33.965786,
    "lng": 151.103936,
    "place_id": "ChIJjSrcv6K5EmsRIAtLXm5hIMg",
    "maps_url": "https://www.google.com/maps/place/?q=place_id:ChIJjSrcv6K5EmsRIAtLXm5hIMg",
    "rating": 4.3,
    "total_ratings": 240
  },
  {
    "name": "Comfort Inn & Suites Burwood",
    "address": "117 Liverpool Rd, Burwood",
    "suburb": "Bankstown",
    "state": "NSW",
    "lat": -33.8872373,
    "lng": 151.0996931,
    "place_id": "ChIJQVgHB-S6EmsR6lOmH-tpQpU",
    "maps_url": "https://www.google.com/maps/place/?q=place_id:ChIJQVgHB-S6EmsR6lOmH-tpQpU",
    "rating": 3.7,
    "total_ratings": 282
  },
  {
    "name": "Burwood Bed and Breakfast",
    "address": "90 Shaftesbury Rd, Burwood",
    "suburb": "Bankstown",
    "state": "NSW",
    "lat": -33.8794381,
    "lng": 151.1068787,
    "place_id": "ChIJ1_XWa8O6EmsRMGawXYxXPGM",
    "maps_url": "https://www.google.com/maps/place/?q=place_id:ChIJ1_XWa8O6EmsRMGawXYxXPGM",
    "rating": 2.8,
    "total_ratings": 118
  },
  {
    "name": "Mercure Sydney Bankstown",
    "address": "Entry From, 8 Greenfield Parade, 6 Mona St, Bankstown",
    "suburb": "Bankstown",
    "state": "NSW",
    "lat": -33.9203119,
    "lng": 151.0327526,
    "place_id": "ChIJgVfWfI29EmsRM3rvqesT9Iw",
    "maps_url": "https://www.google.com/maps/place/?q=place_id:ChIJgVfWfI29EmsRM3rvqesT9Iw",
    "rating": 3.9,
    "total_ratings": 316
  },
  {
    "name": "Arena Hotel",
    "address": "97 Hume Hwy, Chullora",
    "suburb": "Bankstown",
    "state": "NSW",
    "lat": -33.8916747,
    "lng": 151.0577402,
    "place_id": "ChIJVedpCni7EmsRq-TqkRWcYBM",
    "maps_url": "https://www.google.com/maps/place/?q=place_id:ChIJVedpCni7EmsRq-TqkRWcYBM",
    "rating": 3.4,
    "total_ratings": 403
  },
  {
    "name": "Nightcap at Hume Hotel",
    "address": "501 Hume Hwy, Yagoona",
    "suburb": "Bankstown",
    "state": "NSW",
    "lat": -33.9074447,
    "lng": 151.0216602,
    "place_id": "ChIJzTRZDT68EmsRVcrPGJB7rO4",
    "maps_url": "https://www.google.com/maps/place/?q=place_id:ChIJzTRZDT68EmsRVcrPGJB7rO4",
    "rating": 4,
    "total_ratings": 206
  },
  {
    "name": "Wiley Park Hotel",
    "address": "67 King Georges Rd, Wiley Park",
    "suburb": "Bankstown",
    "state": "NSW",
    "lat": -33.922095,
    "lng": 151.0675901,
    "place_id": "ChIJJ6UTq-m7EmsRcfd7LefYH8Q",
    "maps_url": "https://www.google.com/maps/place/?q=place_id:ChIJJ6UTq-m7EmsRcfd7LefYH8Q",
    "rating": 3.6,
    "total_ratings": 344
  },
  {
    "name": "Kingsgrove Hotel",
    "address": "236 Kingsgrove Rd, Kingsgrove",
    "suburb": "Bankstown",
    "state": "NSW",
    "lat": -33.9409283,
    "lng": 151.1014673,
    "place_id": "ChIJ3Wc4CCm6EmsRTPCNb71IHiI",
    "maps_url": "https://www.google.com/maps/place/?q=place_id:ChIJ3Wc4CCm6EmsRTPCNb71IHiI",
    "rating": 4,
    "total_ratings": 581
  },
  {
    "name": "Meridian Hotel",
    "address": "220 Forest Rd, Hurstville",
    "suburb": "Bankstown",
    "state": "NSW",
    "lat": -33.9673581,
    "lng": 151.1046271,
    "place_id": "ChIJr-mPKKO5EmsR51ngSnD_-N0",
    "maps_url": "https://www.google.com/maps/place/?q=place_id:ChIJr-mPKKO5EmsR51ngSnD_-N0",
    "rating": 3.7,
    "total_ratings": 1004
  },
  {
    "name": "Lakemba Hotel",
    "address": "146 Haldon St, Lakemba",
    "suburb": "Bankstown",
    "state": "NSW",
    "lat": -33.922578,
    "lng": 151.0784969,
    "place_id": "ChIJrWvtKMS7EmsRLepdWMgfsYM",
    "maps_url": "https://www.google.com/maps/place/?q=place_id:ChIJrWvtKMS7EmsRLepdWMgfsYM",
    "rating": 3.5,
    "total_ratings": 158
  },
  {
    "name": "ibis Sydney Olympic Park",
    "address": "11B Olympic Blvd, Sydney Olympic Park",
    "suburb": "Bankstown",
    "state": "NSW",
    "lat": -33.8482888,
    "lng": 151.067622,
    "place_id": "ChIJj58SKrSkEmsRLgLTOCv77QM",
    "maps_url": "https://www.google.com/maps/place/?q=place_id:ChIJj58SKrSkEmsRLgLTOCv77QM",
    "rating": 4,
    "total_ratings": 1195
  },
  {
    "name": "Pullman at Sydney Olympic Park",
    "address": "Olympic Blvd, Sydney Olympic Park",
    "suburb": "Bankstown",
    "state": "NSW",
    "lat": -33.848793,
    "lng": 151.0681196,
    "place_id": "ChIJz8q1w7WkEmsRS0i1y0ho6Tg",
    "maps_url": "https://www.google.com/maps/place/?q=place_id:ChIJz8q1w7WkEmsRS0i1y0ho6Tg",
    "rating": 4.3,
    "total_ratings": 1696
  },
  {
    "name": "Bexley Motel",
    "address": "2 Kingsland Rd S, Bexley",
    "suburb": "Hurstville",
    "state": "NSW",
    "lat": -33.9493636,
    "lng": 151.1263643,
    "place_id": "ChIJy5fueh26EmsRBv0nhTvbzlA",
    "maps_url": "https://www.google.com/maps/place/?q=place_id:ChIJy5fueh26EmsRBv0nhTvbzlA",
    "rating": 3.8,
    "total_ratings": 79
  },
  {
    "name": "Abcot Inn",
    "address": "410 Princes Hwy, Sylvania",
    "suburb": "Hurstville",
    "state": "NSW",
    "lat": -34.0233481,
    "lng": 151.0900832,
    "place_id": "ChIJl51QN37HEmsRYOP3b52bX14",
    "maps_url": "https://www.google.com/maps/place/?q=place_id:ChIJl51QN37HEmsRYOP3b52bX14",
    "rating": 3.4,
    "total_ratings": 284
  },
  {
    "name": "Grand Hotel Rockdale",
    "address": "482-484 Princes Hwy, Rockdale",
    "suburb": "Hurstville",
    "state": "NSW",
    "lat": -33.9517952,
    "lng": 151.1382832,
    "place_id": "ChIJO50aOAC6EmsRJ540H2YaabA",
    "maps_url": "https://www.google.com/maps/place/?q=place_id:ChIJO50aOAC6EmsRJ540H2YaabA",
    "rating": 3.8,
    "total_ratings": 370
  },
  {
    "name": "Metro Hotel Miranda",
    "address": "Kingsway and, 522 Jackson Ave, Miranda",
    "suburb": "Hurstville",
    "state": "NSW",
    "lat": -34.0348815,
    "lng": 151.1043853,
    "place_id": "ChIJdZZ0boXHEmsRrC1n8XCTWGI",
    "maps_url": "https://www.google.com/maps/place/?q=place_id:ChIJdZZ0boXHEmsRrC1n8XCTWGI",
    "rating": 3.9,
    "total_ratings": 443
  },
  {
    "name": "Sutherland Motel",
    "address": "2 Aldgate St, Sutherland",
    "suburb": "Hurstville",
    "state": "NSW",
    "lat": -34.037497,
    "lng": 151.0648989,
    "place_id": "ChIJqyAOST_HEmsRzrB0WiecJYk",
    "maps_url": "https://www.google.com/maps/place/?q=place_id:ChIJqyAOST_HEmsRzrB0WiecJYk",
    "rating": 3.9,
    "total_ratings": 138
  },
  {
    "name": "Boyles Sutherland Hotel",
    "address": "806-810 Old Princes Hwy, Sutherland",
    "suburb": "Hurstville",
    "state": "NSW",
    "lat": -34.0326177,
    "lng": 151.0572428,
    "place_id": "ChIJ_TNUaEjHEmsR0TzJZAOIiY4",
    "maps_url": "https://www.google.com/maps/place/?q=place_id:ChIJ_TNUaEjHEmsR0TzJZAOIiY4",
    "rating": 4,
    "total_ratings": 641
  },
  {
    "name": "Southern Cross Hotel",
    "address": "340 Princes Hwy, St Peters",
    "suburb": "Hurstville",
    "state": "NSW",
    "lat": -33.915858,
    "lng": 151.17439,
    "place_id": "ChIJ2do5G1qwEmsRknjrZr20UTI",
    "maps_url": "https://www.google.com/maps/place/?q=place_id:ChIJ2do5G1qwEmsRknjrZr20UTI",
    "rating": 4,
    "total_ratings": 864
  },
  {
    "name": "Citadines Connect Sydney Airport",
    "address": "121 Baxter Rd, Mascot",
    "suburb": "Hurstville",
    "state": "NSW",
    "lat": -33.9312764,
    "lng": 151.1875079,
    "place_id": "ChIJZ86JcQKxEmsRxI9zRzlCBjM",
    "maps_url": "https://www.google.com/maps/place/?q=place_id:ChIJZ86JcQKxEmsRxI9zRzlCBjM",
    "rating": 4.3,
    "total_ratings": 1487
  },
  {
    "name": "Travelodge Hotel Sydney Airport",
    "address": "289 King St, Mascot",
    "suburb": "Hurstville",
    "state": "NSW",
    "lat": -33.928095,
    "lng": 151.1856936,
    "place_id": "ChIJEdx1Pf6wEmsRU1InUWAHsYg",
    "maps_url": "https://www.google.com/maps/place/?q=place_id:ChIJEdx1Pf6wEmsRU1InUWAHsYg",
    "rating": 4.2,
    "total_ratings": 1788
  },
  {
    "name": "The Erko Hotel",
    "address": "102 Erskineville Rd, Erskineville",
    "suburb": "Hurstville",
    "state": "NSW",
    "lat": -33.899135,
    "lng": 151.183435,
    "place_id": "ChIJ32-7XTSwEmsR19jxwhiHcAY",
    "maps_url": "https://www.google.com/maps/place/?q=place_id:ChIJ32-7XTSwEmsR19jxwhiHcAY",
    "rating": 4.2,
    "total_ratings": 1631
  },
  {
    "name": "MED-ACCOM",
    "address": "2/4 Hogben St, Kogarah",
    "suburb": "Hurstville",
    "state": "NSW",
    "lat": -33.9653666,
    "lng": 151.1363537,
    "place_id": "ChIJuZXUpuO5EmsR44-eKWlMwFg",
    "maps_url": "https://www.google.com/maps/place/?q=place_id:ChIJuZXUpuO5EmsR44-eKWlMwFg",
    "rating": 4.5,
    "total_ratings": 53
  },
  {
    "name": "Cronulla Motor Inn",
    "address": "85 Kingsway, Cronulla",
    "suburb": "Cronulla",
    "state": "NSW",
    "lat": -34.0494706,
    "lng": 151.1481087,
    "place_id": "ChIJ_WSJGg_IEmsRozg_Fick6nI",
    "maps_url": "https://www.google.com/maps/place/?q=place_id:ChIJ_WSJGg_IEmsRozg_Fick6nI",
    "rating": 2.9,
    "total_ratings": 228
  },
  {
    "name": "Nightcap at Caringbah Hotel",
    "address": "343 Port Hacking Rd, Caringbah",
    "suburb": "Cronulla",
    "state": "NSW",
    "lat": -34.0436451,
    "lng": 151.1230419,
    "place_id": "ChIJVYDWKezHEmsRta3RU0yYTyQ",
    "maps_url": "https://www.google.com/maps/place/?q=place_id:ChIJVYDWKezHEmsRta3RU0yYTyQ",
    "rating": 4.4,
    "total_ratings": 78
  },
  {
    "name": "Bundeena Beachshack",
    "address": "Gunyah Beach, Bundeena",
    "suburb": "Cronulla",
    "state": "NSW",
    "lat": -34.0817274,
    "lng": 151.1559489,
    "place_id": "ChIJw2qo6YjIEmsRL5jx6VzaM20",
    "maps_url": "https://www.google.com/maps/place/?q=place_id:ChIJw2qo6YjIEmsRL5jx6VzaM20",
    "rating": 4.1,
    "total_ratings": 8
  },
  {
    "name": "Guesthouse 83",
    "address": "83 Kingsway, Cronulla",
    "suburb": "Cronulla",
    "state": "NSW",
    "lat": -34.049762,
    "lng": 151.148262,
    "place_id": "ChIJH57EHA_IEmsRi-YKvtbuVqE",
    "maps_url": "https://www.google.com/maps/place/?q=place_id:ChIJH57EHA_IEmsRi-YKvtbuVqE",
    "rating": 3.5,
    "total_ratings": 64
  },
  {
    "name": "Southend Hotel Maroubra",
    "address": "32 Curtin Cres, Maroubra",
    "suburb": "Bondi",
    "state": "NSW",
    "lat": -33.9513369,
    "lng": 151.2503589,
    "place_id": "ChIJ81cx48WzEmsRZqxgMETPCxM",
    "maps_url": "https://www.google.com/maps/place/?q=place_id:ChIJ81cx48WzEmsRZqxgMETPCxM",
    "rating": 4.2,
    "total_ratings": 502
  },
  {
    "name": "Avoca Randwick by Sydney Lodges",
    "address": "235 Avoca St, Randwick",
    "suburb": "Bondi",
    "state": "NSW",
    "lat": -33.9193576,
    "lng": 151.2410182,
    "place_id": "ChIJV9fLOCKyEmsRtZBdpz9fodk",
    "maps_url": "https://www.google.com/maps/place/?q=place_id:ChIJV9fLOCKyEmsRtZBdpz9fodk",
    "rating": 4.4,
    "total_ratings": 304
  },
  {
    "name": "Perouse Randwick by Sydney Lodges",
    "address": "6 Perouse Rd, Randwick",
    "suburb": "Bondi",
    "state": "NSW",
    "lat": -33.918764,
    "lng": 151.242078,
    "place_id": "ChIJgfvHYiKyEmsR7cD_CmYGEq8",
    "maps_url": "https://www.google.com/maps/place/?q=place_id:ChIJgfvHYiKyEmsR7cD_CmYGEq8",
    "rating": 4.4,
    "total_ratings": 661
  },
  {
    "name": "Central Private Hotel",
    "address": "358 Elizabeth St, Surry Hills",
    "suburb": "Bondi",
    "state": "NSW",
    "lat": -33.8848643,
    "lng": 151.2082479,
    "place_id": "ChIJf3HSliGuEmsRWN-8rN9lq2I",
    "maps_url": "https://www.google.com/maps/place/?q=place_id:ChIJf3HSliGuEmsRWN-8rN9lq2I",
    "rating": 3.3,
    "total_ratings": 196
  },
  {
    "name": "Sydney RiseOn Hotel",
    "address": "8 Broadway, Chippendale",
    "suburb": "Bondi",
    "state": "NSW",
    "lat": -33.8843239,
    "lng": 151.2018409,
    "place_id": "ChIJl2F6w7KvEmsRTYs2_HHCpqg",
    "maps_url": "https://www.google.com/maps/place/?q=place_id:ChIJl2F6w7KvEmsRTYs2_HHCpqg",
    "rating": 3,
    "total_ratings": 130
  },
  {
    "name": "ADGE Hotel & Residences Sydney Surry Hills",
    "address": "212 Riley St, Surry Hills",
    "suburb": "Bondi",
    "state": "NSW",
    "lat": -33.8803274,
    "lng": 151.2141193,
    "place_id": "ChIJtf752RmuEmsRnipVPXaiUTQ",
    "maps_url": "https://www.google.com/maps/place/?q=place_id:ChIJtf752RmuEmsRnipVPXaiUTQ",
    "rating": 4.3,
    "total_ratings": 961
  },
  {
    "name": "St Marks Randwick",
    "address": "37 Rae St, Randwick",
    "suburb": "Bondi",
    "state": "NSW",
    "lat": -33.9124893,
    "lng": 151.246074,
    "place_id": "ChIJNX2hlxCyEmsR34wDonBlX5U",
    "maps_url": "https://www.google.com/maps/place/?q=place_id:ChIJNX2hlxCyEmsR34wDonBlX5U",
    "rating": 4.4,
    "total_ratings": 379
  },
  {
    "name": "Miss Baker's Bondi Accommodation",
    "address": "6 Beach Rd, Bondi Beach",
    "suburb": "Bondi",
    "state": "NSW",
    "lat": -33.8887723,
    "lng": 151.2757868,
    "place_id": "ChIJqdHktbqtEmsRqkXjJB_nQN4",
    "maps_url": "https://www.google.com/maps/place/?q=place_id:ChIJqdHktbqtEmsRqkXjJB_nQN4",
    "rating": 3.7,
    "total_ratings": 23
  },
  {
    "name": "Bondi 38 Serviced Apartments",
    "address": "3/38 Campbell Parade, Bondi Beach",
    "suburb": "Bondi",
    "state": "NSW",
    "lat": -33.8932952,
    "lng": 151.2727441,
    "place_id": "ChIJhTsRDZutEmsRFMWYmut1S3k",
    "maps_url": "https://www.google.com/maps/place/?q=place_id:ChIJhTsRDZutEmsRFMWYmut1S3k",
    "rating": 4.5,
    "total_ratings": 154
  },
  {
    "name": "APX Darling Harbour",
    "address": "8 Dixon St, Haymarket",
    "suburb": "Bondi",
    "state": "NSW",
    "lat": -33.8765778,
    "lng": 151.2039717,
    "place_id": "ChIJO1UbccRqkWsRjz-Atm_BX2A",
    "maps_url": "https://www.google.com/maps/place/?q=place_id:ChIJO1UbccRqkWsRjz-Atm_BX2A",
    "rating": 3.1,
    "total_ratings": 511
  },
  {
    "name": "Cozy M Hostel",
    "address": "132 Bourke St, Woolloomooloo",
    "suburb": "Bondi",
    "state": "NSW",
    "lat": -33.8737886,
    "lng": 151.2185088,
    "place_id": "ChIJUQb4yN6vEmsR0GGDJL82PuM",
    "maps_url": "https://www.google.com/maps/place/?q=place_id:ChIJUQb4yN6vEmsR0GGDJL82PuM",
    "rating": 4.5,
    "total_ratings": 170
  },
  {
    "name": "Glebe Terraces",
    "address": "256 Glebe Point Rd, Glebe",
    "suburb": "Burwood",
    "state": "NSW",
    "lat": -33.87439940000001,
    "lng": 151.1824306,
    "place_id": "ChIJGf4oNtKvEmsRs7smRVejYVc",
    "maps_url": "https://www.google.com/maps/place/?q=place_id:ChIJGf4oNtKvEmsRs7smRVejYVc",
    "rating": 4,
    "total_ratings": 885
  },
  {
    "name": "Garden Lodge Sydney Hotel",
    "address": "17 Parramatta Rd, Haberfield",
    "suburb": "Burwood",
    "state": "NSW",
    "lat": -33.8882315,
    "lng": 151.143238,
    "place_id": "ChIJ2xCcc5OxEmsR1F0H1_KYAKM",
    "maps_url": "https://www.google.com/maps/place/?q=place_id:ChIJ2xCcc5OxEmsR1F0H1_KYAKM",
    "rating": 3.5,
    "total_ratings": 179
  },
  {
    "name": "The Select Inn Ryde | Hotel in West Ryde",
    "address": "1188 Victoria Rd, West Ryde",
    "suburb": "Burwood",
    "state": "NSW",
    "lat": -33.8065749,
    "lng": 151.0739652,
    "place_id": "ChIJpyNW-salEmsRwxZXE0K4yUc",
    "maps_url": "https://www.google.com/maps/place/?q=place_id:ChIJpyNW-salEmsRwxZXE0K4yUc",
    "rating": 4.5,
    "total_ratings": 280
  },
  {
    "name": "Best Western Plus Camperdown Suites",
    "address": "108 Parramatta Rd, Camperdown",
    "suburb": "Ryde",
    "state": "NSW",
    "lat": -33.8859913,
    "lng": 151.178758,
    "place_id": "ChIJ_b9ES8uxEmsRVwuPciYI8Gw",
    "maps_url": "https://www.google.com/maps/place/?q=place_id:ChIJ_b9ES8uxEmsRVwuPciYI8Gw",
    "rating": 4.7,
    "total_ratings": 177
  },
  {
    "name": "Linwood Lodge Motel",
    "address": "310-314 Pacific Hwy, Artarmon",
    "suburb": "Ryde",
    "state": "NSW",
    "lat": -33.8174426,
    "lng": 151.1796678,
    "place_id": "ChIJPeJytiOvEmsRJKkfzA6a5t8",
    "maps_url": "https://www.google.com/maps/place/?q=place_id:ChIJPeJytiOvEmsRJKkfzA6a5t8",
    "rating": 3.3,
    "total_ratings": 113
  },
  {
    "name": "Silkari Suites at Chatswood",
    "address": "88 Archer St, Chatswood",
    "suburb": "Ryde",
    "state": "NSW",
    "lat": -33.7950066,
    "lng": 151.1847095,
    "place_id": "ChIJj-KkZdaoEmsRqtFLpNBn4CU",
    "maps_url": "https://www.google.com/maps/place/?q=place_id:ChIJj-KkZdaoEmsRqtFLpNBn4CU",
    "rating": 4.4,
    "total_ratings": 787
  },
  {
    "name": "Oaks Sydney North Ryde Suites",
    "address": "58/62 Delhi Rd, North Ryde",
    "suburb": "Ryde",
    "state": "NSW",
    "lat": -33.7952147,
    "lng": 151.14393,
    "place_id": "ChIJH3BckeqvEmsRs6VBvRI_ENE",
    "maps_url": "https://www.google.com/maps/place/?q=place_id:ChIJH3BckeqvEmsRs6VBvRI_ENE",
    "rating": 3.7,
    "total_ratings": 665
  },
  {
    "name": "Strathfield Executive Accommodation",
    "address": "30D Cooper St, Strathfield",
    "suburb": "Ryde",
    "state": "NSW",
    "lat": -33.8701127,
    "lng": 151.0935149,
    "place_id": "ChIJ-9KM_ie7EmsRtdYWrZsmCdE",
    "maps_url": "https://www.google.com/maps/place/?q=place_id:ChIJ-9KM_ie7EmsRtdYWrZsmCdE",
    "rating": 3.9,
    "total_ratings": 200
  },
  {
    "name": "Royal Pacific Hotel",
    "address": "472 Pacific Hwy, Lane Cove North",
    "suburb": "Ryde",
    "state": "NSW",
    "lat": -33.8086676,
    "lng": 151.1782617,
    "place_id": "ChIJW8GxdS-vEmsRRU0JdSdQt4Y",
    "maps_url": "https://www.google.com/maps/place/?q=place_id:ChIJW8GxdS-vEmsRRU0JdSdQt4Y",
    "rating": 4,
    "total_ratings": 347
  },
  {
    "name": "Haberfield Hotel",
    "address": "entrance from, 215-217 Parramatta Road, Walker Ave, Haberfield",
    "suburb": "Ryde",
    "state": "NSW",
    "lat": -33.8782257,
    "lng": 151.1310611,
    "place_id": "ChIJY3vsutW7EmsRDWp7nOGc_80",
    "maps_url": "https://www.google.com/maps/place/?q=place_id:ChIJY3vsutW7EmsRDWp7nOGc_80",
    "rating": 4.7,
    "total_ratings": 473
  },
  {
    "name": "Mantra Chatswood",
    "address": "10 Brown St, Chatswood",
    "suburb": "Ryde",
    "state": "NSW",
    "lat": -33.7961971,
    "lng": 151.1799136,
    "place_id": "ChIJzw58lNOoEmsRmQ9Bzc8k3WA",
    "maps_url": "https://www.google.com/maps/place/?q=place_id:ChIJzw58lNOoEmsRmQ9Bzc8k3WA",
    "rating": 3.7,
    "total_ratings": 603
  },
  {
    "name": "Eastwood Furnished Apartments",
    "address": "3/4 May St, Eastwood",
    "suburb": "Ryde",
    "state": "NSW",
    "lat": -33.7889015,
    "lng": 151.0828744,
    "place_id": "ChIJOdbFkDCkEmsRm2qUDpFbmV0",
    "maps_url": "https://www.google.com/maps/place/?q=place_id:ChIJOdbFkDCkEmsRm2qUDpFbmV0",
    "rating": 3.7,
    "total_ratings": 20
  },
  {
    "name": "Rydges Camperdown",
    "address": "9 Missenden Rd, Camperdown",
    "suburb": "Ryde",
    "state": "NSW",
    "lat": -33.8869832,
    "lng": 151.1792097,
    "place_id": "ChIJOa-QZT-uEmsRiCrh1f1eGxM",
    "maps_url": "https://www.google.com/maps/place/?q=place_id:ChIJOa-QZT-uEmsRiCrh1f1eGxM",
    "rating": 3.7,
    "total_ratings": 978
  },
  {
    "name": "Cat & Fiddle Hotel",
    "address": "456 Darling St, Balmain",
    "suburb": "Ryde",
    "state": "NSW",
    "lat": -33.8568227,
    "lng": 151.1727195,
    "place_id": "ChIJNUuWVLivEmsR6jY6GCcW2U4",
    "maps_url": "https://www.google.com/maps/place/?q=place_id:ChIJNUuWVLivEmsR6jY6GCcW2U4",
    "rating": 4,
    "total_ratings": 545
  },
  {
    "name": "Little Drifter Glebe",
    "address": "262 Glebe Point Rd, Glebe",
    "suburb": "Ryde",
    "state": "NSW",
    "lat": -33.8741376,
    "lng": 151.1821463,
    "place_id": "ChIJc_YbK1-vEmsRrSjdIPeOXuo",
    "maps_url": "https://www.google.com/maps/place/?q=place_id:ChIJc_YbK1-vEmsRrSjdIPeOXuo",
    "rating": 4.5,
    "total_ratings": 100
  },
  {
    "name": "Haven Glebe",
    "address": "196 Glebe Point Rd, Glebe",
    "suburb": "Ryde",
    "state": "NSW",
    "lat": -33.8773847,
    "lng": 151.1849087,
    "place_id": "ChIJdT3UetOvEmsR6biTNOz6NWk",
    "maps_url": "https://www.google.com/maps/place/?q=place_id:ChIJdT3UetOvEmsR6biTNOz6NWk",
    "rating": 4.2,
    "total_ratings": 375
  },
  {
    "name": "Horse and Jockey Hotel",
    "address": "70 Parramatta Rd, Homebush",
    "suburb": "Ryde",
    "state": "NSW",
    "lat": -33.8653075,
    "lng": 151.0855186,
    "place_id": "ChIJ9y39_C67EmsRv0-jX19gQlw",
    "maps_url": "https://www.google.com/maps/place/?q=place_id:ChIJ9y39_C67EmsRv0-jX19gQlw",
    "rating": 4.2,
    "total_ratings": 655
  },
  {
    "name": "Regents Park Hotel",
    "address": "2A Amy St, Regents Park",
    "suburb": "Ryde",
    "state": "NSW",
    "lat": -33.8837776,
    "lng": 151.0245033,
    "place_id": "ChIJRbVQC2C8EmsRQcc9Gt56v8k",
    "maps_url": "https://www.google.com/maps/place/?q=place_id:ChIJRbVQC2C8EmsRQcc9Gt56v8k",
    "rating": 4.3,
    "total_ratings": 291
  },
  {
    "name": "Mercure Sydney Rouse Hill",
    "address": "Cnr Of Commercial &, Windsor Rd, Rouse Hill",
    "suburb": "Castle Hill",
    "state": "NSW",
    "lat": -33.6861364,
    "lng": 150.9191498,
    "place_id": "ChIJdW2hfISfEmsRD8CWVahtksA",
    "maps_url": "https://www.google.com/maps/place/?q=place_id:ChIJdW2hfISfEmsRD8CWVahtksA",
    "rating": 4.4,
    "total_ratings": 292
  },
  {
    "name": "Quality Apartments Castle Hill",
    "address": "8 Gladstone Rd, Castle Hill",
    "suburb": "Castle Hill",
    "state": "NSW",
    "lat": -33.7348442,
    "lng": 150.9768218,
    "place_id": "ChIJiTqAa_mhEmsRAXUNLepPr98",
    "maps_url": "https://www.google.com/maps/place/?q=place_id:ChIJiTqAa_mhEmsRAXUNLepPr98",
    "rating": 4,
    "total_ratings": 25
  },