[
  {
    "name": "Thai Healing Touch Therapeutic Massage",
    "address": "122/289-295 Sussex St, Sydney NSW 2000, Australia",
    "suburb": "Sydney NSW 2000",
    "state": "NSW",
    "rating": 4.8,
    "reviews": 1041,
    "lat": -33.8741802,
    "lng": 151.2038811,
    "place_id": "ChIJR9UdiTuuEmsRbGpa6rk-JAc",
    "maps_url": "https://www.google.com/maps/place/?q=place_id:ChIJR9UdiTuuEmsRbGpa6rk-JAc"
  },
  {
    "name": "Thai Royal Massage (Sydney CBD)",
    "address": "142 Clarence St, Sydney NSW 2000, Australia",
    "suburb": "Sydney NSW 2000",
    "state": "NSW",
    "rating": 4.9,
    "reviews": 464,
    "lat": -33.8692127,
    "lng": 151.2056084,
    "place_id": "ChIJuVfXOD-uEmsREbJzKOvsREU",
    "maps_url": "https://www.google.com/maps/place/?q=place_id:ChIJuVfXOD-uEmsREbJzKOvsREU"
  },
  {
    "name": "Grand Royal Thai Massage (Clarence St)",
    "address": "100 Clarence St, Sydney NSW 2000, Australia",
    "suburb": "Sydney NSW 2000",
    "state": "NSW",
    "rating": 4.8,
    "reviews": 929,
    "lat": -33.8680964,
    "lng": 151.2053988,
    "place_id": "ChIJ2fooPz-uEmsRVuKRN6hlUoE",
    "maps_url": "https://www.google.com/maps/place/?q=place_id:ChIJ2fooPz-uEmsRVuKRN6hlUoE"
  },
  {
    "name": "Zentara Thai Massage",
    "address": "Shop 1C/225 Clarence St, Sydney NSW 2000, Australia",
    "suburb": "Sydney NSW 2000",
    "state": "NSW",
    "rating": 4.9,
    "reviews": 880,
    "lat": -33.8704452,
    "lng": 151.2052811,
    "place_id": "ChIJta9ziQyvEmsRS0jd2Q_uaLs",
    "maps_url": "https://www.google.com/maps/place/?q=place_id:ChIJta9ziQyvEmsRS0jd2Q_uaLs"
  },
  {
    "name": "Jackies Sports Massage",
    "address": "LEVEL 6, Suite 605/185 Elizabeth St, Sydney NSW 2000, Australia",
    "suburb": "Suite 605/185 Elizabeth St",
    "state": "NSW",
    "rating": 4.9,
    "reviews": 464,
    "lat": -33.8724266,
    "lng": 151.2096638,
    "place_id": "ChIJf3vKIz6uEmsRMxOrvZQKE4w",
    "maps_url": "https://www.google.com/maps/place/?q=place_id:ChIJf3vKIz6uEmsRMxOrvZQKE4w"
  },
  {
    "name": "Grand Sydney Thai Massage (Druitt St)",
    "address": "53 Druitt St, Sydney NSW 2000, Australia",
    "suburb": "Sydney NSW 2000",
    "state": "NSW",
    "rating": 4.8,
    "reviews": 637,
    "lat": -33.8729112,
    "lng": 151.2049199,
    "place_id": "ChIJM7O2AzyuEmsRDpbHV75xk6s",
    "maps_url": "https://www.google.com/maps/place/?q=place_id:ChIJM7O2AzyuEmsRDpbHV75xk6s"
  },
  {
    "name": "Pacific Thai Massage",
    "address": "SUITE 606/368 Sussex St, Sydney NSW 2000, Australia",
    "suburb": "Sydney NSW 2000",
    "state": "NSW",
    "rating": 4.9,
    "reviews": 479,
    "lat": -33.8764135,
    "lng": 151.2047258,
    "place_id": "ChIJo3xcrvWvEmsROBOoJ5I1HAw",
    "maps_url": "https://www.google.com/maps/place/?q=place_id:ChIJo3xcrvWvEmsROBOoJ5I1HAw"
  },
  {
    "name": "Inner Balance Massage",
    "address": "7A Wigram Ln, Glebe NSW 2037, Australia",
    "suburb": "Glebe NSW 2037",
    "state": "NSW",
    "rating": 5,
    "reviews": 205,
    "lat": -33.8792803,
    "lng": 151.1825296,
    "place_id": "ChIJPQntexuuEmsRuKWemEc8ofQ",
    "maps_url": "https://www.google.com/maps/place/?q=place_id:ChIJPQntexuuEmsRuKWemEc8ofQ"
  },
  {
    "name": "Muscle Therapy Australia",
    "address": "Suite 18, Level 4/88 Pitt St, Sydney NSW 2000, Australia",
    "suburb": "Level 4/88 Pitt St",
    "state": "NSW",
    "rating": 5,
    "reviews": 549,
    "lat": -33.8669849,
    "lng": 151.2088077,
    "place_id": "ChIJD0BVwbitEmsRYazXq_W1yEI",
    "maps_url": "https://www.google.com/maps/place/?q=place_id:ChIJD0BVwbitEmsRYazXq_W1yEI"
  },
  {
    "name": "Somatic Australia (massage delivered) and more...",
    "address": "714/08 Cooper St, Surry Hills NSW 2010, Australia",
    "suburb": "Surry Hills NSW 2010",
    "state": "NSW",
    "rating": 5,
    "reviews": 60,
    "lat": -33.8851689,
    "lng": 151.2085276,
    "place_id": "ChIJ6-qXTxivEmsR14sHWqwE-vE",
    "maps_url": "https://www.google.com/maps/place/?q=place_id:ChIJ6-qXTxivEmsR14sHWqwE-vE"
  },
  {
    "name": "Sunny Remedial Massage Clinic - Pitt St Sydney",
    "address": "6/250 Pitt St, Sydney NSW 2000, Australia",
    "suburb": "Sydney NSW 2000",
    "state": "NSW",
    "rating": 5,
    "reviews": 83,
    "lat": -33.8726066,
    "lng": 151.208555,
    "place_id": "ChIJWffRzlivEmsRmwqg0f8lH08",
    "maps_url": "https://www.google.com/maps/place/?q=place_id:ChIJWffRzlivEmsRmwqg0f8lH08"
  },
  {
    "name": "Wayne Massage - Town Hall (Sydney CBD)",
    "address": "Shop 2/250 Pitt St, Sydney NSW 2000, Australia",
    "suburb": "Sydney NSW 2000",
    "state": "NSW",
    "rating": 4.7,
    "reviews": 626,
    "lat": -33.8726094,
    "lng": 151.2084695,
    "place_id": "ChIJUR_iTOVHDW0Rp9Y2Xn26ByE",
    "maps_url": "https://www.google.com/maps/place/?q=place_id:ChIJUR_iTOVHDW0Rp9Y2Xn26ByE"
  },
  {
    "name": "The 4-Elements Thai Massage",
    "address": "Level 1/615 George St, Haymarket NSW 2000, Australia",
    "suburb": "Haymarket NSW 2000",
    "state": "NSW",
    "rating": 4.8,
    "reviews": 455,
    "lat": -33.8778937,
    "lng": 151.2055249,
    "place_id": "ChIJgS4ECsCvEmsRIQZ-ALehJ4M",
    "maps_url": "https://www.google.com/maps/place/?q=place_id:ChIJgS4ECsCvEmsRIQZ-ALehJ4M"
  },
  {
    "name": "Annantra Thai Massage",
    "address": "Summit Arcade, Shop 189/569 George St, Sydney NSW 2000, Australia",
    "suburb": "Shop 189/569 George St",
    "state": "NSW",
    "rating": 4.8,
    "reviews": 441,
    "lat": -33.8768772,
    "lng": 151.2057407,
    "place_id": "ChIJ40rivTyuEmsRfnzfkL1upvM",
    "maps_url": "https://www.google.com/maps/place/?q=place_id:ChIJ40rivTyuEmsRfnzfkL1upvM"
  },
  {
    "name": "Chang Sabai Thai Massage & Spa",
    "address": "Manning Building, Floor 2, Suite 202/451 Pitt St, Haymarket NSW 2000, Australia",
    "suburb": "Floor 2",
    "state": "NSW",
    "rating": 4.7,
    "reviews": 382,
    "lat": -33.8796761,
    "lng": 151.2068111,
    "place_id": "ChIJKygvGSOuEmsR75x8mQUzsb8",
    "maps_url": "https://www.google.com/maps/place/?q=place_id:ChIJKygvGSOuEmsR75x8mQUzsb8"
  },
  {
    "name": "MBS Remedial Massage Sydney",
    "address": "104/74 Pitt St, Sydney NSW 2000, Australia",
    "suburb": "Sydney NSW 2000",
    "state": "NSW",
    "rating": 4.9,
    "reviews": 290,
    "lat": -33.8663753,
    "lng": 151.2089582,
    "place_id": "ChIJcc49_e2vEmsRRT9MHGOrfMU",
    "maps_url": "https://www.google.com/maps/place/?q=place_id:ChIJcc49_e2vEmsRRT9MHGOrfMU"
  },
  {
    "name": "Som’s Thai Massage & Spa",
    "address": "Shop 519 Level 5/368 Sussex St, Sydney NSW 2000, Australia",
    "suburb": "Sydney NSW 2000",
    "state": "NSW",
    "rating": 5,
    "reviews": 132,
    "lat": -33.8764135,
    "lng": 151.2047258,
    "place_id": "ChIJB2pMHiqvEmsRt04qWRTSHW4",
    "maps_url": "https://www.google.com/maps/place/?q=place_id:ChIJB2pMHiqvEmsRt04qWRTSHW4"
  },
  {
    "name": "Body Curious - Massage, Sex Therapy & Counselling for Men",
    "address": "9 Earl Pl, Potts Point NSW 2011, Australia",
    "suburb": "Potts Point NSW 2011",
    "state": "NSW",
    "rating": 5,
    "reviews": 51,
    "lat": -33.8736237,
    "lng": 151.2232646,
    "place_id": "ChIJt6hoQA2uEmsR5plIcbhmxMY",
    "maps_url": "https://www.google.com/maps/place/?q=place_id:ChIJt6hoQA2uEmsR5plIcbhmxMY"
  },
  {
    "name": "Old Shanghai Massage",
    "address": "2/495 Oxford St, Paddington NSW 2021, Australia",
    "suburb": "Paddington NSW 2021",
    "state": "NSW",
    "rating": 5,
    "reviews": 199,
    "lat": -33.8894865,
    "lng": 151.2326256,
    "place_id": "ChIJRXWpQweuEmsR32rmPxaBDTY",
    "maps_url": "https://www.google.com/maps/place/?q=place_id:ChIJRXWpQweuEmsR32rmPxaBDTY"
  },
  {
    "name": "NSW Remedial Massage – Thai Massage for Back, Neck & Shoulder Pain | Sydney CBD",
    "address": "Shop 212 Level 2/368 Sussex St, Sydney NSW 2000, Australia",
    "suburb": "Sydney NSW 2000",
    "state": "NSW",
    "rating": 5,
    "reviews": 217,
    "lat": -33.8764135,
    "lng": 151.2047258,
    "place_id": "ChIJTdufgeEP-CIR7LxKOLXIZkQ",
    "maps_url": "https://www.google.com/maps/place/?q=place_id:ChIJTdufgeEP-CIR7LxKOLXIZkQ"
  },
  {
    "name": "feel & heal",
    "address": "15 Ravenshaw St, Newcastle West NSW 2302, Australia",
    "suburb": "Newcastle West NSW 2302",
    "state": "NSW",
    "rating": 5,
    "reviews": 351,
    "lat": -32.92876340000001,
    "lng": 151.7642249,
    "place_id": "ChIJwXjY2KkVc2sRco2ruOivJQ4",
    "maps_url": "https://www.google.com/maps/place/?q=place_id:ChIJwXjY2KkVc2sRco2ruOivJQ4"
  },
  {
    "name": "Newyou Massage Newcastle",
    "address": "204 King St, Newcastle NSW 2300, Australia",
    "suburb": "Newcastle NSW 2300",
    "state": "NSW",
    "rating": 5,
    "reviews": 280,
    "lat": -32.927056,
    "lng": 151.775709,
    "place_id": "ChIJZ9xsZ7MVc2sRLI23_DbQOSU",
    "maps_url": "https://www.google.com/maps/place/?q=place_id:ChIJZ9xsZ7MVc2sRLI23_DbQOSU"
  },
  {
    "name": "Wellbeing Massage Therapy",
    "address": "46 Hunter St, Newcastle NSW 2300, Australia",
    "suburb": "Newcastle NSW 2300",
    "state": "NSW",
    "rating": 4.9,
    "reviews": 117,
    "lat": -32.9279572,
    "lng": 151.7851504,
    "place_id": "ChIJ26yHCHsUc2sRZclXwMcikO4",
    "maps_url": "https://www.google.com/maps/place/?q=place_id:ChIJ26yHCHsUc2sRZclXwMcikO4"
  },
  {
    "name": "Soul of Siam Remedial Thai Massage",
    "address": "311 Hunter St, Newcastle NSW 2300, Australia",
    "suburb": "Newcastle NSW 2300",
    "state": "NSW",
    "rating": 4.7,
    "reviews": 55,
    "lat": -32.926903,
    "lng": 151.774993,
    "place_id": "ChIJm85LxlMVc2sRBTO4sWCLv2g",
    "maps_url": "https://www.google.com/maps/place/?q=place_id:ChIJm85LxlMVc2sRBTO4sWCLv2g"
  },
  {
    "name": "Pari Health Massage",
    "address": "102 Brunker Rd, Adamstown NSW 2289, Australia",
    "suburb": "Adamstown NSW 2289",
    "state": "NSW",
    "rating": 5,
    "reviews": 254,
    "lat": -32.9286836,
    "lng": 151.7314866,
    "place_id": "ChIJY4JGQtEVc2sRucljEm5k1JY",
    "maps_url": "https://www.google.com/maps/place/?q=place_id:ChIJY4JGQtEVc2sRucljEm5k1JY"
  },
  {
    "name": "Ngaya Wellness",
    "address": "5/122 Garden Grove Parade, Adamstown NSW 2289, Australia",
    "suburb": "Adamstown NSW 2289",
    "state": "NSW",
    "rating": 5,
    "reviews": 36,
    "lat": -32.9415362,
    "lng": 151.7181481,
    "place_id": "ChIJJQFHaAwVc2sRcB4fT6jhzgk",
    "maps_url": "https://www.google.com/maps/place/?q=place_id:ChIJJQFHaAwVc2sRcB4fT6jhzgk"
  },
  {
    "name": "Aura Thai Massage & Day Spa",
    "address": "3 Newcomen St, Newcastle NSW 2300, Australia",
    "suburb": "Newcastle NSW 2300",
    "state": "NSW",
    "rating": 4.6,
    "reviews": 130,
    "lat": -32.926818,
    "lng": 151.782387,
    "place_id": "ChIJ2f8qy2QUc2sRcCnaLq03_Y4",
    "maps_url": "https://www.google.com/maps/place/?q=place_id:ChIJ2f8qy2QUc2sRcCnaLq03_Y4"
  },
  {
    "name": "Lomi Lomi Massage Therapy",
    "address": "4 Armstrong Rd, Charlestown NSW 2290, Australia",
    "suburb": "Charlestown NSW 2290",
    "state": "NSW",
    "rating": 5,
    "reviews": 237,
    "lat": -32.9655809,
    "lng": 151.6811791,
    "place_id": "ChIJV02koa89c2sRVpOMGYrLEJs",
    "maps_url": "https://www.google.com/maps/place/?q=place_id:ChIJV02koa89c2sRVpOMGYrLEJs"
  },
  {
    "name": "Aviano Remedial Therapies",
    "address": "Unit 1/228 Union St, Merewether NSW 2291, Australia",
    "suburb": "Merewether NSW 2291",
    "state": "NSW",
    "rating": 4.9,
    "reviews": 67,
    "lat": -32.9412252,
    "lng": 151.7569014,
    "place_id": "ChIJ08lE6DAUc2sRcd_8JxN3e8I",
    "maps_url": "https://www.google.com/maps/place/?q=place_id:ChIJ08lE6DAUc2sRcd_8JxN3e8I"
  },
  {
    "name": "RC Remedial Massage Newcastle / Sweet Almond Oil Supplier",
    "address": "8 Astor St, Adamstown Heights NSW 2289, Australia",
    "suburb": "Adamstown Heights NSW 2289",
    "state": "NSW",
    "rating": 5,
    "reviews": 38,
    "lat": -32.9519086,
    "lng": 151.705918,
    "place_id": "ChIJBXxhZwMWc2sRwjL3A_GFovM",
    "maps_url": "https://www.google.com/maps/place/?q=place_id:ChIJBXxhZwMWc2sRwjL3A_GFovM"
  },
  {
    "name": "Śamana Natural Therapies",
    "address": "7 Crown St, Newcastle NSW 2300, Australia",
    "suburb": "Newcastle NSW 2300",
    "state": "NSW",
    "rating": 4.9,
    "reviews": 97,
    "lat": -32.9269267,
    "lng": 151.776946,
    "place_id": "ChIJS1YwVHmDc2sR1c1dlTCbLU4",
    "maps_url": "https://www.google.com/maps/place/?q=place_id:ChIJS1YwVHmDc2sR1c1dlTCbLU4"
  },
  {
    "name": "Australian Health Remedial Massage Therapy massagewarmersbay.com",
    "address": "12/34 John St, Warners Bay NSW 2282, Australia",
    "suburb": "Warners Bay NSW 2282",
    "state": "NSW",
    "rating": 5,
    "reviews": 243,
    "lat": -32.9741076,
    "lng": 151.6460892,
    "place_id": "ChIJ4dj6gOE9c2sR77NCes_iA98",
    "maps_url": "https://www.google.com/maps/place/?q=place_id:ChIJ4dj6gOE9c2sR77NCes_iA98"
  },
  {
    "name": "The Art Of Healing Lymphatic Therapy Newcastle",
    "address": "113 King St, Newcastle NSW 2300, Australia",
    "suburb": "Newcastle NSW 2300",
    "state": "NSW",
    "rating": 4.9,
    "reviews": 16,
    "lat": -32.9278592,
    "lng": 151.7794893,
    "place_id": "ChIJQQKBjzUVc2sR9sZsMbcV33U",
    "maps_url": "https://www.google.com/maps/place/?q=place_id:ChIJQQKBjzUVc2sR9sZsMbcV33U"
  },
  {
    "name": "Sala Newcastle",
    "address": "UNIT 1/29 Throsby St, Wickham NSW 2300, Australia",
    "suburb": "Wickham NSW 2300",
    "state": "NSW",
    "rating": 5,
    "reviews": 63,
    "lat": -32.920964,
    "lng": 151.758573,
    "place_id": "ChIJTcqLzEMVc2sRFBOcKRAmV6o",
    "maps_url": "https://www.google.com/maps/place/?q=place_id:ChIJTcqLzEMVc2sRFBOcKRAmV6o"
  },
  {
    "name": "West End Sawadee Thai Massage",
    "address": "663 Hunter St, Newcastle West NSW 2302, Australia",
    "suburb": "Newcastle West NSW 2302",
    "state": "NSW",
    "rating": 5,
    "reviews": 2,
    "lat": -32.9266743,
    "lng": 151.7631427,
    "place_id": "ChIJsTdYxg0Vc2sRdhJBi0TTIYo",
    "maps_url": "https://www.google.com/maps/place/?q=place_id:ChIJsTdYxg0Vc2sRdhJBi0TTIYo"
  },
  {
    "name": "Newcastle Muscle Pain Solutions",
    "address": "2/18 Swan St, Hamilton NSW 2303, Australia",
    "suburb": "Hamilton NSW 2303",
    "state": "NSW",
    "rating": 4.6,
    "reviews": 122,
    "lat": -32.9188763,
    "lng": 151.7452981,
    "place_id": "ChIJh3r9lUU-c2sRTBgLSDKwN5I",
    "maps_url": "https://www.google.com/maps/place/?q=place_id:ChIJh3r9lUU-c2sRTBgLSDKwN5I"
  },
  {
    "name": "Lee Massage & Acupuncture Westfield Kotara",
    "address": "Shop 2027A Westfield Kotara, 89 Park Ave, Kotara NSW 2289, Australia",
    "suburb": "89 Park Ave",
    "state": "NSW",
    "rating": 4.9,
    "reviews": 754,
    "lat": -32.9421292,
    "lng": 151.7116494,
    "place_id": "ChIJNWjH-PwVc2sRhqWKFZsM08c",
    "maps_url": "https://www.google.com/maps/place/?q=place_id:ChIJNWjH-PwVc2sRhqWKFZsM08c"
  },
  {
    "name": "Healing Wave Chiropractic & Massage - Newcastle",
    "address": "Level 1/35-37 King St, Newcastle NSW 2300, Australia",
    "suburb": "Newcastle NSW 2300",
    "state": "NSW",
    "rating": 5,
    "reviews": 167,
    "lat": -32.9288596,
    "lng": 151.783302,
    "place_id": "ChIJIQd9TkAUc2sRXCyeFi_lv38",
    "maps_url": "https://www.google.com/maps/place/?q=place_id:ChIJIQd9TkAUc2sRXCyeFi_lv38"
  },
  {
    "name": "City Cave Mayfield",
    "address": "77 Maitland Rd, Mayfield NSW 2304, Australia",
    "suburb": "Mayfield NSW 2304",
    "state": "NSW",
    "rating": 5,
    "reviews": 625,
    "lat": -32.9012296,
    "lng": 151.7420298,
    "place_id": "ChIJhWTmS90Vc2sR8Dk02JoVYQc",
    "maps_url": "https://www.google.com/maps/place/?q=place_id:ChIJhWTmS90Vc2sR8Dk02JoVYQc"
  },
  {
    "name": "Ayusha Ayurveda and Lymphatic Massage Newcastle",
    "address": "Shop 114, Level 1/10-16 Kenrick St, The Junction NSW 2291, Australia",
    "suburb": "Level 1/10-16 Kenrick St",
    "state": "NSW",
    "rating": 5,
    "reviews": 9,
    "lat": -32.9378558,
    "lng": 151.7602775,
    "place_id": "ChIJ0ZGJ9lsVc2sRuAAdg9hyV1M",
    "maps_url": "https://www.google.com/maps/place/?q=place_id:ChIJ0ZGJ9lsVc2sRuAAdg9hyV1M"
  },
  {
    "name": "Ocean Blue Thai Massage and Spa",
    "address": "5/74 Kembla St, Wollongong NSW 2500, Australia",
    "suburb": "Wollongong NSW 2500",
    "state": "NSW",
    "rating": 4.9,
    "reviews": 148,
    "lat": -34.424285,
    "lng": 150.897524,
    "place_id": "ChIJ9-GirmYZE2sR3VFIKS_mYlE",
    "maps_url": "https://www.google.com/maps/place/?q=place_id:ChIJ9-GirmYZE2sR3VFIKS_mYlE"
  },
  {
    "name": "Home Thai Therapeutic Massage",
    "address": "318 Crown St, Wollongong NSW 2500, Australia",
    "suburb": "Wollongong NSW 2500",
    "state": "NSW",
    "rating": 5,
    "reviews": 256,
    "lat": -34.4256113,
    "lng": 150.887207,
    "place_id": "ChIJEfKsT9QZE2sROigz8GqWwcI",
    "maps_url": "https://www.google.com/maps/place/?q=place_id:ChIJEfKsT9QZE2sROigz8GqWwcI"
  },
  {
    "name": "Maisie Massage and Acupuncture",
    "address": "central chamber top, level 15B/157 Crown St, Wollongong NSW 2500, Australia",
    "suburb": "level 15B/157 Crown St",
    "state": "NSW",
    "rating": 5,
    "reviews": 136,
    "lat": -34.425489,
    "lng": 150.8953435,
    "place_id": "ChIJMc4pCP0bE2sRq9UUMro9KYs",
    "maps_url": "https://www.google.com/maps/place/?q=place_id:ChIJMc4pCP0bE2sRq9UUMro9KYs"
  },
  {
    "name": "Zen Japanese Massage Wollongong",
    "address": "Shop 2/156-160 Crown St, Wollongong NSW 2500, Australia",
    "suburb": "Wollongong NSW 2500",
    "state": "NSW",
    "rating": 4.9,
    "reviews": 88,
    "lat": -34.4251264,
    "lng": 150.8953104,
    "place_id": "ChIJjz-yTlMZE2sRJVGY_y1pI9U",
    "maps_url": "https://www.google.com/maps/place/?q=place_id:ChIJjz-yTlMZE2sRJVGY_y1pI9U"
  },
  {
    "name": "Lee Massage & Acupuncture Wollongong Central",
    "address": "Wollongong Central, Shop GD W109/200 Crown St, Wollongong NSW 2500, Australia",
    "suburb": "Shop GD W109/200 Crown St",
    "state": "NSW",
    "rating": 4.9,
    "reviews": 151,
    "lat": -34.4245832,
    "lng": 150.894378,
    "place_id": "ChIJtSp806UZE2sR7StYRWTgQ4Y",
    "maps_url": "https://www.google.com/maps/place/?q=place_id:ChIJtSp806UZE2sR7StYRWTgQ4Y"
  },
  {
    "name": "Advance Body Massage",
    "address": "398 Keira St, Wollongong NSW 2500, Australia",
    "suburb": "Wollongong NSW 2500",
    "state": "NSW",
    "rating": 5,
    "reviews": 33,
    "lat": -34.4384866,
    "lng": 150.8908394,
    "place_id": "ChIJyYYzUJEZE2sRdyOrZJJM_jg",
    "maps_url": "https://www.google.com/maps/place/?q=place_id:ChIJyYYzUJEZE2sRdyOrZJJM_jg"
  },
  {
    "name": "Health Harbour Massage & Acupuncture",
    "address": "Keira St, Wollongong NSW 2500, Australia",
    "suburb": "Wollongong NSW 2500",
    "state": "NSW",
    "rating": 4.9,
    "reviews": 129,
    "lat": -34.4242493,
    "lng": 150.8929729,
    "place_id": "ChIJCWyMpXcZE2sRSbtminzmzuQ",
    "maps_url": "https://www.google.com/maps/place/?q=place_id:ChIJCWyMpXcZE2sRSbtminzmzuQ"
  },
  {
    "name": "Thai Lanna Therapeutic Massage & Spa Wollongong",
    "address": "2/8 Kenny St, Wollongong NSW 2500, Australia",
    "suburb": "Wollongong NSW 2500",
    "state": "NSW",
    "rating": 4.7,
    "reviews": 132,
    "lat": -34.426673,
    "lng": 150.8915976,
    "place_id": "ChIJZVyIX6QZE2sR78wh2A7RHhk",
    "maps_url": "https://www.google.com/maps/place/?q=place_id:ChIJZVyIX6QZE2sR78wh2A7RHhk"
  },
  {
    "name": "Wollongong Instyle Massage",
    "address": "303 Crown St, Wollongong NSW 2500, Australia",
    "suburb": "Wollongong NSW 2500",
    "state": "NSW",
    "rating": 5,
    "reviews": 3,
    "lat": -34.425693,
    "lng": 150.890503,
    "place_id": "ChIJi1nR7YgZE2sR7VcNFgSZSKs",
    "maps_url": "https://www.google.com/maps/place/?q=place_id:ChIJi1nR7YgZE2sR7VcNFgSZSKs"
  },
  {
    "name": "SaltWater Thai Massage",
    "address": "21 Market St, Wollongong NSW 2500, Australia",
    "suburb": "Wollongong NSW 2500",
    "state": "NSW",
    "rating": 4.6,
    "reviews": 64,
    "lat": -34.4244295,
    "lng": 150.8993575,
    "place_id": "ChIJe2nmFnkZE2sRNxFSc2u6Fqk",
    "maps_url": "https://www.google.com/maps/place/?q=place_id:ChIJe2nmFnkZE2sRNxFSc2u6Fqk"
  },
  {
    "name": "Bodycare Essentials",
    "address": "4/119 Corrimal St, Wollongong NSW 2500, Australia",
    "suburb": "Wollongong NSW 2500",
    "state": "NSW",
    "rating": 5,
    "reviews": 22,
    "lat": -34.425157,
    "lng": 150.90045,
    "place_id": "ChIJ4dZ0aqkZE2sR3bGCqynB4iM",
    "maps_url": "https://www.google.com/maps/place/?q=place_id:ChIJ4dZ0aqkZE2sR3bGCqynB4iM"
  },
  {
    "name": "Wellness Centre Wollongong",
    "address": "81 Keira St, Wollongong NSW 2500, Australia",
    "suburb": "Wollongong NSW 2500",
    "state": "NSW",
    "rating": 5,
    "reviews": 52,
    "lat": -34.4209679,
    "lng": 150.8940897,
    "place_id": "ChIJEar0lacZE2sRzlweeJW92CI",
    "maps_url": "https://www.google.com/maps/place/?q=place_id:ChIJEar0lacZE2sRzlweeJW92CI"
  },
  {
    "name": "PARADISE Thai massage &spa",
    "address": "105 Keira St, Wollongong NSW 2500, Australia",
    "suburb": "Wollongong NSW 2500",
    "state": "NSW",
    "rating": 4.8,
    "reviews": 20,
    "lat": -34.4218007,
    "lng": 150.8940035,
    "place_id": "ChIJ7aXmbAAZE2sReCJuu0NMjOw",
    "maps_url": "https://www.google.com/maps/place/?q=place_id:ChIJ7aXmbAAZE2sReCJuu0NMjOw"
  },
  {
    "name": "Doctor Massage & Acupuncture",
    "address": "Shop GD S002A, Wollongong Central, 200 Crown St, Wollongong NSW 2500, Australia",
    "suburb": "Wollongong Central",
    "state": "NSW",
    "rating": 4.7,
    "reviews": 50,
    "lat": -34.42455330000001,
    "lng": 150.8940043,
    "place_id": "ChIJyZ2--e4ZE2sR4pg-ykFn7MU",
    "maps_url": "https://www.google.com/maps/place/?q=place_id:ChIJyZ2--e4ZE2sR4pg-ykFn7MU"
  },
  {
    "name": "Wollongong Massage Centre",
    "address": "19 Atchison St, Wollongong NSW 2500, Australia",
    "suburb": "Wollongong NSW 2500",
    "state": "NSW",
    "rating": 4.7,
    "reviews": 11,
    "lat": -34.4273671,
    "lng": 150.8909893,
    "place_id": "ChIJ_b8Xyk0ZE2sRlCE0GaHnMWw",
    "maps_url": "https://www.google.com/maps/place/?q=place_id:ChIJ_b8Xyk0ZE2sRlCE0GaHnMWw"
  },
  {
    "name": "AAA Massage",
    "address": "219 Crown St, Wollongong NSW 2500, Australia",
    "suburb": "Wollongong NSW 2500",
    "state": "NSW",
    "rating": 4.6,
    "reviews": 13,
    "lat": -34.4250783,
    "lng": 150.8932521,
    "place_id": "ChIJvVtyeqQZE2sR81Mu9sBZfCM",
    "maps_url": "https://www.google.com/maps/place/?q=place_id:ChIJvVtyeqQZE2sR81Mu9sBZfCM"
  },
  {
    "name": "Elite Muscle Therapy",
    "address": "260 Keira St, Wollongong NSW 2500, Australia",
    "suburb": "Wollongong NSW 2500",
    "state": "NSW",
    "rating": 5,
    "reviews": 12,
    "lat": -34.42617920000001,
    "lng": 150.8927701,
    "place_id": "ChIJ40b8TKQZE2sR2yM2HfQfzV0",
    "maps_url": "https://www.google.com/maps/place/?q=place_id:ChIJ40b8TKQZE2sR2yM2HfQfzV0"
  },
  {
    "name": "Figtree Thai Massage",
    "address": "2/34 Princes Hwy, Figtree NSW 2525, Australia",
    "suburb": "Figtree NSW 2525",
    "state": "NSW",
    "rating": 4.9,
    "reviews": 355,
    "lat": -34.4351692,
    "lng": 150.8617095,
    "place_id": "ChIJB2eei_UZE2sRuKva8LfKb0Y",
    "maps_url": "https://www.google.com/maps/place/?q=place_id:ChIJB2eei_UZE2sRuKva8LfKb0Y"
  },
  {
    "name": "Mobile Remedial Massage Therapist",
    "address": "Wollongong NSW 2500, Australia",
    "suburb": "Australia",
    "state": "NSW",
    "rating": 5,
    "reviews": 1,
    "lat": -34.426481,
    "lng": 150.8921999,
    "place_id": "ChIJTSrQGQAZE2sRPkwrH-SVSnQ",
    "maps_url": "https://www.google.com/maps/place/?q=place_id:ChIJTSrQGQAZE2sRPkwrH-SVSnQ"
  },
  {
    "name": "Mind and Body Massage Therapy",
    "address": "228 Shellharbour Rd, Warilla NSW 2528, Australia",
    "suburb": "Warilla NSW 2528",
    "state": "NSW",
    "rating": 4.9,
    "reviews": 88,
    "lat": -34.5566038,
    "lng": 150.8594171,
    "place_id": "ChIJkRT1hFMTE2sRL9cv8_BQKU4",
    "maps_url": "https://www.google.com/maps/place/?q=place_id:ChIJkRT1hFMTE2sRL9cv8_BQKU4"
  },
  {
    "name": "The Entrance Thai Remedial Massage Clinic",
    "address": "5/76 The Entrance Rd, The Entrance NSW 2261, Australia",
    "suburb": "The Entrance NSW 2261",
    "state": "NSW",
    "rating": 4.9,
    "reviews": 314,
    "lat": -33.3447279,
    "lng": 151.4967555,
    "place_id": "ChIJ5co5n2bPcmsRsQB74XWII5E",
    "maps_url": "https://www.google.com/maps/place/?q=place_id:ChIJ5co5n2bPcmsRsQB74XWII5E"
  },
  {
    "name": "East Gosford Thai Massage",
    "address": "57 Victoria St, East Gosford NSW 2250, Australia",
    "suburb": "East Gosford NSW 2250",
    "state": "NSW",
    "rating": 4.8,
    "reviews": 104,
    "lat": -33.438116,
    "lng": 151.3540906,
    "place_id": "ChIJ5wIqTWG1cmsRo3A1ZpIoccs",
    "maps_url": "https://www.google.com/maps/place/?q=place_id:ChIJ5wIqTWG1cmsRo3A1ZpIoccs"
  },
  {
    "name": "Central Coast Remedial Massage",
    "address": "23 Manly Parade, The Entrance North NSW 2261, Australia",
    "suburb": "The Entrance North NSW 2261",
    "state": "NSW",
    "rating": 5,
    "reviews": 11,
    "lat": -33.3299107,
    "lng": 151.5045029,
    "place_id": "ChIJO1SML9vOcmsR7brt0nZ6fdk",
    "maps_url": "https://www.google.com/maps/place/?q=place_id:ChIJO1SML9vOcmsR7brt0nZ6fdk"
  },
  {
    "name": "Wyoming Thai Massage",
    "address": "4/470 Pacific Hwy, Wyoming NSW 2250, Australia",
    "suburb": "Wyoming NSW 2250",
    "state": "NSW",
    "rating": 4.8,
    "reviews": 114,
    "lat": -33.4091987,
    "lng": 151.3494415,
    "place_id": "ChIJbcmpFnvLcmsRE5R84ilKqJs",
    "maps_url": "https://www.google.com/maps/place/?q=place_id:ChIJbcmpFnvLcmsRE5R84ilKqJs"
  },
  {
    "name": "BB Remedial Thai Massage and Spa",
    "address": "Shop 1/410 Booker Bay Rd, Booker Bay NSW 2257, Australia",
    "suburb": "Booker Bay NSW 2257",
    "state": "NSW",
    "rating": 5,
    "reviews": 147,
    "lat": -33.5160004,
    "lng": 151.3422011,
    "place_id": "ChIJT_07RzOzcmsRrodzi7Gslk0",
    "maps_url": "https://www.google.com/maps/place/?q=place_id:ChIJT_07RzOzcmsRrodzi7Gslk0"
  },
  {
    "name": "Angel Touch Thai Massage And Beauty Ocean Beach",
    "address": "310A Trafalgar Ave, Umina Beach NSW 2257, Australia",
    "suburb": "Umina Beach NSW 2257",
    "state": "NSW",
    "rating": 5,
    "reviews": 183,
    "lat": -33.5221182,
    "lng": 151.3210119,
    "place_id": "ChIJ5dExPtVNDWsR5RhUnN2tid8",
    "maps_url": "https://www.google.com/maps/place/?q=place_id:ChIJ5dExPtVNDWsR5RhUnN2tid8"
  },
  {
    "name": "Central Coast Massage",
    "address": "Ocean Parade, The Entrance NSW 2261, Australia",
    "suburb": "The Entrance NSW 2261",
    "state": "NSW",
    "rating": 5,
    "reviews": 21,
    "lat": -33.3460943,
    "lng": 151.5005519,
    "place_id": "ChIJ74j8EsrPcmsR5jtfows3KKk",
    "maps_url": "https://www.google.com/maps/place/?q=place_id:ChIJ74j8EsrPcmsR5jtfows3KKk"
  },
  {
    "name": "REV Your Life",
    "address": "Inside Impact, 19 Chetwynd Rd, Erina NSW 2250, Australia",
    "suburb": "19 Chetwynd Rd",
    "state": "NSW",
    "rating": 5,
    "reviews": 84,
    "lat": -33.4335113,
    "lng": 151.397498,
    "place_id": "ChIJf4RiUPK1cmsRyjX0cXyu1_Y",
    "maps_url": "https://www.google.com/maps/place/?q=place_id:ChIJf4RiUPK1cmsRyjX0cXyu1_Y"
  },
  {
    "name": "Neuromuscular Massage",
    "address": "4A Salisbury Dr, Terrigal NSW 2260, Australia",
    "suburb": "Terrigal NSW 2260",
    "state": "NSW",
    "rating": 5,
    "reviews": 26,
    "lat": -33.4380972,
    "lng": 151.408115,
    "place_id": "ChIJSfxIanjKcmsRzuhKWGMT-ug",
    "maps_url": "https://www.google.com/maps/place/?q=place_id:ChIJSfxIanjKcmsRzuhKWGMT-ug"
  },
  {
    "name": "Nakha Traditional Thai Massage",
    "address": "2 Alison Rd, Wyong NSW 2259, Australia",
    "suburb": "Wyong NSW 2259",
    "state": "NSW",
    "rating": 4.8,
    "reviews": 86,
    "lat": -33.2841896,
    "lng": 151.4247378,
    "place_id": "ChIJB-QXYf7RcmsRpY-Af_P6JtA",
    "maps_url": "https://www.google.com/maps/place/?q=place_id:ChIJB-QXYf7RcmsRpY-Af_P6JtA"
  },
  {
    "name": "Long Jetty Thai Massage",
    "address": "Shop 8/314-316 The Entrance Rd, Long Jetty NSW 2261, Australia",
    "suburb": "Long Jetty NSW 2261",
    "state": "NSW",
    "rating": 4.9,
    "reviews": 48,
    "lat": -33.358196,
    "lng": 151.4856432,
    "place_id": "ChIJZ78decLPcmsR6gsZAUAYm4Q",
    "maps_url": "https://www.google.com/maps/place/?q=place_id:ChIJZ78decLPcmsR6gsZAUAYm4Q"
  },
  {
    "name": "Blis Mobile Massage",
    "address": "16 Dalpura Rd, Wamberal NSW 2260, Australia",
    "suburb": "Wamberal NSW 2260",
    "state": "NSW",
    "rating": 5,
    "reviews": 6,
    "lat": -33.4149811,
    "lng": 151.4476742,
    "place_id": "ChIJnUl8ElKVJioR7Tj9g_6SoDg",
    "maps_url": "https://www.google.com/maps/place/?q=place_id:ChIJnUl8ElKVJioR7Tj9g_6SoDg"
  },
  {
    "name": "Rebecca Winter Trigger Point and Remedial Massage Therapist",
    "address": "15 Morley Ave, Bateau Bay NSW 2261, Australia",
    "suburb": "Bateau Bay NSW 2261",
    "state": "NSW",
    "rating": 5,
    "reviews": 32,
    "lat": -33.3900782,
    "lng": 151.4654474,
    "place_id": "ChIJ_Yn0eGHJcmsRq0RzjOZScoc",
    "maps_url": "https://www.google.com/maps/place/?q=place_id:ChIJ_Yn0eGHJcmsRq0RzjOZScoc"
  },
  {
    "name": "Bella Professional Massage",
    "address": "Suite 2/1A Campbell Cres, Terrigal NSW 2260, Australia",
    "suburb": "Terrigal NSW 2260",
    "state": "NSW",
    "rating": 4.5,
    "reviews": 73,
    "lat": -33.4466222,
    "lng": 151.4436162,
    "place_id": "ChIJuX8g9OfJcmsRi6sJ0bw_Lao",
    "maps_url": "https://www.google.com/maps/place/?q=place_id:ChIJuX8g9OfJcmsRi6sJ0bw_Lao"
  },
  {
    "name": "Mangkorn Massage",
    "address": "243 Main Rd, Toukley NSW 2263, Australia",
    "suburb": "Toukley NSW 2263",
    "state": "NSW",
    "rating": 4.9,
    "reviews": 96,
    "lat": -33.2639303,
    "lng": 151.5417499,
    "place_id": "ChIJ76gMLPnbcmsRlubTVJ0XuUg",
    "maps_url": "https://www.google.com/maps/place/?q=place_id:ChIJ76gMLPnbcmsRlubTVJ0XuUg"
  },
  {
    "name": "Marlie Head-Spa & Wellness Central Coast",
    "address": "217 The Entrance Rd, The Entrance NSW 2261, Australia",
    "suburb": "The Entrance NSW 2261",
    "state": "NSW",
    "rating": 5,
    "reviews": 808,
    "lat": -33.3445374,
    "lng": 151.4962229,
    "place_id": "ChIJLZtgrwvPcmsR9oJS-lycL-U",
    "maps_url": "https://www.google.com/maps/place/?q=place_id:ChIJLZtgrwvPcmsR9oJS-lycL-U"
  },
  {
    "name": "Ettalong Massage and Wellbeing",
    "address": "Shop 6/19-21 Broken Bay Rd, Ettalong Beach NSW 2257, Australia",
    "suburb": "Ettalong Beach NSW 2257",
    "state": "NSW",
    "rating": 5,
    "reviews": 30,
    "lat": -33.5139497,
    "lng": 151.3341807,
    "place_id": "ChIJEzlmntNVbKYRXeG7jIWLaUk",
    "maps_url": "https://www.google.com/maps/place/?q=place_id:ChIJEzlmntNVbKYRXeG7jIWLaUk"
  },
  {
    "name": "Antone Thai & Remedial Massage",
    "address": "84C Wallarah Rd, Gorokan NSW 2263, Australia",
    "suburb": "Gorokan NSW 2263",
    "state": "NSW",
    "rating": 4.9,
    "reviews": 223,
    "lat": -33.257999,
    "lng": 151.5109625,
    "place_id": "ChIJ60HC5YLQcmsRbJSzd8iCVlg",
    "maps_url": "https://www.google.com/maps/place/?q=place_id:ChIJ60HC5YLQcmsRbJSzd8iCVlg"
  },
  {
    "name": "Five Star Day Spa",
    "address": "Shop 1A, Fountain Plaza, 148/158 Central Coast Hwy, Erina NSW 2250, Australia",
    "suburb": "Fountain Plaza",
    "state": "NSW",
    "rating": 4.9,
    "reviews": 487,
    "lat": -33.4388324,
    "lng": 151.3842388,
    "place_id": "ChIJtf1IanjKcmsRnHx-VGe3UHM",
    "maps_url": "https://www.google.com/maps/place/?q=place_id:ChIJtf1IanjKcmsRnHx-VGe3UHM"
  },
  {
    "name": "Hedako Thai Massage In Ettalong Beach",
    "address": "2/227 Ocean View Rd, Ettalong Beach NSW 2257, Australia",
    "suburb": "Ettalong Beach NSW 2257",
    "state": "NSW",
    "rating": 5,
    "reviews": 57,
    "lat": -33.5138377,
    "lng": 151.3384191,
    "place_id": "ChIJZVBJVW2zcmsRN1snvPdHN38",
    "maps_url": "https://www.google.com/maps/place/?q=place_id:ChIJZVBJVW2zcmsRN1snvPdHN38"
  },
  {
    "name": "Amanda's Thai Therapy",
    "address": "Level 1/314 Church St, Parramatta NSW 2150, Australia",
    "suburb": "Parramatta NSW 2150",
    "state": "NSW",
    "rating": 4.6,
    "reviews": 469,
    "lat": -33.8119744,
    "lng": 151.0041795,
    "place_id": "ChIJBz9_hR6jEmsRrMibI5TjXR4",
    "maps_url": "https://www.google.com/maps/place/?q=place_id:ChIJBz9_hR6jEmsRrMibI5TjXR4"
  },
  {
    "name": "LMF Massage",
    "address": "18/2 O'Connell St, Parramatta NSW 2150, Australia",
    "suburb": "Parramatta NSW 2150",
    "state": "NSW",
    "rating": 4.6,
    "reviews": 539,
    "lat": -33.8175462,
    "lng": 150.9992964,
    "place_id": "ChIJNWTernGjEmsRkSCHHkSvIcg",
    "maps_url": "https://www.google.com/maps/place/?q=place_id:ChIJNWTernGjEmsRkSCHHkSvIcg"
  },
  {
    "name": "Serenity Massage Studio",
    "address": "Suite 12/103 George St, Parramatta NSW 2150, Australia",
    "suburb": "Parramatta NSW 2150",
    "state": "NSW",
    "rating": 4.3,
    "reviews": 128,
    "lat": -33.8152261,
    "lng": 151.0095612,
    "place_id": "ChIJZZZWVBijEmsRwUqiuj3Zk-0",
    "maps_url": "https://www.google.com/maps/place/?q=place_id:ChIJZZZWVBijEmsRwUqiuj3Zk-0"
  },
  {
    "name": "Honey Remedial Thai Massage",
    "address": "120 Thomas St, Parramatta NSW 2150, Australia",
    "suburb": "Parramatta NSW 2150",
    "state": "NSW",
    "rating": 4.9,
    "reviews": 79,
    "lat": -33.8126624,
    "lng": 151.02089,
    "place_id": "ChIJ-aCiENmZEmsRGNQwu-D4EDg",
    "maps_url": "https://www.google.com/maps/place/?q=place_id:ChIJ-aCiENmZEmsRGNQwu-D4EDg"
  },
  {
    "name": "Golden Tree Thai Massage Parramatta",
    "address": "256 Church St, Parramatta NSW 2150, Australia",
    "suburb": "Parramatta NSW 2150",
    "state": "NSW",
    "rating": 4.4,
    "reviews": 335,
    "lat": -33.8138481,
    "lng": 151.0035294,
    "place_id": "ChIJqc7g1AOjEmsRIpPYN8GXWUU",
    "maps_url": "https://www.google.com/maps/place/?q=place_id:ChIJqc7g1AOjEmsRIpPYN8GXWUU"
  },
  {
    "name": "Parramatta 105 Massage",
    "address": "105-107 Church St, Parramatta NSW 2150, Australia",
    "suburb": "Parramatta NSW 2150",
    "state": "NSW",
    "rating": 5,
    "reviews": 4,
    "lat": -33.8194996,
    "lng": 151.0035154,
    "place_id": "ChIJjWQCYbGjEmsRfwRVZcMsvAg",
    "maps_url": "https://www.google.com/maps/place/?q=place_id:ChIJjWQCYbGjEmsRfwRVZcMsvAg"
  },
  {
    "name": "Life Tree Massage Parramatta",
    "address": "Shop 2172, Level 2/175 Church St, Parramatta NSW 2150, Australia",
    "suburb": "Level 2/175 Church St",
    "state": "NSW",
    "rating": 4.7,
    "reviews": 194,
    "lat": -33.8176887,
    "lng": 151.0020378,
    "place_id": "ChIJbZWOVYSjEmsRlz0gY66gU9s",
    "maps_url": "https://www.google.com/maps/place/?q=place_id:ChIJbZWOVYSjEmsRlz0gY66gU9s"
  },
  {
    "name": "Thai Village Massage and Spa Parramatta",
    "address": "18/421 Church St, North Parramatta NSW 2151, Australia",
    "suburb": "North Parramatta NSW 2151",
    "state": "NSW",
    "rating": 4.4,
    "reviews": 241,
    "lat": -33.805867,
    "lng": 151.005631,
    "place_id": "ChIJs1_6TwOjEmsRJunR2kxoCwM",
    "maps_url": "https://www.google.com/maps/place/?q=place_id:ChIJs1_6TwOjEmsRJunR2kxoCwM"
  },
  {
    "name": "Angel Massage Parramatta - Parramatta Massage, 按摩",
    "address": "2/32 Hassall St, Parramatta NSW 2150, Australia",
    "suburb": "Parramatta NSW 2150",
    "state": "NSW",
    "rating": 3.9,
    "reviews": 46,
    "lat": -33.8174674,
    "lng": 151.0103428,
    "place_id": "ChIJYReQcRijEmsRUiZOF5Oduuo",
    "maps_url": "https://www.google.com/maps/place/?q=place_id:ChIJYReQcRijEmsRUiZOF5Oduuo"
  },
  {
    "name": "Life Tree Massage Parramatta - Level 1",
    "address": "Shop 1108 Level 1/159-175 Church St, Parramatta NSW 2150, Australia",
    "suburb": "Parramatta NSW 2150",
    "state": "NSW",
    "rating": 4.9,
    "reviews": 101,
    "lat": -33.8173782,
    "lng": 151.0016557,
    "place_id": "ChIJa_-q7CKjEmsR5y2q1vQH1aE",
    "maps_url": "https://www.google.com/maps/place/?q=place_id:ChIJa_-q7CKjEmsR5y2q1vQH1aE"
  },
  {
    "name": "TunedByTy Remedial",
    "address": "Broughton St, Parramatta NSW 2150, Australia",
    "suburb": "Parramatta NSW 2150",
    "state": "NSW",
    "rating": 4.7,
    "reviews": 12,
    "lat": -33.8142784,
    "lng": 151.0182073,
    "place_id": "ChIJH89TsU-jEmsRuToCsROCxTM",
    "maps_url": "https://www.google.com/maps/place/?q=place_id:ChIJH89TsU-jEmsRuToCsROCxTM"
  },
  {
    "name": "267 Parramatta Massage",
    "address": "L1/267 Church St, Parramatta NSW 2150, Australia",
    "suburb": "Parramatta NSW 2150",
    "state": "NSW",
    "rating": 3,
    "reviews": 35,
    "lat": -33.812674,
    "lng": 151.0035611,
    "place_id": "ChIJMwfEBYKjEmsRlyy6Ccntv8s",
    "maps_url": "https://www.google.com/maps/place/?q=place_id:ChIJMwfEBYKjEmsRlyy6Ccntv8s"
  },
  {
    "name": "Innerpeace Healing Remedial Energy Massage",
    "address": "19 Mason St, North Parramatta NSW 2151, Australia",
    "suburb": "North Parramatta NSW 2151",
    "state": "NSW",
    "rating": 5,
    "reviews": 18,
    "lat": -33.8076752,
    "lng": 151.0187233,
    "place_id": "ChIJDXEjK5ujEmsRrZwHl2vI3vs",
    "maps_url": "https://www.google.com/maps/place/?q=place_id:ChIJDXEjK5ujEmsRrZwHl2vI3vs"
  },
  {
    "name": "City Cave Parramatta",
    "address": "Opposite North Parramatta Post Office, 426 Church St, North Parramatta NSW 2150, Australia",
    "suburb": "426 Church St",
    "state": "NSW",
    "rating": 4.7,
    "reviews": 290,
    "lat": -33.8071072,
    "lng": 151.0060387,
    "place_id": "ChIJXUufndyjEmsRur30ZR9Y0o0",
    "maps_url": "https://www.google.com/maps/place/?q=place_id:ChIJXUufndyjEmsRur30ZR9Y0o0"
  },
  {
    "name": "🥇Ayur Healthcare Ayurveda (Panchakarma Centre) - Parramatta, Sydney",
    "address": "169 George St, Parramatta NSW 2150, Australia",
    "suburb": "Parramatta NSW 2150",
    "state": "NSW",
    "rating": 4.9,
    "reviews": 757,
    "lat": -33.8173634,
    "lng": 151.0153048,
    "place_id": "ChIJ7cT_clGjEmsRzbYOMb6Cz4I",
    "maps_url": "https://www.google.com/maps/place/?q=place_id:ChIJ7cT_clGjEmsRzbYOMb6Cz4I"
  },
  {
    "name": "Joy Massage",
    "address": "Shop 23/2 O'Connell St, Parramatta NSW 2150, Australia",
    "suburb": "Parramatta NSW 2150",
    "state": "NSW",
    "rating": 5,
    "reviews": 1,
    "lat": -33.8120867,
    "lng": 151.0017167,
    "place_id": "ChIJD1afJRyjEmsR5wQy4CZm_m0",
    "maps_url": "https://www.google.com/maps/place/?q=place_id:ChIJD1afJRyjEmsR5wQy4CZm_m0"
  },
  {
    "name": "Ruby Massage Parramatta - Relax Massage, 按摩",
    "address": "Unit 3/5-7 Ross St, North Parramatta NSW 2150, Australia",
    "suburb": "North Parramatta NSW 2150",
    "state": "NSW",
    "rating": 3.6,
    "reviews": 29,
    "lat": -33.8076092,
    "lng": 151.0046827,
    "place_id": "ChIJQ5W37hyjEmsRK8PSlRpYZ4I",
    "maps_url": "https://www.google.com/maps/place/?q=place_id:ChIJQ5W37hyjEmsRK8PSlRpYZ4I"
  },
  {
    "name": "Mens Erotic Massage By Nathan",
    "address": "Great Western Hwy, Parramatta NSW 2150, Australia",
    "suburb": "Parramatta NSW 2150",
    "state": "NSW",
    "rating": 5,
    "reviews": 1,
    "lat": -33.8191161,
    "lng": 150.9985536,
    "place_id": "ChIJfctP_ISjEmsRwHulvto2sA4",
    "maps_url": "https://www.google.com/maps/place/?q=place_id:ChIJfctP_ISjEmsRwHulvto2sA4"
  },
  {
    "name": "Golden Thai Massage - Parramatta (Westfield Parramatta)",
    "address": "Westfield Parramatta, Level 1/159-175 Church St, Parramatta NSW 2150, Australia",
    "suburb": "Level 1/159-175 Church St",
    "state": "NSW",
    "rating": 4.3,
    "reviews": 72,
    "lat": -33.8170687,
    "lng": 151.0013828,
    "place_id": "ChIJFwyaNoOjEmsRzsXjat5_QdQ",
    "maps_url": "https://www.google.com/maps/place/?q=place_id:ChIJFwyaNoOjEmsRzsXjat5_QdQ"
  },
  {
    "name": "Royal Garden Massage Granville – Relax Massage, 按摩",
    "address": "10 South St, Granville NSW 2142, Australia",
    "suburb": "Granville NSW 2142",
    "state": "NSW",
    "rating": 4.8,
    "reviews": 87,
    "lat": -33.8330127,
    "lng": 151.0109666,
    "place_id": "ChIJb2c9o5ujEmsR_PWRUU87Aq8",
    "maps_url": "https://www.google.com/maps/place/?q=place_id:ChIJb2c9o5ujEmsR_PWRUU87Aq8"
  },
  {
    "name": "Siam Soul Thai Massage (Hardware Street)",
    "address": "122 Hardware St, Melbourne VIC 3000, Australia",
    "suburb": "Melbourne VIC 3000",
    "state": "VIC",
    "rating": 4.9,
    "reviews": 2646,
    "lat": -37.8119131,
    "lng": 144.9605357,
    "place_id": "ChIJA7wB9S9d1moRw_6_b6rF7VE",
    "maps_url": "https://www.google.com/maps/place/?q=place_id:ChIJA7wB9S9d1moRw_6_b6rF7VE"
  },
  {
    "name": "Elegant Thai Massage (Exhibition St)",
    "address": "168 Exhibition St, Melbourne VIC 3000, Australia",
    "suburb": "Melbourne VIC 3000",
    "state": "VIC",
    "rating": 4.9,
    "reviews": 1321,
    "lat": -37.8115272,
    "lng": 144.9705581,
    "place_id": "ChIJ463i1-lD1moRidyF2kECYSo",
    "maps_url": "https://www.google.com/maps/place/?q=place_id:ChIJ463i1-lD1moRidyF2kECYSo"
  },
  {
    "name": "Balance Thai Massage",
    "address": "248 Queen St, Melbourne VIC 3000, Australia",
    "suburb": "Melbourne VIC 3000",
    "state": "VIC",
    "rating": 4.9,
    "reviews": 608,
    "lat": -37.812863,
    "lng": 144.9598441,
    "place_id": "ChIJn08jILld1moRkZXXzD3JXvM",
    "maps_url": "https://www.google.com/maps/place/?q=place_id:ChIJn08jILld1moRkZXXzD3JXvM"
  },
  {
    "name": "Acacia Thai Massage",
    "address": "Level 1/220 Bourke St, Melbourne VIC 3000, Australia",
    "suburb": "Melbourne VIC 3000",
    "state": "VIC",
    "rating": 4.9,
    "reviews": 1977,
    "lat": -37.813144,
    "lng": 144.9668604,
    "place_id": "ChIJnQS3QBZD1moRrS6BILMKSsI",
    "maps_url": "https://www.google.com/maps/place/?q=place_id:ChIJnQS3QBZD1moRrS6BILMKSsI"
  },
  {
    "name": "Healthland West Melbourne",
    "address": "287 Victoria St, West Melbourne VIC 3003, Australia",
    "suburb": "West Melbourne VIC 3003",
    "state": "VIC",
    "rating": 5,
    "reviews": 565,
    "lat": -37.8056078,
    "lng": 144.9516963,
    "place_id": "ChIJ0-yzy6Vd1moRPmQOCCapE9A",
    "maps_url": "https://www.google.com/maps/place/?q=place_id:ChIJ0-yzy6Vd1moRPmQOCCapE9A"
  },
  {
    "name": "Touch By Venus Massage & Holistic Bodywork",
    "address": "200 Spencer St, Melbourne VIC 3000, Australia",
    "suburb": "Melbourne VIC 3000",
    "state": "VIC",
    "rating": 5,
    "reviews": 286,
    "lat": -37.816228,
    "lng": 144.9532465,
    "place_id": "ChIJ1y__VU5d1moRwLKyhUGMic8",
    "maps_url": "https://www.google.com/maps/place/?q=place_id:ChIJ1y__VU5d1moRwLKyhUGMic8"
  },
  {
    "name": "Anda (CBD City Bourke st) Thai Massage & Remedial Massage Clinic",
    "address": "1/189-191 Bourke St, Melbourne VIC 3000, Australia",
    "suburb": "Melbourne VIC 3000",
    "state": "VIC",
    "rating": 4.9,
    "reviews": 1817,
    "lat": -37.8131736,
    "lng": 144.9677871,
    "place_id": "ChIJAR1568lC1moRA_TbdE9FdAY",
    "maps_url": "https://www.google.com/maps/place/?q=place_id:ChIJAR1568lC1moRA_TbdE9FdAY"
  },
  {
    "name": "Cozy Thai Massage (Southern Cross)",
    "address": "16 Spencer St, Melbourne VIC 3000, Australia",
    "suburb": "Melbourne VIC 3000",
    "state": "VIC",
    "rating": 4.9,
    "reviews": 739,
    "lat": -37.8206608,
    "lng": 144.9550797,
    "place_id": "ChIJ37vKaQBd1moRy3SDzYlvOz8",
    "maps_url": "https://www.google.com/maps/place/?q=place_id:ChIJ37vKaQBd1moRy3SDzYlvOz8"
  },
  {
    "name": "Elegant Hair Spa, Foot Spa, Remedial Thai Massage (Elizabeth St)",
    "address": "380A Elizabeth St, Melbourne VIC 3000, Australia",
    "suburb": "Melbourne VIC 3000",
    "state": "VIC",
    "rating": 5,
    "reviews": 426,
    "lat": -37.8099159,
    "lng": 144.9613228,
    "place_id": "ChIJC4U9WV9D1moRogJ9MS5JMqk",
    "maps_url": "https://www.google.com/maps/place/?q=place_id:ChIJC4U9WV9D1moRogJ9MS5JMqk"
  },
  {
    "name": "Sensu Spa",
    "address": "T03/570 Bourke St, Melbourne VIC 3000, Australia",
    "suburb": "Melbourne VIC 3000",
    "state": "VIC",
    "rating": 4.8,
    "reviews": 1090,
    "lat": -37.815149,
    "lng": 144.956527,
    "place_id": "ChIJJysdDExd1moRtxGJoirDeLk",
    "maps_url": "https://www.google.com/maps/place/?q=place_id:ChIJJysdDExd1moRtxGJoirDeLk"
  },
  {
    "name": "Luxe Therapy Melbourne",
    "address": "Melbourne Central Shopping Centre, Shop 090 (Near Office Tower Mall Ground Floor, Corner of Little Lansdale &, Elizabeth St, Melbourne VIC 3000, Australia",
    "suburb": "Shop 090 (Near Office Tower Mall Ground Floor",
    "state": "VIC",
    "rating": 4.2,
    "reviews": 171,
    "lat": -37.8107797,
    "lng": 144.9624594,
    "place_id": "ChIJ6WhR5spC1moRJfvyCb8ZjJs",
    "maps_url": "https://www.google.com/maps/place/?q=place_id:ChIJ6WhR5spC1moRJfvyCb8ZjJs"
  },
  {
    "name": "Max Therapy Massage",
    "address": "Melbourne Central Shopping Centre, Corner Swanston St &La, Trobe St, Melbourne VIC 3000, Australia",
    "suburb": "Corner Swanston St &La",
    "state": "VIC",
    "rating": 4.7,
    "reviews": 379,
    "lat": -37.8100846,
    "lng": 144.9636131,
    "place_id": "ChIJEd62DlZD1moR3sxjfG-v-IQ",
    "maps_url": "https://www.google.com/maps/place/?q=place_id:ChIJEd62DlZD1moR3sxjfG-v-IQ"
  },
  {
    "name": "Milk & Honey",
    "address": "295 Victoria St, West Melbourne VIC 3003, Australia",
    "suburb": "West Melbourne VIC 3003",
    "state": "VIC",
    "rating": 4.8,
    "reviews": 291,
    "lat": -37.805618,
    "lng": 144.951499,
    "place_id": "ChIJORvGEzdd1moROQnwAJE7gYE",
    "maps_url": "https://www.google.com/maps/place/?q=place_id:ChIJORvGEzdd1moROQnwAJE7gYE"
  },
  {
    "name": "Thanwa Thai Massage",
    "address": "Exchange Tower, Level 1 Suite 120/530 Little Collins St, Melbourne VIC 3000, Australia",
    "suburb": "Level 1 Suite 120/530 Little Collins St",
    "state": "VIC",
    "rating": 4.9,
    "reviews": 336,
    "lat": -37.8168746,
    "lng": 144.9570946,
    "place_id": "ChIJf_k-mnhd1moR2k9jpLKoTjY",
    "maps_url": "https://www.google.com/maps/place/?q=place_id:ChIJf_k-mnhd1moR2k9jpLKoTjY"
  },
  {
    "name": "Near By Massage Richmond",
    "address": "336 Victoria St, Richmond VIC 3121, Australia",
    "suburb": "Richmond VIC 3121",
    "state": "VIC",
    "rating": 4.9,
    "reviews": 167,
    "lat": -37.810918,
    "lng": 145.002562,
    "place_id": "ChIJycs5LpxD1moR1jDuMjFrQB4",
    "maps_url": "https://www.google.com/maps/place/?q=place_id:ChIJycs5LpxD1moR1jDuMjFrQB4"
  },
  {
    "name": "MRB Massage Therapy South Melbourne",
    "address": "193 Bank St, South Melbourne VIC 3205, Australia",
    "suburb": "South Melbourne VIC 3205",
    "state": "VIC",
    "rating": 5,
    "reviews": 272,
    "lat": -37.834537,
    "lng": 144.960522,
    "place_id": "ChIJYaAmQ21n1moRq75QVLbwUCA",
    "maps_url": "https://www.google.com/maps/place/?q=place_id:ChIJYaAmQ21n1moRq75QVLbwUCA"
  },
  {
    "name": "RELAX DAY SPA",
    "address": "256-258 Victoria St, North Melbourne VIC 3051, Australia",
    "suburb": "North Melbourne VIC 3051",
    "state": "VIC",
    "rating": 4.6,
    "reviews": 514,
    "lat": -37.8058358,
    "lng": 144.957498,
    "place_id": "ChIJZ4DrmPRd1moRO-LSiTZoguc",
    "maps_url": "https://www.google.com/maps/place/?q=place_id:ChIJZ4DrmPRd1moRO-LSiTZoguc"
  },
  {
    "name": "Melbourne Massage and Treatment",
    "address": "1/175 Holden St, Fitzroy North VIC 3068, Australia",
    "suburb": "Fitzroy North VIC 3068",
    "state": "VIC",
    "rating": 5,
    "reviews": 120,
    "lat": -37.77982040000001,
    "lng": 144.9865016,
    "place_id": "ChIJQ9wQprhD1moRPpqHhOwi2m0",
    "maps_url": "https://www.google.com/maps/place/?q=place_id:ChIJQ9wQprhD1moRPpqHhOwi2m0"
  },
  {
    "name": "Near By Massage Brunswick",
    "address": "656 Sydney Rd, Brunswick VIC 3056, Australia",
    "suburb": "Brunswick VIC 3056",
    "state": "VIC",
    "rating": 4.8,
    "reviews": 278,
    "lat": -37.7620199,
    "lng": 144.9632485,
    "place_id": "ChIJlYj782pD1moReZ8-bJJzwuM",
    "maps_url": "https://www.google.com/maps/place/?q=place_id:ChIJlYj782pD1moReZ8-bJJzwuM"
  },
  {
    "name": "Aroma Thai Massage & Skin Care (CBD)",
    "address": "373 Queen St, Melbourne VIC 3000, Australia",
    "suburb": "Melbourne VIC 3000",
    "state": "VIC",
    "rating": 4.9,
    "reviews": 684,
    "lat": -37.809724,
    "lng": 144.958104,
    "place_id": "ChIJp7HtmDVd1moReVH-M7Eo9Zk",
    "maps_url": "https://www.google.com/maps/place/?q=place_id:ChIJp7HtmDVd1moReVH-M7Eo9Zk"
  },
  {
    "name": "Sujanya Thai Traditional Massage",
    "address": "Unit 1/67 Pakington St, Geelong West VIC 3218, Australia",
    "suburb": "Geelong West VIC 3218",
    "state": "VIC",
    "rating": 4.7,
    "reviews": 159,
    "lat": -38.1359862,
    "lng": 144.3490056,
    "place_id": "ChIJcwA5AhUV1GoRTDcpZyqUk9Q",
    "maps_url": "https://www.google.com/maps/place/?q=place_id:ChIJcwA5AhUV1GoRTDcpZyqUk9Q"
  },
  {
    "name": "Touch Point Massage Geelong West",
    "address": "194 Pakington Street (Entrance, Level 1, Suite 3/off Weller St, Geelong West VIC 3218, Australia",
    "suburb": "Level 1",
    "state": "VIC",
    "rating": 4.9,
    "reviews": 61,
    "lat": -38.1416428,
    "lng": 144.3483378,
    "place_id": "ChIJDWI9luRc1moRkDFg4KWKMC0",
    "maps_url": "https://www.google.com/maps/place/?q=place_id:ChIJDWI9luRc1moRkDFg4KWKMC0"
  },
  {
    "name": "Sriri Thai Massage Geelong",
    "address": "76 Mercer St, Geelong VIC 3220, Australia",
    "suburb": "Geelong VIC 3220",
    "state": "VIC",
    "rating": 4.3,
    "reviews": 43,
    "lat": -38.1427418,
    "lng": 144.355875,
    "place_id": "ChIJAQAUJKgW1GoRruQVDFFseL0",
    "maps_url": "https://www.google.com/maps/place/?q=place_id:ChIJAQAUJKgW1GoRruQVDFFseL0"
  },
  {
    "name": "Remedy Lane by Good Folk",
    "address": "138 Myers St, Geelong VIC 3220, Australia",
    "suburb": "Geelong VIC 3220",
    "state": "VIC",
    "rating": 5,
    "reviews": 113,
    "lat": -38.15169290000001,
    "lng": 144.3593029,
    "place_id": "ChIJx12m7nAT1GoRmmFtEDDJXyM",
    "maps_url": "https://www.google.com/maps/place/?q=place_id:ChIJx12m7nAT1GoRmmFtEDDJXyM"
  },
  {
    "name": "Lomi Massage Geelong",
    "address": "Barwon Professional Suites, 65 W Fyans St, Newtown VIC 3220, Australia",
    "suburb": "65 W Fyans St",
    "state": "VIC",
    "rating": 5,
    "reviews": 66,
    "lat": -38.159822,
    "lng": 144.345029,
    "place_id": "ChIJi9tqJm8T1GoR7ZNRiipuWqk",
    "maps_url": "https://www.google.com/maps/place/?q=place_id:ChIJi9tqJm8T1GoR7ZNRiipuWqk"
  },
  {
    "name": "My Wellness Massage & Acupuncture",
    "address": "95 Malop St, Geelong VIC 3220, Australia",
    "suburb": "Geelong VIC 3220",
    "state": "VIC",
    "rating": 4.9,
    "reviews": 119,
    "lat": -38.1457051,
    "lng": 144.3623391,
    "place_id": "ChIJtYViVbQV1GoR_T-7i5dvZ8g",
    "maps_url": "https://www.google.com/maps/place/?q=place_id:ChIJtYViVbQV1GoR_T-7i5dvZ8g"
  },
  {
    "name": "Gentle Thai Massage",
    "address": "159 Ryrie St, Geelong VIC 3220, Australia",
    "suburb": "Geelong VIC 3220",
    "state": "VIC",
    "rating": 4.6,
    "reviews": 11,
    "lat": -38.1492621,
    "lng": 144.3604658,
    "place_id": "ChIJgSRivDgV1GoR8jBNFb7WRUw",
    "maps_url": "https://www.google.com/maps/place/?q=place_id:ChIJgSRivDgV1GoR8jBNFb7WRUw"
  },
  {
    "name": "Aura Thai Massage @East Geelong",
    "address": "262 McKillop St, East Geelong VIC 3219, Australia",
    "suburb": "East Geelong VIC 3219",
    "state": "VIC",
    "rating": 4.9,
    "reviews": 51,
    "lat": -38.1591767,
    "lng": 144.3768035,
    "place_id": "ChIJaUb_KdQV1GoRNtF59zQ0db4",
    "maps_url": "https://www.google.com/maps/place/?q=place_id:ChIJaUb_KdQV1GoRNtF59zQ0db4"
  },
  {
    "name": "Male and Female Family Massage",
    "address": "213 Moorabool St, Geelong VIC 3220, Australia",
    "suburb": "Geelong VIC 3220",
    "state": "VIC",
    "rating": 5,
    "reviews": 4,
    "lat": -38.1508225,
    "lng": 144.3594303,
    "place_id": "ChIJeUbgxjgV1GoRWfPGuqumwqU",
    "maps_url": "https://www.google.com/maps/place/?q=place_id:ChIJeUbgxjgV1GoRWfPGuqumwqU"
  },
  {
    "name": "Heiwa Head Spa",
    "address": "100 Ryrie St, Geelong VIC 3220, Australia",
    "suburb": "Geelong VIC 3220",
    "state": "VIC",
    "rating": 5,
    "reviews": 98,
    "lat": -38.1490112,
    "lng": 144.3577733,
    "place_id": "ChIJ22SnmpAT1GoRn4euHEf4K0k",
    "maps_url": "https://www.google.com/maps/place/?q=place_id:ChIJ22SnmpAT1GoRn4euHEf4K0k"
  },
  {
    "name": "Elisa Massage",
    "address": "84 Mercer St, Geelong VIC 3220, Australia",
    "suburb": "Geelong VIC 3220",
    "state": "VIC",
    "rating": 5,
    "reviews": 3,
    "lat": -38.1429597,
    "lng": 144.3559944,
    "place_id": "ChIJCUySDgAX1GoRr5ksafUx-VA",
    "maps_url": "https://www.google.com/maps/place/?q=place_id:ChIJCUySDgAX1GoRr5ksafUx-VA"
  },
  {
    "name": "Sea Breeze Massage",
    "address": "19 Melbourne Rd, Drumcondra VIC 3215, Australia",
    "suburb": "Drumcondra VIC 3215",
    "state": "VIC",
    "rating": 4.3,
    "reviews": 30,
    "lat": -38.1317064,
    "lng": 144.351391,
    "place_id": "ChIJYQbrPQAX1GoRM7XWpbd3XZ0",
    "maps_url": "https://www.google.com/maps/place/?q=place_id:ChIJYQbrPQAX1GoRM7XWpbd3XZ0"
  },
  {
    "name": "Harmony Thai Massage",
    "address": "85 Vines Rd, Hamlyn Heights VIC 3215, Australia",
    "suburb": "Hamlyn Heights VIC 3215",
    "state": "VIC",
    "rating": 5,
    "reviews": 87,
    "lat": -38.1212276,
    "lng": 144.3283773,
    "place_id": "ChIJcYHZqH4R1GoRTLDauQXaJ7Q",
    "maps_url": "https://www.google.com/maps/place/?q=place_id:ChIJcYHZqH4R1GoRTLDauQXaJ7Q"
  },
  {
    "name": "Body & Balance -1 Geelong",
    "address": "Westfield Geelong, Shop 1182/95 Malop St, Geelong VIC 3220, Australia",
    "suburb": "Shop 1182/95 Malop St",
    "state": "VIC",
    "rating": 4.8,
    "reviews": 46,
    "lat": -38.1466499,
    "lng": 144.3627389,
    "place_id": "ChIJ5d5u9A8V1GoReNf-BNGx4t0",
    "maps_url": "https://www.google.com/maps/place/?q=place_id:ChIJ5d5u9A8V1GoReNf-BNGx4t0"
  },
  {
    "name": "Easeful Massage Hub",
    "address": "275 Ryrie St, Geelong VIC 3220, Australia",
    "suburb": "Geelong VIC 3220",
    "state": "VIC",
    "rating": 5,
    "reviews": 4,
    "lat": -38.1506379,
    "lng": 144.3652067,
    "place_id": "ChIJQUhj_ZYV1GoRi8swFeRiGDQ",
    "maps_url": "https://www.google.com/maps/place/?q=place_id:ChIJQUhj_ZYV1GoRi8swFeRiGDQ"
  },
  {
    "name": "Sabai Baan Thai Massage",
    "address": "120 Torquay Rd, Belmont VIC 3216, Australia",
    "suburb": "Belmont VIC 3216",
    "state": "VIC",
    "rating": 4.7,
    "reviews": 254,
    "lat": -38.1896205,
    "lng": 144.3437931,
    "place_id": "ChIJtewZza1s1GoRCNeuzYQ8vQ8",
    "maps_url": "https://www.google.com/maps/place/?q=place_id:ChIJtewZza1s1GoRCNeuzYQ8vQ8"
  },
  {
    "name": "Sculpt Face and Body",
    "address": "90A Pakington St, Geelong West VIC 3218, Australia",
    "suburb": "Geelong West VIC 3218",
    "state": "VIC",
    "rating": 5,
    "reviews": 64,
    "lat": -38.1374104,
    "lng": 144.3491512,
    "place_id": "ChIJZa_zxNYX1GoRRkAjES7EU3A",
    "maps_url": "https://www.google.com/maps/place/?q=place_id:ChIJZa_zxNYX1GoRRkAjES7EU3A"
  },
  {
    "name": "Lydie Carret - Remedial massage and Myotherapy Geelong",
    "address": "107 Shannon Ave, Manifold Heights VIC 3218, Australia",
    "suburb": "Manifold Heights VIC 3218",
    "state": "VIC",
    "rating": 4.9,
    "reviews": 75,
    "lat": -38.1363952,
    "lng": 144.3370893,
    "place_id": "ChIJr3nx8d8T1GoR1v5CHEKBTog",
    "maps_url": "https://www.google.com/maps/place/?q=place_id:ChIJr3nx8d8T1GoR1v5CHEKBTog"
  },
  {
    "name": "Geelong Myotherapy and Wellness Centre",
    "address": "6-8 Tanner St, Breakwater VIC 3219, Australia",
    "suburb": "Breakwater VIC 3219",
    "state": "VIC",
    "rating": 5,
    "reviews": 43,
    "lat": -38.176964,
    "lng": 144.36926,
    "place_id": "ChIJD0Q3NlcU1GoR8iM_nMkLLWQ",
    "maps_url": "https://www.google.com/maps/place/?q=place_id:ChIJD0Q3NlcU1GoR8iM_nMkLLWQ"
  },
  {
    "name": "Olala Massage & Sauna - Relax Massage Geelong, 按摩",
    "address": "49 Little Ryrie St, Geelong VIC 3220, Australia",
    "suburb": "Geelong VIC 3220",
    "state": "VIC",
    "rating": 3,
    "reviews": 2,
    "lat": -38.1501894,
    "lng": 144.3591239,
    "place_id": "ChIJ9fkHCP4V1GoRfC9YOe_ahz0",
    "maps_url": "https://www.google.com/maps/place/?q=place_id:ChIJ9fkHCP4V1GoRfC9YOe_ahz0"
  },
  {
    "name": "Rose's Massage(10%OFF)",
    "address": "19 Little Bridge St, Ballarat Central VIC 3350, Australia",
    "suburb": "Ballarat Central VIC 3350",
    "state": "VIC",
    "rating": 4.9,
    "reviews": 39,
    "lat": -37.5629306,
    "lng": 143.8614168,
    "place_id": "ChIJ--TEuv5F0WoRgEd13Xs0n8Q",
    "maps_url": "https://www.google.com/maps/place/?q=place_id:ChIJ--TEuv5F0WoRgEd13Xs0n8Q"
  },
  {
    "name": "Ballarat massage near me",
    "address": "85A Bridge Mall, Bakery Hill VIC 3350, Australia",
    "suburb": "Bakery Hill VIC 3350",
    "state": "VIC",
    "rating": 4.6,
    "reviews": 15,
    "lat": -37.5625595,
    "lng": 143.8640981,
    "place_id": "ChIJZ7TXXaZF0WoRy9J9NaFXSik",
    "maps_url": "https://www.google.com/maps/place/?q=place_id:ChIJZ7TXXaZF0WoRy9J9NaFXSik"
  },
  {
    "name": "Thai Remedial Massage Ballarat",
    "address": "13d/502 Howitt Street, Ballarat North VIC 3350, Australia",
    "suburb": "Ballarat North VIC 3350",
    "state": "VIC",
    "rating": 4.9,
    "reviews": 97,
    "lat": -37.5426622,
    "lng": 143.8575106,
    "place_id": "ChIJb_-Ea2Ba0WoRIKPlthgWbzk",
    "maps_url": "https://www.google.com/maps/place/?q=place_id:ChIJb_-Ea2Ba0WoRIKPlthgWbzk"
  },
  {
    "name": "Healicorp Massage and Bodywork (HICAP available)",
    "address": "202B Sturt St, Ballarat Central VIC 3350, Australia",
    "suburb": "Ballarat Central VIC 3350",
    "state": "VIC",
    "rating": 5,
    "reviews": 102,
    "lat": -37.5615791,
    "lng": 143.8573477,
    "place_id": "ChIJh-_40TRZ12oRU7AsXmbnuEg",
    "maps_url": "https://www.google.com/maps/place/?q=place_id:ChIJh-_40TRZ12oRU7AsXmbnuEg"
  },
  {
    "name": "Leon's Chinese Traditional Massage",
    "address": "25 Little Bridge St, Ballarat Central VIC 3350, Australia",
    "suburb": "Ballarat Central VIC 3350",
    "state": "VIC",
    "rating": 4.7,
    "reviews": 149,
    "lat": -37.5629604,
    "lng": 143.8616798,
    "place_id": "ChIJHcjlyvhE0WoR8GStEfJXZq0",
    "maps_url": "https://www.google.com/maps/place/?q=place_id:ChIJHcjlyvhE0WoR8GStEfJXZq0"
  },
  {
    "name": "Ballarat Relaxation Massage",
    "address": "418 Sturt St, Ballarat Central VIC 3350, Australia",
    "suburb": "Ballarat Central VIC 3350",
    "state": "VIC",
    "rating": 4.6,
    "reviews": 30,
    "lat": -37.5611425,
    "lng": 143.8542961,
    "place_id": "ChIJCW5UGftF0WoRtPJ2mj_ybkQ",
    "maps_url": "https://www.google.com/maps/place/?q=place_id:ChIJCW5UGftF0WoRtPJ2mj_ybkQ"
  },
  {
    "name": "Ballarat Muscular Clinic",
    "address": "414 Dawson St S, Ballarat Central VIC 3350, Australia",
    "suburb": "Ballarat Central VIC 3350",
    "state": "VIC",
    "rating": 4.9,
    "reviews": 121,
    "lat": -37.5709802,
    "lng": 143.8510075,
    "place_id": "ChIJi1udHuRF0WoRAPpUYUhlwlA",
    "maps_url": "https://www.google.com/maps/place/?q=place_id:ChIJi1udHuRF0WoRAPpUYUhlwlA"
  },
  {
    "name": "Van Lanna Thai Massage Ballarat",
    "address": "449 Doveton St N, Soldiers Hill VIC 3350, Australia",
    "suburb": "Soldiers Hill VIC 3350",
    "state": "VIC",
    "rating": 5,
    "reviews": 48,
    "lat": -37.5510501,
    "lng": 143.8565348,
    "place_id": "ChIJC_jSZGpF0WoRJMn2j7WFHk8",
    "maps_url": "https://www.google.com/maps/place/?q=place_id:ChIJC_jSZGpF0WoRJMn2j7WFHk8"
  },
  {
    "name": "Cindy House massage",
    "address": "5 Ronald St, Ballarat Central VIC 3350, Australia",
    "suburb": "Ballarat Central VIC 3350",
    "state": "VIC",
    "rating": 5,
    "reviews": 8,
    "lat": -37.5509126,
    "lng": 143.8518217,
    "place_id": "ChIJKTzJOj1F0WoRghdR9_6IQyc",
    "maps_url": "https://www.google.com/maps/place/?q=place_id:ChIJKTzJOj1F0WoRghdR9_6IQyc"
  },
  {
    "name": "Why Knot Massage",
    "address": "15 Dawson St S, Ballarat Central VIC 3350, Australia",
    "suburb": "Ballarat Central VIC 3350",
    "state": "VIC",
    "rating": 4.8,
    "reviews": 41,
    "lat": -37.5630988,
    "lng": 143.8533628,
    "place_id": "ChIJ34OY1vZE0WoR5xhsgo0YobM",
    "maps_url": "https://www.google.com/maps/place/?q=place_id:ChIJ34OY1vZE0WoR5xhsgo0YobM"
  },
  {
    "name": "Bellis Massage Ballarat (HICAPS available)",
    "address": "2 Drummond St S, Ballarat Central VIC 3350, Australia",
    "suburb": "Ballarat Central VIC 3350",
    "state": "VIC",
    "rating": 4.1,
    "reviews": 53,
    "lat": -37.561295,
    "lng": 143.8470932,
    "place_id": "ChIJJyi74D9F0WoROndWU3_oBy0",
    "maps_url": "https://www.google.com/maps/place/?q=place_id:ChIJJyi74D9F0WoROndWU3_oBy0"
  },
  {
    "name": "Tuk's Thai Massage - Ballarat",
    "address": "513 Ascot St S, Redan VIC 3350, Australia",
    "suburb": "Redan VIC 3350",
    "state": "VIC",
    "rating": 4.9,
    "reviews": 89,
    "lat": -37.5722059,
    "lng": 143.8427865,
    "place_id": "ChIJGxpVEB1F0WoRahNv2h9wLLU",
    "maps_url": "https://www.google.com/maps/place/?q=place_id:ChIJGxpVEB1F0WoRahNv2h9wLLU"
  },
  {
    "name": "Banyan Tree Thai Massage Ballarat",
    "address": "6 Little Bridge St, Ballarat Central VIC 3350, Australia",
    "suburb": "Ballarat Central VIC 3350",
    "state": "VIC",
    "rating": 4.7,
    "reviews": 91,
    "lat": -37.563092,
    "lng": 143.860892,
    "place_id": "ChIJu9XZxPhE0WoRUdhk99gSwck",
    "maps_url": "https://www.google.com/maps/place/?q=place_id:ChIJu9XZxPhE0WoRUdhk99gSwck"
  },
  {
    "name": "Sky Massage",
    "address": "302 Doveton St N, Soldiers Hill VIC 3350, Australia",
    "suburb": "Soldiers Hill VIC 3350",
    "state": "VIC",
    "rating": 4.2,
    "reviews": 18,
    "lat": -37.55431799999999,
    "lng": 143.8565289,
    "place_id": "ChIJPUy2KSlF0WoRKqeiO0bHhv0",
    "maps_url": "https://www.google.com/maps/place/?q=place_id:ChIJPUy2KSlF0WoRKqeiO0bHhv0"
  },
  {
    "name": "Ballarat Wellness Centre and Salt Rooms",
    "address": "242 Main Rd, Golden Point VIC 3350, Australia",
    "suburb": "Golden Point VIC 3350",
    "state": "VIC",
    "rating": 4.7,
    "reviews": 70,
    "lat": -37.5697884,
    "lng": 143.8702542,
    "place_id": "ChIJz7FH0gNF0WoR58XMIkZyEI0",
    "maps_url": "https://www.google.com/maps/place/?q=place_id:ChIJz7FH0gNF0WoR58XMIkZyEI0"
  },
  {
    "name": "Rose Harbor Massage Ballarat - Relax Massage, 按摩",
    "address": "6 Armstrong St N, Ballarat Central VIC 3350, Australia",
    "suburb": "Ballarat Central VIC 3350",
    "state": "VIC",
    "rating": 4.2,
    "reviews": 5,
    "lat": -37.561179,
    "lng": 143.856665,
    "place_id": "ChIJExLeZDtF0WoR8COD67v8e7A",
    "maps_url": "https://www.google.com/maps/place/?q=place_id:ChIJExLeZDtF0WoR8COD67v8e7A"
  },
  {
    "name": "Balance Muscular Clinic",
    "address": "101 Rubicon St, Sebastopol VIC 3356, Australia",
    "suburb": "Sebastopol VIC 3356",
    "state": "VIC",
    "rating": 4.9,
    "reviews": 75,
    "lat": -37.5824264,
    "lng": 143.8403254,
    "place_id": "ChIJC_-2GkJd1moRyrqSOgEAUAI",
    "maps_url": "https://www.google.com/maps/place/?q=place_id:ChIJC_-2GkJd1moRyrqSOgEAUAI"
  },
  {
    "name": "OI's Thaimassage",
    "address": "413 Dawson St S, Ballarat Central VIC 3350, Australia",
    "suburb": "Ballarat Central VIC 3350",
    "state": "VIC",
    "rating": 5,
    "reviews": 114,
    "lat": -37.5708283,
    "lng": 143.851888,
    "place_id": "ChIJhQWKrZqo_CsRnKGdlSwdRRU",
    "maps_url": "https://www.google.com/maps/place/?q=place_id:ChIJhQWKrZqo_CsRnKGdlSwdRRU"
  },
  {
    "name": "Ballarat Massage Center",
    "address": "626 Drummond St S, Redan VIC 3350, Australia",
    "suburb": "Redan VIC 3350",
    "state": "VIC",
    "rating": 2.6,
    "reviews": 8,
    "lat": -37.5752692,
    "lng": 143.8445408,
    "place_id": "ChIJcVmKqmNF0WoRTP_IBUe_-_o",
    "maps_url": "https://www.google.com/maps/place/?q=place_id:ChIJcVmKqmNF0WoRTP_IBUe_-_o"
  },
  {
    "name": "Massage Balla",
    "address": "6 Bridge Mall, Ballarat Central VIC 3350, Australia",
    "suburb": "Ballarat Central VIC 3350",
    "state": "VIC",
    "rating": 5,
    "reviews": 2,
    "lat": -37.562592,
    "lng": 143.860998,
    "place_id": "ChIJYyy774hF0WoRedRPQoHX0Oo",
    "maps_url": "https://www.google.com/maps/place/?q=place_id:ChIJYyy774hF0WoRedRPQoHX0Oo"
  },
  {
    "name": "Balinese Massage Bendigo",
    "address": "20 Carpenter St, Kangaroo Flat VIC 3555, Australia",
    "suburb": "Kangaroo Flat VIC 3555",
    "state": "VIC",
    "rating": 4.9,
    "reviews": 173,
    "lat": -36.7971587,
    "lng": 144.242068,
    "place_id": "ChIJB5mAiotR12oRfpxEPRqv-tU",
    "maps_url": "https://www.google.com/maps/place/?q=place_id:ChIJB5mAiotR12oRfpxEPRqv-tU"
  },
  {
    "name": "Paragon Therapeutic Massage Clinic -Bendigo",
    "address": "24 Chapel St, Bendigo VIC 3550, Australia",
    "suburb": "Bendigo VIC 3550",
    "state": "VIC",
    "rating": 5,
    "reviews": 75,
    "lat": -36.7576113,
    "lng": 144.2870205,
    "place_id": "ChIJGRAYjxNZ12oR6nSWXPtIL-s",
    "maps_url": "https://www.google.com/maps/place/?q=place_id:ChIJGRAYjxNZ12oR6nSWXPtIL-s"
  },
  {
    "name": "The Massage Shop Bendigo",
    "address": "Unit 3/11 Lowndes St, Kennington VIC 3550, Australia",
    "suburb": "Kennington VIC 3550",
    "state": "VIC",
    "rating": 5,
    "reviews": 108,
    "lat": -36.7648988,
    "lng": 144.2981792,
    "place_id": "ChIJI2zlJ-pZ12oRPkGpTERKsfU",
    "maps_url": "https://www.google.com/maps/place/?q=place_id:ChIJI2zlJ-pZ12oRPkGpTERKsfU"
  },
  {
    "name": "Lush Culture Skin & Body",
    "address": "Suite 3/379 Hargreaves St, Bendigo VIC 3550, Australia",
    "suburb": "Bendigo VIC 3550",
    "state": "VIC",
    "rating": 4.9,
    "reviews": 110,
    "lat": -36.7616865,
    "lng": 144.2785158,
    "place_id": "ChIJc_k_itJZ12oRn3X2g1950lY",
    "maps_url": "https://www.google.com/maps/place/?q=place_id:ChIJc_k_itJZ12oRn3X2g1950lY"
  },
  {
    "name": "Refresh Day Spa & Remedial Clinic Bendigo",
    "address": "90 Garsed St, Bendigo VIC 3550, Australia",
    "suburb": "Bendigo VIC 3550",
    "state": "VIC",
    "rating": 4.8,
    "reviews": 274,
    "lat": -36.7660274,
    "lng": 144.2778451,
    "place_id": "ChIJJ4PshfNZ12oRK7vgG8Hsce8",
    "maps_url": "https://www.google.com/maps/place/?q=place_id:ChIJJ4PshfNZ12oRK7vgG8Hsce8"
  },
  {
    "name": "Ancient Art Massage -deep tissue, relaxation , remedial, reflexology, cupping,",
    "address": "Shop17, Killians Walk, Bendigo VIC 3550, Australia",
    "suburb": "Killians Walk",
    "state": "VIC",
    "rating": 4.7,
    "reviews": 118,
    "lat": -36.7604873,
    "lng": 144.2809179,
    "place_id": "ChIJK2UKKu1Z12oRVGSLmdCJ88Y",
    "maps_url": "https://www.google.com/maps/place/?q=place_id:ChIJK2UKKu1Z12oRVGSLmdCJ88Y"
  },
  {
    "name": "Lucky Heavenly Massage (Kangaroo Flat)",
    "address": "19 High St, Kangaroo Flat VIC 3555, Australia",
    "suburb": "Kangaroo Flat VIC 3555",
    "state": "VIC",
    "rating": 4.8,
    "reviews": 19,
    "lat": -36.7876796,
    "lng": 144.2460688,
    "place_id": "ChIJFy_GGJZR12oRv9HKL4C3XPI",
    "maps_url": "https://www.google.com/maps/place/?q=place_id:ChIJFy_GGJZR12oRv9HKL4C3XPI"
  },
  {
    "name": "Golden Square Remedial Massage",
    "address": "295B High St, Golden Square VIC 3555, Australia",
    "suburb": "Golden Square VIC 3555",
    "state": "VIC",
    "rating": 4.9,
    "reviews": 18,
    "lat": -36.7710069,
    "lng": 144.2621484,
    "place_id": "ChIJowJk6HFb12oRAgAmkNe4Jd8",
    "maps_url": "https://www.google.com/maps/place/?q=place_id:ChIJowJk6HFb12oRAgAmkNe4Jd8"
  },
  {
    "name": "Vitality Massage",
    "address": "Level 1/31B Killians Walk, Bendigo VIC 3550, Australia",
    "suburb": "Bendigo VIC 3550",
    "state": "VIC",
    "rating": 5,
    "reviews": 28,
    "lat": -36.7606296,
    "lng": 144.2812122,
    "place_id": "ChIJj3jqohdZ12oRLBvyxqzOjWo",
    "maps_url": "https://www.google.com/maps/place/?q=place_id:ChIJj3jqohdZ12oRLBvyxqzOjWo"
  },
  {
    "name": "iCare Holistic Health Center (Bendigo)",
    "address": "13 Mitchell St, Bendigo VIC 3550, Australia",
    "suburb": "Bendigo VIC 3550",
    "state": "VIC",
    "rating": 5,
    "reviews": 35,
    "lat": -36.7598621,
    "lng": 144.2792436,
    "place_id": "ChIJTRt2PwNZ12oRDgRkeP7hH54",
    "maps_url": "https://www.google.com/maps/place/?q=place_id:ChIJTRt2PwNZ12oRDgRkeP7hH54"
  },
  {
    "name": "Sue Myotherapy lifesaver",
    "address": "7 Miller St, Flora Hill VIC 3550, Australia",
    "suburb": "Flora Hill VIC 3550",
    "state": "VIC",
    "rating": 5,
    "reviews": 93,
    "lat": -36.7694772,
    "lng": 144.2915435,
    "place_id": "ChIJn-Z2Z1ZZ12oR3vrHl90lzJw",
    "maps_url": "https://www.google.com/maps/place/?q=place_id:ChIJn-Z2Z1ZZ12oR3vrHl90lzJw"
  },
  {
    "name": "Qing´s Traditional Chinese Massage",
    "address": "36 Mitchell St, Bendigo VIC 3550, Australia",
    "suburb": "Bendigo VIC 3550",
    "state": "VIC",
    "rating": 4.8,
    "reviews": 52,
    "lat": -36.7610017,
    "lng": 144.2797712,
    "place_id": "ChIJFYEP_exZ12oRXYnfLm9ZV1k",
    "maps_url": "https://www.google.com/maps/place/?q=place_id:ChIJFYEP_exZ12oRXYnfLm9ZV1k"
  },
  {
    "name": "Bendigo Healthy Massage",
    "address": "459 High St, Golden Square VIC 3555, Australia",
    "suburb": "Golden Square VIC 3555",
    "state": "VIC",
    "rating": 4,
    "reviews": 10,
    "lat": -36.7807257,
    "lng": 144.2499006,
    "place_id": "ChIJBeYOc5hQ12oRiuwkH2qLdv0",
    "maps_url": "https://www.google.com/maps/place/?q=place_id:ChIJBeYOc5hQ12oRiuwkH2qLdv0"
  },
  {
    "name": "The Back Man - Massage Specialist",
    "address": "Thrive Fit Complex, 28 Abel St, Golden Square VIC 3555, Australia",
    "suburb": "28 Abel St",
    "state": "VIC",
    "rating": 4.8,
    "reviews": 50,
    "lat": -36.7718857,
    "lng": 144.2714692,
    "place_id": "ChIJ6X21SRVa12oRZKk-xYqjJtE",
    "maps_url": "https://www.google.com/maps/place/?q=place_id:ChIJ6X21SRVa12oRZKk-xYqjJtE"
  },
  {
    "name": "Red Rose Massage Bendigo - Relax Massage, 按摩",
    "address": "57 Garsed St, Bendigo VIC 3550, Australia",
    "suburb": "Bendigo VIC 3550",
    "state": "VIC",
    "rating": null,
    "reviews": 0,
    "lat": -36.765118,
    "lng": 144.2797581,
    "place_id": "ChIJw4s_qf5Z12oRheYrcnUQ2oo",
    "maps_url": "https://www.google.com/maps/place/?q=place_id:ChIJw4s_qf5Z12oRheYrcnUQ2oo"
  },
  {
    "name": "A massage shop",
    "address": "15 High St, Kyneton VIC 3444, Australia",
    "suburb": "Kyneton VIC 3444",
    "state": "VIC",
    "rating": 5,
    "reviews": 1,
    "lat": -37.249295,
    "lng": 144.4539676,
    "place_id": "ChIJY2bY0rRZ12oRhPJ2f5BowIQ",
    "maps_url": "https://www.google.com/maps/place/?q=place_id:ChIJY2bY0rRZ12oRhPJ2f5BowIQ"
  },
  {
    "name": "Norwegian Massage",
    "address": "57 Uley St, Bendigo VIC 3550, Australia",
    "suburb": "Bendigo VIC 3550",
    "state": "VIC",
    "rating": 4.6,
    "reviews": 9,
    "lat": -36.7478112,
    "lng": 144.2868924,
    "place_id": "ChIJA79M1-RZ12oR104d55PYdrk",
    "maps_url": "https://www.google.com/maps/place/?q=place_id:ChIJA79M1-RZ12oR104d55PYdrk"
  },
  {
    "name": "[newshop] Genie Massage Bendigo - full body massage Bendigo",
    "address": "35 Mitchell St, Bendigo VIC 3550, Australia",
    "suburb": "Bendigo VIC 3550",
    "state": "VIC",
    "rating": 3.9,
    "reviews": 15,
    "lat": -36.7606248,
    "lng": 144.2799179,
    "place_id": "ChIJ3ZdFmkRZ12oRdWoLdBKXwWs",
    "maps_url": "https://www.google.com/maps/place/?q=place_id:ChIJ3ZdFmkRZ12oRdWoLdBKXwWs"
  },
  {
    "name": "Golden High Massage Kangaroo Flat Bendigo",
    "address": "10 High St, Kangaroo Flat VIC 3555, Australia",
    "suburb": "Kangaroo Flat VIC 3555",
    "state": "VIC",
    "rating": 4.9,
    "reviews": 8,
    "lat": -36.7860462,
    "lng": 144.2460262,
    "place_id": "ChIJE7qaMCdR12oRohy7gADl4Gk",
    "maps_url": "https://www.google.com/maps/place/?q=place_id:ChIJE7qaMCdR12oRohy7gADl4Gk"
  },
  {
    "name": "Massage Therapy Kangaroo Flat",
    "address": "134 High St, Kangaroo Flat VIC 3555, Australia",
    "suburb": "Kangaroo Flat VIC 3555",
    "state": "VIC",
    "rating": 4.3,
    "reviews": 32,
    "lat": -36.7961904,
    "lng": 144.2438287,
    "place_id": "ChIJvXwaRM1R12oRDZX__PHzS0c",
    "maps_url": "https://www.google.com/maps/place/?q=place_id:ChIJvXwaRM1R12oRDZX__PHzS0c"
  },
  {
    "name": "Knead Massage Brisbane",
    "address": "Lev 3/233 Albert St, Brisbane City QLD 4000, Australia",
    "suburb": "Brisbane City QLD 4000",
    "state": "QLD",
    "rating": 4.9,
    "reviews": 936,
    "lat": -27.4690782,
    "lng": 153.0250196,
    "place_id": "ChIJE08FxARakWsR4bviBZKgQ_U",
    "maps_url": "https://www.google.com/maps/place/?q=place_id:ChIJE08FxARakWsR4bviBZKgQ_U"
  },
  {
    "name": "WADE THE MASSAGE GUY & TEAM - Specialists in Brisbane Remedial Massage, Sports Massage and Deep Tissue Massage",
    "address": "141 Queen St, Brisbane City QLD 4000, Australia",
    "suburb": "Brisbane City QLD 4000",
    "state": "QLD",
    "rating": 5,
    "reviews": 608,
    "lat": -27.4697167,
    "lng": 153.025545,
    "place_id": "ChIJA452Px1akWsR3SsFS0i09rM",
    "maps_url": "https://www.google.com/maps/place/?q=place_id:ChIJA452Px1akWsR3SsFS0i09rM"
  },
  {
    "name": "Sophia O’farrell Brisbane Massage",
    "address": "Shop2/75 Hardgrave Rd, West End QLD 4101, Australia",
    "suburb": "West End QLD 4101",
    "state": "QLD",
    "rating": 4.9,
    "reviews": 367,
    "lat": -27.4825849,
    "lng": 153.0066657,
    "place_id": "ChIJX3hipApRkWsRPsC2Z0ZuJN4",
    "maps_url": "https://www.google.com/maps/place/?q=place_id:ChIJX3hipApRkWsRPsC2Z0ZuJN4"
  },
  {
    "name": "Serenity Wellness Remedial Thai Massage Brisbane",
    "address": "shop 3/48 Sherwood Rd, Toowong QLD 4066, Australia",
    "suburb": "Toowong QLD 4066",
    "state": "QLD",
    "rating": 4.9,
    "reviews": 284,
    "lat": -27.4854845,
    "lng": 152.990812,
    "place_id": "ChIJI5aInjpRkWsR_977kvRA0hU",
    "maps_url": "https://www.google.com/maps/place/?q=place_id:ChIJI5aInjpRkWsR_977kvRA0hU"
  },
  {
    "name": "Aroya Thai Massage & Spa Brisbane City (Professional Massage)",
    "address": "129 Margaret St, Brisbane City QLD 4000, Australia",
    "suburb": "Brisbane City QLD 4000",
    "state": "QLD",
    "rating": 4.8,
    "reviews": 348,
    "lat": -27.4731026,
    "lng": 153.0278956,
    "place_id": "ChIJdavBzXhbkWsRAwUOHD7PkMc",
    "maps_url": "https://www.google.com/maps/place/?q=place_id:ChIJdavBzXhbkWsRAwUOHD7PkMc"
  },
  {
    "name": "Urban Thai Massage & Spa",
    "address": "Level 1/161-163 Elizabeth St, Brisbane City QLD 4000, Australia",
    "suburb": "Brisbane City QLD 4000",
    "state": "QLD",
    "rating": 4.6,
    "reviews": 569,
    "lat": -27.4700953,
    "lng": 153.0268349,
    "place_id": "ChIJhcRZ3ulbkWsRIxXJHbvCCbs",
    "maps_url": "https://www.google.com/maps/place/?q=place_id:ChIJhcRZ3ulbkWsRIxXJHbvCCbs"
  },
  {
    "name": "Tantara Thai Massage & Spa Brisbane City",
    "address": "Pullman Brisbane King George Square, 2 Roma St, Brisbane City QLD 4000, Australia",
    "suburb": "2 Roma St",
    "state": "QLD",
    "rating": 4.8,
    "reviews": 284,
    "lat": -27.4681871,
    "lng": 153.0230689,
    "place_id": "ChIJgTmBhgNakWsRaTZE-_t0Lsg",
    "maps_url": "https://www.google.com/maps/place/?q=place_id:ChIJgTmBhgNakWsRaTZE-_t0Lsg"
  },
  {
    "name": "Jan Thong Thai Spa ( CBD Branch )",
    "address": "Level 2/134 Adelaide St, Brisbane City QLD 4000, Australia",
    "suburb": "Brisbane City QLD 4000",
    "state": "QLD",
    "rating": 4.8,
    "reviews": 201,
    "lat": -27.4678366,
    "lng": 153.0253139,
    "place_id": "ChIJt-5h1s5bkWsRug5TMlswWNM",
    "maps_url": "https://www.google.com/maps/place/?q=place_id:ChIJt-5h1s5bkWsRug5TMlswWNM"
  },
  {
    "name": "Chi Link Acupuncture and Massage Brisbane City - Adelaide Street",
    "address": "59 Adelaide St, Brisbane City QLD 4000, Australia",
    "suburb": "Brisbane City QLD 4000",
    "state": "QLD",
    "rating": 4.9,
    "reviews": 733,
    "lat": -27.4695247,
    "lng": 153.0236307,
    "place_id": "ChIJZfiTyJJbkWsR93kdZI6LvvQ",
    "maps_url": "https://www.google.com/maps/place/?q=place_id:ChIJZfiTyJJbkWsR93kdZI6LvvQ"
  },
  {
    "name": "Aeri Massage",
    "address": "uptown center, Level A, Shop 005/91 Queen St, Brisbane City QLD 4000, Australia",
    "suburb": "Level A",
    "state": "QLD",
    "rating": 4.8,
    "reviews": 246,
    "lat": -27.4706069,
    "lng": 153.0248769,
    "place_id": "ChIJp4hTO7hbkWsRRSDjCZp4Sr4",
    "maps_url": "https://www.google.com/maps/place/?q=place_id:ChIJp4hTO7hbkWsRRSDjCZp4Sr4"
  },
  {
    "name": "Thai Village Massage and Spa Brisbane",
    "address": "291 Adelaide St, Brisbane City QLD 4000, Australia",
    "suburb": "Brisbane City QLD 4000",
    "state": "QLD",
    "rating": 4.6,
    "reviews": 229,
    "lat": -27.4661059,
    "lng": 153.0282393,
    "place_id": "ChIJ8T65N-9bkWsR9j_sb2O8XEo",
    "maps_url": "https://www.google.com/maps/place/?q=place_id:ChIJ8T65N-9bkWsR9j_sb2O8XEo"
  },
  {
    "name": "Le Spa Massage Academy & Remedial Massage",
    "address": "8/31 Black St, Milton QLD 4064, Australia",
    "suburb": "Milton QLD 4064",
    "state": "QLD",
    "rating": 5,
    "reviews": 358,
    "lat": -27.4666467,
    "lng": 153.0068937,
    "place_id": "ChIJLXxe_ilRkWsRy2YukD8c_vo",
    "maps_url": "https://www.google.com/maps/place/?q=place_id:ChIJLXxe_ilRkWsRy2YukD8c_vo"
  },
  {
    "name": "JLW Remedial Therapies (Oncology Massage, Lymphatic Drainage, Facial Sculpting, Indian Head Massage)",
    "address": "Dockside, Moars Room, 44 Ferry St, Kangaroo Point QLD 4169, Australia",
    "suburb": "Moars Room",
    "state": "QLD",
    "rating": 5,
    "reviews": 119,
    "lat": -27.4721043,
    "lng": 153.0378985,
    "place_id": "ChIJ0UCDNuBbkWsRgxmP3q3VnOY",
    "maps_url": "https://www.google.com/maps/place/?q=place_id:ChIJ0UCDNuBbkWsRgxmP3q3VnOY"
  },
  {
    "name": "Nia's Massage",
    "address": "291 Ipswich Rd, Annerley QLD 4103, Australia",
    "suburb": "Annerley QLD 4103",
    "state": "QLD",
    "rating": 5,
    "reviews": 493,
    "lat": -27.5025695,
    "lng": 153.0341363,
    "place_id": "ChIJvTjPxmZakWsRjeSG1FyTpnU",
    "maps_url": "https://www.google.com/maps/place/?q=place_id:ChIJvTjPxmZakWsRjeSG1FyTpnU"
  },
  {
    "name": "Brisbane Physio Massage",
    "address": "108 Margaret St, Brisbane City QLD 4000, Australia",
    "suburb": "Brisbane City QLD 4000",
    "state": "QLD",
    "rating": 5,
    "reviews": 38,
    "lat": -27.4733018,
    "lng": 153.0272099,
    "place_id": "ChIJO93zkJ9bkWsRwaoPO_ntPMA",
    "maps_url": "https://www.google.com/maps/place/?q=place_id:ChIJO93zkJ9bkWsRwaoPO_ntPMA"
  },
  {
    "name": "Miracle Workers Massage & Holistic Therapies",
    "address": "37 Boundary St, South Brisbane QLD 4101, Australia",
    "suburb": "South Brisbane QLD 4101",
    "state": "QLD",
    "rating": 4.9,
    "reviews": 463,
    "lat": -27.4738753,
    "lng": 153.0130812,
    "place_id": "ChIJbUCF66BQkWsRVXIWzabb-j4",
    "maps_url": "https://www.google.com/maps/place/?q=place_id:ChIJbUCF66BQkWsRVXIWzabb-j4"
  },
  {
    "name": "Natural massage",
    "address": "165 suite 5 Melbourne St, South Brisbane QLD 4101, Australia",
    "suburb": "South Brisbane QLD 4101",
    "state": "QLD",
    "rating": 4.9,
    "reviews": 176,
    "lat": -27.4760026,
    "lng": 153.014135,
    "place_id": "ChIJyfmdDBZRkWsR0anlRIeKZjA",
    "maps_url": "https://www.google.com/maps/place/?q=place_id:ChIJyfmdDBZRkWsR0anlRIeKZjA"
  },
  {
    "name": "Royal Paradise Thai Massage & Remedial",
    "address": "2/2 Park Rd, Milton QLD 4064, Australia",
    "suburb": "Milton QLD 4064",
    "state": "QLD",
    "rating": 4.9,
    "reviews": 378,
    "lat": -27.469453,
    "lng": 153.004259,
    "place_id": "ChIJuR1VbqVQkWsRVl8SbE7Vsh8",
    "maps_url": "https://www.google.com/maps/place/?q=place_id:ChIJuR1VbqVQkWsRVl8SbE7Vsh8"
  },
  {
    "name": "Remedial Lab Massage & Spa",
    "address": "15 Manning St, South Brisbane QLD 4101, Australia",
    "suburb": "South Brisbane QLD 4101",
    "state": "QLD",
    "rating": 4.9,
    "reviews": 62,
    "lat": -27.4758165,
    "lng": 153.013884,
    "place_id": "ChIJsXdrRQ1RkWsRvYmCjEc3HFk",
    "maps_url": "https://www.google.com/maps/place/?q=place_id:ChIJsXdrRQ1RkWsRvYmCjEc3HFk"
  },
  {
    "name": "North Brisbane Remedial Massage",
    "address": "65 Newman Rd, Wavell Heights QLD 4012, Australia",
    "suburb": "Wavell Heights QLD 4012",
    "state": "QLD",
    "rating": 5,
    "reviews": 127,
    "lat": -27.3833683,
    "lng": 153.0455027,
    "place_id": "ChIJA-MgNuFZkWsR6JzVmKl_9Vo",
    "maps_url": "https://www.google.com/maps/place/?q=place_id:ChIJA-MgNuFZkWsR6JzVmKl_9Vo"
  },
  {
    "name": "Thai Fusion Spa Gold Coast",
    "address": "Shop 10/3184 Surfers Paradise Blvd, Surfers Paradise QLD 4217, Australia",
    "suburb": "Surfers Paradise QLD 4217",
    "state": "QLD",
    "rating": 5,
    "reviews": 1122,
    "lat": -28.001084,
    "lng": 153.4277537,
    "place_id": "ChIJw1rcIfIFkWsRKBrg-hBIwLc",
    "maps_url": "https://www.google.com/maps/place/?q=place_id:ChIJw1rcIfIFkWsRKBrg-hBIwLc"
  },
  {
    "name": "Retreat Massage & Wellness",
    "address": "Shop 9.03, 11 Brolga Ave, Brickworks Centre, 107 Ferry Rd, Southport QLD 4215, Australia",
    "suburb": "11 Brolga Ave",
    "state": "QLD",
    "rating": 4.9,
    "reviews": 361,
    "lat": -27.9808367,
    "lng": 153.4091982,
    "place_id": "ChIJI5tWRGIFkWsR3uHrdV2ynM8",
    "maps_url": "https://www.google.com/maps/place/?q=place_id:ChIJI5tWRGIFkWsR3uHrdV2ynM8"
  },
  {
    "name": "Remedial KaHuna Massage Gold Coast Relaxation Deep Tissue & Kinesiology",
    "address": "Unit 23 26 Nikau Cres Nerang QLD 4211, Ashmore QLD 4214, Australia",
    "suburb": "Ashmore QLD 4214",
    "state": "QLD",
    "rating": 5,
    "reviews": 189,
    "lat": -28.0048981,
    "lng": 153.3162714,
    "place_id": "ChIJrYoJzvodkWsRD8plYkU3h-I",
    "maps_url": "https://www.google.com/maps/place/?q=place_id:ChIJrYoJzvodkWsRD8plYkU3h-I"
  },
  {
    "name": "Massage By Laura",
    "address": "4/465 Oxley Dr, Runaway Bay QLD 4216, Australia",
    "suburb": "Runaway Bay QLD 4216",
    "state": "QLD",
    "rating": 5,
    "reviews": 98,
    "lat": -27.920777,
    "lng": 153.3875925,
    "place_id": "ChIJR6gKz2oPkWsRpc40rc6fqG4",
    "maps_url": "https://www.google.com/maps/place/?q=place_id:ChIJR6gKz2oPkWsRpc40rc6fqG4"
  },
  {
    "name": "Gold Coast Lymphatic Massage",
    "address": "Level 1/278 Ferry Rd, Southport QLD 4215, Australia",
    "suburb": "Southport QLD 4215",
    "state": "QLD",
    "rating": 5,
    "reviews": 26,
    "lat": -27.9929141,
    "lng": 153.4135338,
    "place_id": "ChIJoxt3bbgFkWsRLkyj_FCbAcU",
    "maps_url": "https://www.google.com/maps/place/?q=place_id:ChIJoxt3bbgFkWsRLkyj_FCbAcU"
  },
  {
    "name": "Herbal Massage (Surfers paradise Gold Coast)",
    "address": "Chevron Renaissance Shopping Centre, 28/3240 Surfers Paradise Blvd, Surfers Paradise QLD 4217, Australia",
    "suburb": "28/3240 Surfers Paradise Blvd",
    "state": "QLD",
    "rating": 4.7,
    "reviews": 554,
    "lat": -27.9999935,
    "lng": 153.4282069,
    "place_id": "ChIJB1d8cA8FkWsRkWrYzXR152s",
    "maps_url": "https://www.google.com/maps/place/?q=place_id:ChIJB1d8cA8FkWsRkWrYzXR152s"
  },
  {
    "name": "Virtue Massage - Massage Surfers Paradise, Gold Coast",
    "address": "3226 Surfers Paradise Blvd, Surfers Paradise QLD 4217, Australia",
    "suburb": "Surfers Paradise QLD 4217",
    "state": "QLD",
    "rating": 4.6,
    "reviews": 290,
    "lat": -28.0003569,
    "lng": 153.4282379,
    "place_id": "ChIJYUeUO6IFkWsRTl875iO6vEs",
    "maps_url": "https://www.google.com/maps/place/?q=place_id:ChIJYUeUO6IFkWsRTl875iO6vEs"
  },
  {
    "name": "Pain Relief Massage Clinic Gold Coast",
    "address": "192 Brisbane Rd, Arundel QLD 4214, Australia",
    "suburb": "Arundel QLD 4214",
    "state": "QLD",
    "rating": 5,
    "reviews": 172,
    "lat": -27.934075,
    "lng": 153.3870461,
    "place_id": "ChIJQ6gs6SsQkWsRRSd3dbrKJhg",
    "maps_url": "https://www.google.com/maps/place/?q=place_id:ChIJQ6gs6SsQkWsRRSd3dbrKJhg"
  },
  {
    "name": "Massage One GC",
    "address": "Goodlife Health Club, 2 Santa Maria Ct, Burleigh Waters QLD 4220, Australia",
    "suburb": "2 Santa Maria Ct",
    "state": "QLD",
    "rating": 4.8,
    "reviews": 180,
    "lat": -28.0745842,
    "lng": 153.4221403,
    "place_id": "ChIJNdi8OmQDkWsRxllFff9pfFM",
    "maps_url": "https://www.google.com/maps/place/?q=place_id:ChIJNdi8OmQDkWsRxllFff9pfFM"
  },
  {
    "name": "Healing Bay Massage",
    "address": "G53 Chevron Renaissance Shopping Center, 3240 Surfers Paradise Blvd, Surfers Paradise QLD 4217, Australia",
    "suburb": "3240 Surfers Paradise Blvd",
    "state": "QLD",
    "rating": 4.8,
    "reviews": 218,
    "lat": -27.9991632,
    "lng": 153.4283304,
    "place_id": "ChIJsVjcrV8FkWsRHSSC-i7KeEk",
    "maps_url": "https://www.google.com/maps/place/?q=place_id:ChIJsVjcrV8FkWsRHSSC-i7KeEk"
  },
  {
    "name": "Gold Coast Massage and Day Spa",
    "address": "10/127 Nerang St, Southport QLD 4215, Australia",
    "suburb": "Southport QLD 4215",
    "state": "QLD",
    "rating": 4.7,
    "reviews": 225,
    "lat": -27.9708263,
    "lng": 153.407247,
    "place_id": "ChIJxWcMAa8akWsRzcI-rWOQIKI",
    "maps_url": "https://www.google.com/maps/place/?q=place_id:ChIJxWcMAa8akWsRzcI-rWOQIKI"
  },
  {
    "name": "Taley Thai Massage",
    "address": "16 Young St, Southport QLD 4215, Australia",
    "suburb": "Southport QLD 4215",
    "state": "QLD",
    "rating": 4.9,
    "reviews": 119,
    "lat": -27.9694911,
    "lng": 153.413131,
    "place_id": "ChIJ4zF5EgAPkWsRdAmz9uUAhPI",
    "maps_url": "https://www.google.com/maps/place/?q=place_id:ChIJ4zF5EgAPkWsRdAmz9uUAhPI"
  },
  {
    "name": "Sawadee Thai Massage Surfers Paradise",
    "address": "Centrepoint Arcade, Shop 7/3290 Surfers Paradise Blvd, Surfers Paradise QLD 4217, Australia",
    "suburb": "Shop 7/3290 Surfers Paradise Blvd",
    "state": "QLD",
    "rating": 4.8,
    "reviews": 194,
    "lat": -27.9983206,
    "lng": 153.4282322,
    "place_id": "ChIJHdStXjwFkWsRQOHruZtaDm4",
    "maps_url": "https://www.google.com/maps/place/?q=place_id:ChIJHdStXjwFkWsRQOHruZtaDm4"
  },
  {
    "name": "Palmie Spa Southport",
    "address": "Shop 5, Upstairs, Level 1/5 Davenport St, Southport QLD 4215, Australia",
    "suburb": "Upstairs",
    "state": "QLD",
    "rating": 4.8,
    "reviews": 135,
    "lat": -27.9688214,
    "lng": 153.4134447,
    "place_id": "ChIJDXmetBQPkWsRgAXiR733S-4",
    "maps_url": "https://www.google.com/maps/place/?q=place_id:ChIJDXmetBQPkWsRgAXiR733S-4"
  },
  {
    "name": "BAAN PIM THAI MASSAGE GOLDCOAST",
    "address": "1/19 Young St, Southport QLD 4215, Australia",
    "suburb": "Southport QLD 4215",
    "state": "QLD",
    "rating": 4.9,
    "reviews": 60,
    "lat": -27.9693659,
    "lng": 153.4126878,
    "place_id": "ChIJS1IvZD4PkWsRdx-jkv-WhD8",
    "maps_url": "https://www.google.com/maps/place/?q=place_id:ChIJS1IvZD4PkWsRdx-jkv-WhD8"
  },
  {
    "name": "Feeling well massage",
    "address": "2709 Gold Coast Hwy, Broadbeach QLD 4218, Australia",
    "suburb": "Broadbeach QLD 4218",
    "state": "QLD",
    "rating": 4.9,
    "reviews": 223,
    "lat": -28.0287341,
    "lng": 153.4304577,
    "place_id": "ChIJ5_hjb9sFkWsRWrFpBhkfHk0",
    "maps_url": "https://www.google.com/maps/place/?q=place_id:ChIJ5_hjb9sFkWsRWrFpBhkfHk0"
  },
  {
    "name": "Robina Luxury Massage",
    "address": "Shop 110/137 Laver Dr, Robina QLD 4226, Australia",
    "suburb": "Robina QLD 4226",
    "state": "QLD",
    "rating": 4.9,
    "reviews": 52,
    "lat": -28.0717183,
    "lng": 153.3804686,
    "place_id": "ChIJMbO4dYMdkWsRO1zY1RoadDI",
    "maps_url": "https://www.google.com/maps/place/?q=place_id:ChIJMbO4dYMdkWsRO1zY1RoadDI"
  },
  {
    "name": "Holistic Massage & Stretch – FLEX & FLOW | Mermaid Beach Gold Coast",
    "address": "2/2570 Gold Coast Hwy, Mermaid Beach QLD 4218, Australia",
    "suburb": "Mermaid Beach QLD 4218",
    "state": "QLD",
    "rating": 5,
    "reviews": 21,
    "lat": -28.0387817,
    "lng": 153.4329538,
    "place_id": "ChIJ7VADKBQFkWsRNcoexc6x8lo",
    "maps_url": "https://www.google.com/maps/place/?q=place_id:ChIJ7VADKBQFkWsRNcoexc6x8lo"
  },
  {
    "name": "Fix My Muscles - Mermaid Beach",
    "address": "Level 1/2542 Gold Coast Hwy, Mermaid Beach QLD 4218, Australia",
    "suburb": "Mermaid Beach QLD 4218",
    "state": "QLD",
    "rating": 4.9,
    "reviews": 186,
    "lat": -28.0405694,
    "lng": 153.4334458,
    "place_id": "ChIJURtUaDYFkWsRqzaQ-_q0Fe4",
    "maps_url": "https://www.google.com/maps/place/?q=place_id:ChIJURtUaDYFkWsRqzaQ-_q0Fe4"
  },
  {
    "name": "Jenny Penfold Massage Therapy Mermaid beach, Gold Coast",
    "address": "123 Seagull Ave, Mermaid Beach QLD 4218, Australia",
    "suburb": "Mermaid Beach QLD 4218",
    "state": "QLD",
    "rating": 5,
    "reviews": 29,
    "lat": -28.0521545,
    "lng": 153.4392677,
    "place_id": "ChIJ408eUGIFkWsRdiolgLhkitk",
    "maps_url": "https://www.google.com/maps/place/?q=place_id:ChIJ408eUGIFkWsRdiolgLhkitk"
  },
  {
    "name": "Magic Massage & Acupuncture",
    "address": "Shop 116A/154-164 Horton Parade, Maroochydore QLD 4558, Australia",
    "suburb": "Maroochydore QLD 4558",
    "state": "QLD",
    "rating": 4.9,
    "reviews": 758,
    "lat": -26.6556247,
    "lng": 153.0892185,
    "place_id": "ChIJ64Kzv2B2k2sR0KJq8UHOOxs",
    "maps_url": "https://www.google.com/maps/place/?q=place_id:ChIJ64Kzv2B2k2sR0KJq8UHOOxs"
  },
  {
    "name": "Kokora Massage Therapy",
    "address": "Unit 4/1 South Sea Islander Way, Maroochydore QLD 4558, Australia",
    "suburb": "Maroochydore QLD 4558",
    "state": "QLD",
    "rating": 5,
    "reviews": 30,
    "lat": -26.6574534,
    "lng": 153.0909755,
    "place_id": "ChIJU8eirEl3k2sRrKehlZY0oQc",
    "maps_url": "https://www.google.com/maps/place/?q=place_id:ChIJU8eirEl3k2sRrKehlZY0oQc"
  },
  {
    "name": "Soul Healing Massage",
    "address": "10 Rosella La, Palmview QLD 4553, Australia",
    "suburb": "Palmview QLD 4553",
    "state": "QLD",
    "rating": 5,
    "reviews": 107,
    "lat": -26.7430737,
    "lng": 153.0363395,
    "place_id": "ChIJr5-KHZY_kWsR0tqALB9eZI8",
    "maps_url": "https://www.google.com/maps/place/?q=place_id:ChIJr5-KHZY_kWsR0tqALB9eZI8"
  },
  {
    "name": "Mooloolaba Osteopathy and Massage Clinic",
    "address": "77 Mooloolaba Espl, Mooloolaba QLD 4557, Australia",
    "suburb": "Mooloolaba QLD 4557",
    "state": "QLD",
    "rating": 4.9,
    "reviews": 271,
    "lat": -26.6793136,
    "lng": 153.118988,
    "place_id": "ChIJRYl_TOZ1k2sRfsDfm8orXSg",
    "maps_url": "https://www.google.com/maps/place/?q=place_id:ChIJRYl_TOZ1k2sRfsDfm8orXSg"
  },
  {
    "name": "Massage Philosophy - Maroochydore Sunshine Plaza",
    "address": "Shop 112B, 154/164 Horton Parade, Maroochydore QLD 4558, Australia",
    "suburb": "154/164 Horton Parade",
    "state": "QLD",
    "rating": 4.7,
    "reviews": 533,
    "lat": -26.6555079,
    "lng": 153.0884145,
    "place_id": "ChIJZwpbz2B2k2sRSIWb5sae0P8",
    "maps_url": "https://www.google.com/maps/place/?q=place_id:ChIJZwpbz2B2k2sRSIWb5sae0P8"
  },
  {
    "name": "Movement Massage Therapy",
    "address": "3/17 Main Dr, Warana QLD 4575, Australia",
    "suburb": "Warana QLD 4575",
    "state": "QLD",
    "rating": 5,
    "reviews": 85,
    "lat": -26.7304833,
    "lng": 153.1227073,
    "place_id": "ChIJj9lMHGxCpycRwSmGeneOw5Q",
    "maps_url": "https://www.google.com/maps/place/?q=place_id:ChIJj9lMHGxCpycRwSmGeneOw5Q"
  },
  {
    "name": "Vitality Massage Studio",
    "address": "9A Fairfax St, Sippy Downs QLD 4556, Australia",
    "suburb": "Sippy Downs QLD 4556",
    "state": "QLD",
    "rating": 5,
    "reviews": 37,
    "lat": -26.7130237,
    "lng": 153.0617149,
    "place_id": "ChIJgzk_cXKdk2sR5I2PcOR5CLI",
    "maps_url": "https://www.google.com/maps/place/?q=place_id:ChIJgzk_cXKdk2sR5I2PcOR5CLI"
  },
  {
    "name": "Salt Caves Mooloolaba",
    "address": "5/21 Smith St, Mooloolaba QLD 4557, Australia",
    "suburb": "Mooloolaba QLD 4557",
    "state": "QLD",
    "rating": 4.6,
    "reviews": 311,
    "lat": -26.681171,
    "lng": 153.11858,
    "place_id": "ChIJY6RSTeZ1k2sR8hN69PmwOCw",
    "maps_url": "https://www.google.com/maps/place/?q=place_id:ChIJY6RSTeZ1k2sR8hN69PmwOCw"
  },
  {
    "name": "Holistic Health & Massage",
    "address": "Shop 1/932 David Low Way, Marcoola QLD 4564, Australia",
    "suburb": "Marcoola QLD 4564",
    "state": "QLD",
    "rating": 5,
    "reviews": 94,
    "lat": -26.6015281,
    "lng": 153.0957383,
    "place_id": "ChIJVVV5QE5xk2sRvD-igluRE9A",
    "maps_url": "https://www.google.com/maps/place/?q=place_id:ChIJVVV5QE5xk2sRvD-igluRE9A"
  },
  {
    "name": "First Avenue Remedial Massage",
    "address": "Shop 7/23 First Ave, Maroochydore QLD 4558, Australia",
    "suburb": "Maroochydore QLD 4558",
    "state": "QLD",
    "rating": 5,
    "reviews": 102,
    "lat": -26.6560795,
    "lng": 153.0935877,
    "place_id": "ChIJ0T6cAkp3k2sRTI040Rt1Veg",
    "maps_url": "https://www.google.com/maps/place/?q=place_id:ChIJ0T6cAkp3k2sRTI040Rt1Veg"
  },
  {
    "name": "Back in Action Healthy Body & Spirit Massage",
    "address": "2/81 Cnr Sixth Ave &, Melrose Parade, Maroochydore QLD 4558, Australia",
    "suburb": "Melrose Parade",
    "state": "QLD",
    "rating": 5,
    "reviews": 74,
    "lat": -26.659953,
    "lng": 153.1032393,
    "place_id": "ChIJlTe319F3k2sRkCwwW12YXzU",
    "maps_url": "https://www.google.com/maps/place/?q=place_id:ChIJlTe319F3k2sRkCwwW12YXzU"
  },
  {
    "name": "Beach Front Massage Therapy Coolum Beach",
    "address": "Unit 10/1776-1784 David Low Way, Coolum Beach QLD 4573, Australia",
    "suburb": "Coolum Beach QLD 4573",
    "state": "QLD",
    "rating": 4.9,
    "reviews": 181,
    "lat": -26.5314322,
    "lng": 153.0916995,
    "place_id": "ChIJMU0xI-Nxk2sRgx2w-AF_Ukk",
    "maps_url": "https://www.google.com/maps/place/?q=place_id:ChIJMU0xI-Nxk2sRgx2w-AF_Ukk"
  },
  {
    "name": "Rejuvenate Massage Qld",
    "address": "85 Bowman Rd, Caloundra QLD 4551, Australia",
    "suburb": "Caloundra QLD 4551",
    "state": "QLD",
    "rating": 5,
    "reviews": 172,
    "lat": -26.8033394,
    "lng": 153.1207533,
    "place_id": "ChIJyxrLskSZk2sRhFNKQuRhjsc",
    "maps_url": "https://www.google.com/maps/place/?q=place_id:ChIJyxrLskSZk2sRhFNKQuRhjsc"
  },
  {
    "name": "Massage on Ocean",
    "address": "6/2 Ocean St, Maroochydore QLD 4558, Australia",
    "suburb": "Maroochydore QLD 4558",
    "state": "QLD",
    "rating": 4.9,
    "reviews": 82,
    "lat": -26.6518133,
    "lng": 153.0920095,
    "place_id": "ChIJMaS6MsZ3k2sRcgLNWR-ysso",
    "maps_url": "https://www.google.com/maps/place/?q=place_id:ChIJMaS6MsZ3k2sRcgLNWR-ysso"
  },
  {
    "name": "Sunny Rose Chinese Massage Maroochydore",
    "address": "Shop 2/100 Aerodrome Rd, Maroochydore QLD 4558, Australia",
    "suburb": "Maroochydore QLD 4558",
    "state": "QLD",
    "rating": 4.1,
    "reviews": 23,
    "lat": -26.6585948,
    "lng": 153.0956068,
    "place_id": "ChIJqevduIV3k2sR7pTy4dLu__k",
    "maps_url": "https://www.google.com/maps/place/?q=place_id:ChIJqevduIV3k2sR7pTy4dLu__k"
  },
  {
    "name": "Anaiah Wellness",
    "address": "34 Gloucester Rd, Buderim QLD 4556, Australia",
    "suburb": "Buderim QLD 4556",
    "state": "QLD",
    "rating": 5,
    "reviews": 150,
    "lat": -26.6812443,
    "lng": 153.0563192,
    "place_id": "ChIJTVtaE0Ij1moR8zEkV6ADfwA",
    "maps_url": "https://www.google.com/maps/place/?q=place_id:ChIJTVtaE0Ij1moR8zEkV6ADfwA"
  },
  {
    "name": "KaHunaHub Massage Temple",
    "address": "2/70 Duporth Ave, Maroochydore QLD 4558, Australia",
    "suburb": "Maroochydore QLD 4558",
    "state": "QLD",
    "rating": 5,
    "reviews": 101,
    "lat": -26.650694,
    "lng": 153.090816,
    "place_id": "ChIJ95UkBIp2k2sR7U-HvJ1V6q4",
    "maps_url": "https://www.google.com/maps/place/?q=place_id:ChIJ95UkBIp2k2sR7U-HvJ1V6q4"
  },
  {
    "name": "Michelle Remedial Therapist",
    "address": "6 Kepplegrove Dr, Sippy Downs QLD 4556, Australia",
    "suburb": "Sippy Downs QLD 4556",
    "state": "QLD",
    "rating": 5,
    "reviews": 13,
    "lat": -26.7299795,
    "lng": 153.0489741,
    "place_id": "ChIJBcRmnOKdk2sRPXaDe87druc",
    "maps_url": "https://www.google.com/maps/place/?q=place_id:ChIJBcRmnOKdk2sRPXaDe87druc"
  },
  {
    "name": "Helan Mobile Massage",
    "address": "405 Mooloolaba Rd, Buderim QLD 4556, Australia",
    "suburb": "Buderim QLD 4556",
    "state": "QLD",
    "rating": 5,
    "reviews": 60,
    "lat": -26.6776014,
    "lng": 153.0923798,
    "place_id": "ChIJI9O37hN2k2sRnPLQwIQ93xQ",
    "maps_url": "https://www.google.com/maps/place/?q=place_id:ChIJI9O37hN2k2sRnPLQwIQ93xQ"
  },
  {
    "name": "Majestic Massage",
    "address": "Shop 13 Stockland Birtinya, 8 The Avenue, Birtinya QLD 4575, Australia",
    "suburb": "8 The Avenue",
    "state": "QLD",
    "rating": 4.9,
    "reviews": 78,
    "lat": -26.7395356,
    "lng": 153.1168972,
    "place_id": "ChIJzUnCEMKZk2sR4uadVToYNMs",
    "maps_url": "https://www.google.com/maps/place/?q=place_id:ChIJzUnCEMKZk2sR4uadVToYNMs"
  },
  {
    "name": "Massage Relax Restore Townsville",
    "address": "Attached to The Gym Strand Fitness, 389 Woolcock St, Garbutt QLD 4814, Australia",
    "suburb": "389 Woolcock St",
    "state": "QLD",
    "rating": 5,
    "reviews": 44,
    "lat": -19.2678169,
    "lng": 146.7635344,
    "place_id": "ChIJkbx947j51WsRNQ124LvsUio",
    "maps_url": "https://www.google.com/maps/place/?q=place_id:ChIJkbx947j51WsRNQ124LvsUio"
  },
  {
    "name": "Magda Clinic - Remedial Massage Clinic for Women",
    "address": "719-741 Flinders St, Townsville City QLD 4810, Australia",
    "suburb": "Townsville City QLD 4810",
    "state": "QLD",
    "rating": 5,
    "reviews": 161,
    "lat": -19.2667894,
    "lng": 146.8091857,
    "place_id": "ChIJUVzGH9_51WsRGmDJ2kTtAGA",
    "maps_url": "https://www.google.com/maps/place/?q=place_id:ChIJUVzGH9_51WsRGmDJ2kTtAGA"
  },
  {
    "name": "Hands In Harmony Massage & Day Spa",
    "address": "291 Flinders St, Townsville City QLD 4810, Australia",
    "suburb": "Townsville City QLD 4810",
    "state": "QLD",
    "rating": 4.6,
    "reviews": 153,
    "lat": -19.2586582,
    "lng": 146.8173657,
    "place_id": "ChIJ1c_1kNr41WsRS-H22MpKbAU",
    "maps_url": "https://www.google.com/maps/place/?q=place_id:ChIJ1c_1kNr41WsRS-H22MpKbAU"
  },
  {
    "name": "Take-Tar Massage Studio ( Chronic pain Expert) Townsville",
    "address": "Shop 3/72 Nathan St, Vincent QLD 4814, Australia",
    "suburb": "Vincent QLD 4814",
    "state": "QLD",
    "rating": 4.7,
    "reviews": 93,
    "lat": -19.288583,
    "lng": 146.761898,
    "place_id": "ChIJpVzq8LP51WsRbxa1ZqXv3As",
    "maps_url": "https://www.google.com/maps/place/?q=place_id:ChIJpVzq8LP51WsRbxa1ZqXv3As"
  },