[
  {
    "name": "Welle Mattresses Sydney City",
    "address": "Inside Myer, Level 5/436 George St, Sydney NSW 2000, Australia",
    "suburb": "Level 5/436 George St",
    "state": "NSW",
    "rating": 5,
    "reviews": 2,
    "lat": -33.8699507,
    "lng": 151.2070644,
    "place_id": "ChIJBZSqVEGvEmsR3QK34wHTJz8",
    "maps_url": "https://www.google.com/maps/place/?q=place_id:ChIJBZSqVEGvEmsR3QK34wHTJz8"
  },
  {
    "name": "Sydney Bed Mattress Factory Outlet",
    "address": "Unit J5C, Level J/39 Jones St, Ultimo NSW 2007, Australia",
    "suburb": "Level J/39 Jones St",
    "state": "NSW",
    "rating": 3.8,
    "reviews": 73,
    "lat": -33.8760615,
    "lng": 151.1951624,
    "place_id": "ChIJBzS6pS-uEmsRbz6o6wlmN1c",
    "maps_url": "https://www.google.com/maps/place/?q=place_id:ChIJBzS6pS-uEmsRbz6o6wlmN1c"
  },
  {
    "name": "Bedworks Sydney",
    "address": "22-28 Parramatta Rd, Stanmore NSW 2048, Australia",
    "suburb": "Stanmore NSW 2048",
    "state": "NSW",
    "rating": 3.5,
    "reviews": 88,
    "lat": -33.8878985,
    "lng": 151.1712555,
    "place_id": "ChIJ1QdY7SSwEmsRUHXAubGo0v8",
    "maps_url": "https://www.google.com/maps/place/?q=place_id:ChIJ1QdY7SSwEmsRUHXAubGo0v8"
  },
  {
    "name": "Original Mattress Factory",
    "address": "1 Frederick Street, Cnr, L1 Home HQ Centre, Reserve Rd, Artarmon NSW 2064, Australia",
    "suburb": "Cnr",
    "state": "NSW",
    "rating": 4.9,
    "reviews": 170,
    "lat": -33.817079,
    "lng": 151.1889358,
    "place_id": "ChIJscKKoYzuEmsR5vinTusucKM",
    "maps_url": "https://www.google.com/maps/place/?q=place_id:ChIJscKKoYzuEmsR5vinTusucKM"
  },
  {
    "name": "Myer Sydney City",
    "address": "436 George St, Sydney NSW 2000, Australia",
    "suburb": "Sydney NSW 2000",
    "state": "NSW",
    "rating": 4.1,
    "reviews": 7303,
    "lat": -33.8703149,
    "lng": 151.2076166,
    "place_id": "ChIJB4ndBj-uEmsR_oeCmFxxhh4",
    "maps_url": "https://www.google.com/maps/place/?q=place_id:ChIJB4ndBj-uEmsR_oeCmFxxhh4"
  },
  {
    "name": "Dial A Bed",
    "address": "16B Leeds St, Rhodes NSW 2138, Australia",
    "suburb": "Rhodes NSW 2138",
    "state": "NSW",
    "rating": 4.9,
    "reviews": 536,
    "lat": -33.824665,
    "lng": 151.090209,
    "place_id": "ChIJUS7UTvykEmsRm4vYPnorgkM",
    "maps_url": "https://www.google.com/maps/place/?q=place_id:ChIJUS7UTvykEmsRm4vYPnorgkM"
  },
  {
    "name": "More Furniture",
    "address": "26 Regent St, Chippendale NSW 2008, Australia",
    "suburb": "Chippendale NSW 2008",
    "state": "NSW",
    "rating": 4.4,
    "reviews": 61,
    "lat": -33.8846899,
    "lng": 151.2027205,
    "place_id": "ChIJc87s3yGuEmsRReKo2VpbNQw",
    "maps_url": "https://www.google.com/maps/place/?q=place_id:ChIJc87s3yGuEmsRReKo2VpbNQw"
  },
  {
    "name": "Sleepmart 睡眠中心 (Chatswood)",
    "address": "Level 2, Shop 31/427-441 Victoria Ave, Chatswood NSW 2067, Australia",
    "suburb": "Shop 31/427-441 Victoria Ave",
    "state": "NSW",
    "rating": 4.9,
    "reviews": 209,
    "lat": -33.796058,
    "lng": 151.182484,
    "place_id": "ChIJ5RsZGNSoEmsR_s5n14KOErg",
    "maps_url": "https://www.google.com/maps/place/?q=place_id:ChIJ5RsZGNSoEmsR_s5n14KOErg"
  },
  {
    "name": "Beds & Beyond",
    "address": "96-98 Parramatta Rd, Stanmore NSW 2048, Australia",
    "suburb": "Stanmore NSW 2048",
    "state": "NSW",
    "rating": 4.6,
    "reviews": 86,
    "lat": -33.8880809,
    "lng": 151.1693303,
    "place_id": "ChIJs7JYYCOwEmsRFk5CbUNR2dc",
    "maps_url": "https://www.google.com/maps/place/?q=place_id:ChIJs7JYYCOwEmsRFk5CbUNR2dc"
  },
  {
    "name": "David Jones - Elizabeth Street",
    "address": "86/108 Castlereagh St, Sydney NSW 2000, Australia",
    "suburb": "Sydney NSW 2000",
    "state": "NSW",
    "rating": 4.1,
    "reviews": 3730,
    "lat": -33.8701268,
    "lng": 151.2099337,
    "place_id": "ChIJZR3BzT-uEmsRsfdt17SmrQw",
    "maps_url": "https://www.google.com/maps/place/?q=place_id:ChIJZR3BzT-uEmsRsfdt17SmrQw"
  },
  {
    "name": "Bed Bath N' Table Sydney",
    "address": "Westfield Sydney, Shop 46 432/450 George St, Sydney NSW 2000, Australia",
    "suburb": "Shop 46 432/450 George St",
    "state": "NSW",
    "rating": 2.9,
    "reviews": 83,
    "lat": -33.8700877,
    "lng": 151.208101,
    "place_id": "ChIJrT6HsT-uEmsRXEtDiaTNcTc",
    "maps_url": "https://www.google.com/maps/place/?q=place_id:ChIJrT6HsT-uEmsRXEtDiaTNcTc"
  },
  {
    "name": "BIG W Town Hall",
    "address": "Big W Service Desk Cnr Park & Level, 1 George St, Sydney NSW 2000, Australia",
    "suburb": "1 George St",
    "state": "NSW",
    "rating": 3.6,
    "reviews": 340,
    "lat": -33.8730977,
    "lng": 151.207214,
    "place_id": "ChIJ-a86rBuvEmsRUTpCG3aePuQ",
    "maps_url": "https://www.google.com/maps/place/?q=place_id:ChIJ-a86rBuvEmsRUTpCG3aePuQ"
  },
  {
    "name": "Hästens",
    "address": "381 Oxford St, Paddington NSW 2021, Australia",
    "suburb": "Paddington NSW 2021",
    "state": "NSW",
    "rating": null,
    "reviews": 0,
    "lat": -33.8867189,
    "lng": 151.2293348,
    "place_id": "ChIJlQorXw2vEmsRNtMdyNtoBgo",
    "maps_url": "https://www.google.com/maps/place/?q=place_id:ChIJlQorXw2vEmsRNtMdyNtoBgo"
  },
  {
    "name": "Fern Fabric - Complete Solutions for Bed Protection",
    "address": "Office 903/50 Clarence St, Sydney NSW 2000, Australia",
    "suburb": "Sydney NSW 2000",
    "state": "NSW",
    "rating": 5,
    "reviews": 1,
    "lat": -33.8659457,
    "lng": 151.20519,
    "place_id": "ChIJmdvzuwWvEmsRQTqhlQp68v0",
    "maps_url": "https://www.google.com/maps/place/?q=place_id:ChIJmdvzuwWvEmsRQTqhlQp68v0"
  },
  {
    "name": "The Comfort Shop",
    "address": "168 Willoughby Rd, Crows Nest NSW 2065, Australia",
    "suburb": "Crows Nest NSW 2065",
    "state": "NSW",
    "rating": 4.9,
    "reviews": 13,
    "lat": -33.8221625,
    "lng": 151.2007206,
    "place_id": "ChIJsTueQt2uEmsROWwGIFbf_Qs",
    "maps_url": "https://www.google.com/maps/place/?q=place_id:ChIJsTueQt2uEmsROWwGIFbf_Qs"
  },
  {
    "name": "The Comfort Shop",
    "address": "Shop GA/08 South Dowling St, Moore Park NSW 2033, Australia",
    "suburb": "Moore Park NSW 2033",
    "state": "NSW",
    "rating": 3.8,
    "reviews": 18,
    "lat": -33.9023603,
    "lng": 151.2147314,
    "place_id": "ChIJHyJq3OOxEmsRN9gEYA5AZ60",
    "maps_url": "https://www.google.com/maps/place/?q=place_id:ChIJHyJq3OOxEmsRN9gEYA5AZ60"
  },
  {
    "name": "The Mattress",
    "address": "B2, Unit J5E/39 Jones St, Ultimo NSW 2007, Australia",
    "suburb": "Unit J5E/39 Jones St",
    "state": "NSW",
    "rating": null,
    "reviews": 0,
    "lat": -33.8762431,
    "lng": 151.1947265,
    "place_id": "ChIJZ-RcF3CvEmsRIxrRuN-ASDQ",
    "maps_url": "https://www.google.com/maps/place/?q=place_id:ChIJZ-RcF3CvEmsRIxrRuN-ASDQ"
  },
  {
    "name": "Beds R Us - Warwick Farm",
    "address": "Hometown Warwick Farm Shop 8, Cnr Sappho Road &, Hume Hwy, Warwick Farm NSW 2170, Australia",
    "suburb": "Cnr Sappho Road &",
    "state": "NSW",
    "rating": 4.7,
    "reviews": 109,
    "lat": -33.9084046,
    "lng": 150.939849,
    "place_id": "ChIJT5qhuuWVEmsRIOr2IuZO_GU",
    "maps_url": "https://www.google.com/maps/place/?q=place_id:ChIJT5qhuuWVEmsRIOr2IuZO_GU"
  },
  {
    "name": "Eva Furniture Surry Hills House | Furniture Store Sydney",
    "address": "75 Fitzroy St, Surry Hills NSW 2010, Australia",
    "suburb": "Surry Hills NSW 2010",
    "state": "NSW",
    "rating": 5,
    "reviews": 106,
    "lat": -33.8856507,
    "lng": 151.2165101,
    "place_id": "ChIJ36IKmCOvEmsRoHFvWBvEiOw",
    "maps_url": "https://www.google.com/maps/place/?q=place_id:ChIJ36IKmCOvEmsRoHFvWBvEiOw"
  },
  {
    "name": "Kmart Broadway",
    "address": "1 Bay St, Glebe NSW 2007, Australia",
    "suburb": "Glebe NSW 2007",
    "state": "NSW",
    "rating": 4.2,
    "reviews": 4543,
    "lat": -33.8837049,
    "lng": 151.1934234,
    "place_id": "ChIJEf7__9SvEmsRr1LEba-hRaE",
    "maps_url": "https://www.google.com/maps/place/?q=place_id:ChIJEf7__9SvEmsRr1LEba-hRaE"
  },
  {
    "name": "Welle Mattresses Parramatta",
    "address": "Inside Myer, Level G F1/159-175 Church St, Parramatta NSW 2150, Australia",
    "suburb": "Level G F1/159-175 Church St",
    "state": "NSW",
    "rating": 5,
    "reviews": 3,
    "lat": -33.8173782,
    "lng": 151.0016557,
    "place_id": "ChIJZYytLBqjEmsRDyte69qQZ0g",
    "maps_url": "https://www.google.com/maps/place/?q=place_id:ChIJZYytLBqjEmsRDyte69qQZ0g"
  },
  {
    "name": "Original Mattress Factory",
    "address": "Prime West Mega Mart, L1 Shop 16/265 Parramatta Rd, Auburn NSW 2144, Australia",
    "suburb": "L1 Shop 16/265 Parramatta Rd",
    "state": "NSW",
    "rating": 4.8,
    "reviews": 469,
    "lat": -33.8377201,
    "lng": 151.0280802,
    "place_id": "ChIJd05OYkmjEmsRJSW02vWPiPA",
    "maps_url": "https://www.google.com/maps/place/?q=place_id:ChIJd05OYkmjEmsRJSW02vWPiPA"
  },
  {
    "name": "Snooze Auburn",
    "address": "Level 1/265 Parramatta Rd, Auburn NSW 2144, Australia",
    "suburb": "Auburn NSW 2144",
    "state": "NSW",
    "rating": 4.6,
    "reviews": 637,
    "lat": -33.8376217,
    "lng": 151.0279974,
    "place_id": "ChIJd05OYkmjEmsRQ6sgqKa2QEs",
    "maps_url": "https://www.google.com/maps/place/?q=place_id:ChIJd05OYkmjEmsRQ6sgqKa2QEs"
  },
  {
    "name": "Hot Deal Furniture Parramatta",
    "address": "Shop1/41 Marion St, Parramatta NSW 2150, Australia",
    "suburb": "Parramatta NSW 2150",
    "state": "NSW",
    "rating": 4.3,
    "reviews": 191,
    "lat": -33.8224436,
    "lng": 151.0072648,
    "place_id": "ChIJ93ZGCCSjEmsRW_j7UVAl1Hs",
    "maps_url": "https://www.google.com/maps/place/?q=place_id:ChIJ93ZGCCSjEmsRW_j7UVAl1Hs"
  },
  {
    "name": "Beds n Dreams - Auburn",
    "address": "Auburn Mega Mall, Shop 6, Level 1/265 Parramatta Rd, Auburn NSW 2144, Australia",
    "suburb": "Shop 6",
    "state": "NSW",
    "rating": 4.5,
    "reviews": 268,
    "lat": -33.8377201,
    "lng": 151.0280802,
    "place_id": "ChIJ05sIR1ajEmsRH8I03x7EV_I",
    "maps_url": "https://www.google.com/maps/place/?q=place_id:ChIJ05sIR1ajEmsRH8I03x7EV_I"
  },
  {
    "name": "Bedding King Parramatta",
    "address": "Front Shop, 159-175 Church St, Parramatta NSW 2150, Australia",
    "suburb": "159-175 Church St",
    "state": "NSW",
    "rating": 5,
    "reviews": 1,
    "lat": -33.8173782,
    "lng": 151.0016557,
    "place_id": "ChIJlw9QDbejEmsRemohlbLSpaU",
    "maps_url": "https://www.google.com/maps/place/?q=place_id:ChIJlw9QDbejEmsRemohlbLSpaU"
  },
  {
    "name": "Forty Winks Auburn",
    "address": "290 Parramatta Rd, Auburn NSW 2144, Australia",
    "suburb": "Auburn NSW 2144",
    "state": "NSW",
    "rating": 4.4,
    "reviews": 111,
    "lat": -33.8396093,
    "lng": 151.0298873,
    "place_id": "ChIJjWAVDkyjEmsRiMrCCoxNXqI",
    "maps_url": "https://www.google.com/maps/place/?q=place_id:ChIJjWAVDkyjEmsRiMrCCoxNXqI"
  },
  {
    "name": "Kmart Parramatta",
    "address": "Westfield Parramatta, 159-175 Church St, Parramatta NSW 2150, Australia",
    "suburb": "159-175 Church St",
    "state": "NSW",
    "rating": 4.1,
    "reviews": 5368,
    "lat": -33.8171388,
    "lng": 151.0008208,
    "place_id": "ChIJ1ffoQiCjEmsRVwcgR-HYceQ",
    "maps_url": "https://www.google.com/maps/place/?q=place_id:ChIJ1ffoQiCjEmsRVwcgR-HYceQ"
  },
  {
    "name": "Sleepy's Auburn - Mattress Store",
    "address": "Shop A15, Primewest Auburn Megamall, 265 Parramatta Rd, Auburn NSW 2144, Australia",
    "suburb": "Primewest Auburn Megamall",
    "state": "NSW",
    "rating": 4.7,
    "reviews": 394,
    "lat": -33.8377422,
    "lng": 151.0276655,
    "place_id": "ChIJd05OYkmjEmsRoXlhx7Rbi1Y",
    "maps_url": "https://www.google.com/maps/place/?q=place_id:ChIJd05OYkmjEmsRoXlhx7Rbi1Y"
  },
  {
    "name": "Snooze Homebush",
    "address": "3-5 Underwood Rd, Homebush NSW 2140, Australia",
    "suburb": "Homebush NSW 2140",
    "state": "NSW",
    "rating": 4.9,
    "reviews": 1019,
    "lat": -33.8556219,
    "lng": 151.0767955,
    "place_id": "ChIJfdH0VDO7EmsRnuoGfTx9dbE",
    "maps_url": "https://www.google.com/maps/place/?q=place_id:ChIJfdH0VDO7EmsRnuoGfTx9dbE"
  },
  {
    "name": "Zen Sleep",
    "address": "Unit 43/2 Charles St, Parramatta NSW 2150, Australia",
    "suburb": "Parramatta NSW 2150",
    "state": "NSW",
    "rating": 5,
    "reviews": 1,
    "lat": -33.8174804,
    "lng": 151.009068,
    "place_id": "ChIJP_9CuXujEmsRScPHnNohkLE",
    "maps_url": "https://www.google.com/maps/place/?q=place_id:ChIJP_9CuXujEmsRScPHnNohkLE"
  },
  {
    "name": "Makin Mattresses Newcastle",
    "address": "Corner Friesian Close and, Jersey Ave, Sandgate NSW 2304, Australia",
    "suburb": "Jersey Ave",
    "state": "NSW",
    "rating": 4.8,
    "reviews": 598,
    "lat": -32.8740115,
    "lng": 151.7111176,
    "place_id": "ChIJxcfR2FoVc2sR7TByU2ljE2I",
    "maps_url": "https://www.google.com/maps/place/?q=place_id:ChIJxcfR2FoVc2sR7TByU2ljE2I"
  },
  {
    "name": "Original Mattress Factory",
    "address": "3 Groves Rd, Bennetts Green NSW 2290, Australia",
    "suburb": "Bennetts Green NSW 2290",
    "state": "NSW",
    "rating": 5,
    "reviews": 166,
    "lat": -32.9956133,
    "lng": 151.6880999,
    "place_id": "ChIJ0aXh6TJMFmsR4mIa3I9Lgo0",
    "maps_url": "https://www.google.com/maps/place/?q=place_id:ChIJ0aXh6TJMFmsR4mIa3I9Lgo0"
  },
  {
    "name": "Forty Winks Bennetts Green",
    "address": "Shop 3/15 Groves Rd, Bennetts Green NSW 2290, Australia",
    "suburb": "Bennetts Green NSW 2290",
    "state": "NSW",
    "rating": 4.8,
    "reviews": 62,
    "lat": -32.9957695,
    "lng": 151.6885918,
    "place_id": "ChIJV_Lp6WU9c2sROjzsBvgpT6U",
    "maps_url": "https://www.google.com/maps/place/?q=place_id:ChIJV_Lp6WU9c2sROjzsBvgpT6U"
  },
  {
    "name": "Sleepy's Kotara - Mattress Store",
    "address": "Home Centre, 150 Park Ave, Kotara NSW 2289, Australia",
    "suburb": "150 Park Ave",
    "state": "NSW",
    "rating": 4.9,
    "reviews": 412,
    "lat": -32.9382226,
    "lng": 151.7081922,
    "place_id": "ChIJ6-qtSPwVc2sR3n_DHEy4Wrs",
    "maps_url": "https://www.google.com/maps/place/?q=place_id:ChIJ6-qtSPwVc2sR3n_DHEy4Wrs"
  },
  {
    "name": "Snooze Bennetts Green",
    "address": "5 Abdon Cl, Bennetts Green NSW 2290, Australia",
    "suburb": "Bennetts Green NSW 2290",
    "state": "NSW",
    "rating": 4.7,
    "reviews": 73,
    "lat": -32.9947102,
    "lng": 151.6893564,
    "place_id": "ChIJA1QuYm89c2sRV9TlXeOfdbI",
    "maps_url": "https://www.google.com/maps/place/?q=place_id:ChIJA1QuYm89c2sRV9TlXeOfdbI"
  },
  {
    "name": "Beds R Us - Warners Bay",
    "address": "Unit 4/393 Hillsborough Rd, Warners Bay NSW 2282, Australia",
    "suburb": "Warners Bay NSW 2282",
    "state": "NSW",
    "rating": 4.6,
    "reviews": 144,
    "lat": -32.9656039,
    "lng": 151.653639,
    "place_id": "ChIJt88xkVQ8c2sRfe6NChSJ8fg",
    "maps_url": "https://www.google.com/maps/place/?q=place_id:ChIJt88xkVQ8c2sRfe6NChSJ8fg"
  },
  {
    "name": "Sleeping Giant Kotara",
    "address": "Home Co. Kotara, Shop 8/150 Park Ave, Kotara NSW 2289, Australia",
    "suburb": "Shop 8/150 Park Ave",
    "state": "NSW",
    "rating": 4.4,
    "reviews": 67,
    "lat": -32.9400208,
    "lng": 151.7058857,
    "place_id": "ChIJYX1PgGQVc2sR034sN_WDGo4",
    "maps_url": "https://www.google.com/maps/place/?q=place_id:ChIJYX1PgGQVc2sR034sN_WDGo4"
  },
  {
    "name": "Fantastic Furniture",
    "address": "978 Hunter St, Newcastle West NSW 2300, Australia",
    "suburb": "Newcastle West NSW 2300",
    "state": "NSW",
    "rating": 4,
    "reviews": 253,
    "lat": -32.9227789,
    "lng": 151.7544127,
    "place_id": "ChIJma0N6lEUc2sRkLSwVF1BDCM",
    "maps_url": "https://www.google.com/maps/place/?q=place_id:ChIJma0N6lEUc2sRkLSwVF1BDCM"
  },
  {
    "name": "Snooze Kotara",
    "address": "1 Kullaiba Rd, Kotara NSW 2289, Australia",
    "suburb": "Kotara NSW 2289",
    "state": "NSW",
    "rating": 4.3,
    "reviews": 65,
    "lat": -32.9398385,
    "lng": 151.7061911,
    "place_id": "ChIJ6-qtSPwVc2sRlzS5FSxmP6A",
    "maps_url": "https://www.google.com/maps/place/?q=place_id:ChIJ6-qtSPwVc2sRlzS5FSxmP6A"
  },
  {
    "name": "Beds R Us Kotara",
    "address": "HomeCo, Shop 5/1 Kullaiba Rd, Kotara NSW 2289, Australia",
    "suburb": "Shop 5/1 Kullaiba Rd",
    "state": "NSW",
    "rating": 4.9,
    "reviews": 109,
    "lat": -32.9387356,
    "lng": 151.7076302,
    "place_id": "ChIJuXI0CbgVc2sRS-q8fZStCXw",
    "maps_url": "https://www.google.com/maps/place/?q=place_id:ChIJuXI0CbgVc2sRS-q8fZStCXw"
  },
  {
    "name": "Newcastle Beds",
    "address": "Unit 11 Blaydon Trade Park, Blaydon, Blaydon-on-Tyne NE21 5TR, UK",
    "suburb": "Blaydon",
    "state": "NSW",
    "rating": 4.9,
    "reviews": 329,
    "lat": 54.96553309999999,
    "lng": -1.6952558,
    "place_id": "ChIJH3fUJkh3fkgRNfXKp0gb9sY",
    "maps_url": "https://www.google.com/maps/place/?q=place_id:ChIJH3fUJkh3fkgRNfXKp0gb9sY"
  },
  {
    "name": "The Mattress Shop",
    "address": "Orangebox Furniture, 137 New Bridge St, Shieldfield, Newcastle upon Tyne NE1 2SW, UK",
    "suburb": "137 New Bridge St",
    "state": "NSW",
    "rating": 4.8,
    "reviews": 141,
    "lat": 54.9746635,
    "lng": -1.6003682,
    "place_id": "ChIJAxvoPMdwfkgRFsx4uFVmxyQ",
    "maps_url": "https://www.google.com/maps/place/?q=place_id:ChIJAxvoPMdwfkgRFsx4uFVmxyQ"
  },
  {
    "name": "Affordable Bedding Company",
    "address": "shop 1/387 Lake Rd, Glendale NSW 2285, Australia",
    "suburb": "Glendale NSW 2285",
    "state": "NSW",
    "rating": 4.5,
    "reviews": 23,
    "lat": -32.9359045,
    "lng": 151.644257,
    "place_id": "ChIJAXGo1J1Hc2sRu2Hg5LV8pK0",
    "maps_url": "https://www.google.com/maps/place/?q=place_id:ChIJAXGo1J1Hc2sRu2Hg5LV8pK0"
  },
  {
    "name": "Original Mattress Factory",
    "address": "Shop 1A/8 Griffin St, Heatherbrae NSW 2324, Australia",
    "suburb": "Heatherbrae NSW 2324",
    "state": "NSW",
    "rating": 5,
    "reviews": 530,
    "lat": -32.7932287,
    "lng": 151.7252287,
    "place_id": "ChIJIyebr6Frc2sRM6nUlikX8-Q",
    "maps_url": "https://www.google.com/maps/place/?q=place_id:ChIJIyebr6Frc2sRM6nUlikX8-Q"
  },
  {
    "name": "Snooze warehouse",
    "address": "4 Ironbark Cl, Warabrook NSW 2304, Australia",
    "suburb": "Warabrook NSW 2304",
    "state": "NSW",
    "rating": 3.5,
    "reviews": 4,
    "lat": -32.8886533,
    "lng": 151.7143162,
    "place_id": "ChIJU6q7rW4Vc2sRdir0b6p7N7A",
    "maps_url": "https://www.google.com/maps/place/?q=place_id:ChIJU6q7rW4Vc2sRdir0b6p7N7A"
  },
  {
    "name": "Freedom - Kotara",
    "address": "Homemaker Centre, 2 Shop 22/150 Park Ave, Kotara NSW 2289, Australia",
    "suburb": "2 Shop 22/150 Park Ave",
    "state": "NSW",
    "rating": 3.1,
    "reviews": 216,
    "lat": -32.9400208,
    "lng": 151.7058857,
    "place_id": "ChIJ6-qtSPwVc2sRpH4x_ksH--s",
    "maps_url": "https://www.google.com/maps/place/?q=place_id:ChIJ6-qtSPwVc2sRpH4x_ksH--s"
  },
  {
    "name": "King Living Newcastle NSW",
    "address": "85 Parry St, Newcastle West NSW 2302, Australia",
    "suburb": "Newcastle West NSW 2302",
    "state": "NSW",
    "rating": 4.8,
    "reviews": 362,
    "lat": -32.9272705,
    "lng": 151.7582257,
    "place_id": "ChIJ5XKiZVoVc2sRQSWK_yTa2Ks",
    "maps_url": "https://www.google.com/maps/place/?q=place_id:ChIJ5XKiZVoVc2sRQSWK_yTa2Ks"
  },
  {
    "name": "Beds R Us | One Stop Furniture",
    "address": "393a Hillsborough Rd, Warners Bay NSW 2282, Australia",
    "suburb": "Warners Bay NSW 2282",
    "state": "NSW",
    "rating": 4.1,
    "reviews": 103,
    "lat": -32.9657096,
    "lng": 151.6537017,
    "place_id": "ChIJ8RH7rqw9c2sR8scyuLN_KRg",
    "maps_url": "https://www.google.com/maps/place/?q=place_id:ChIJ8RH7rqw9c2sR8scyuLN_KRg"
  },
  {
    "name": "Harvey Norman - Clearance Centre Broadmeadow",
    "address": "35 Lambton Rd, Broadmeadow NSW 2292, Australia",
    "suburb": "Broadmeadow NSW 2292",
    "state": "NSW",
    "rating": 4,
    "reviews": 332,
    "lat": -32.9247222,
    "lng": 151.7341667,
    "place_id": "ChIJjR-clLkVc2sRWl5-1nDCTDw",
    "maps_url": "https://www.google.com/maps/place/?q=place_id:ChIJjR-clLkVc2sRWl5-1nDCTDw"
  },
  {
    "name": "Amart Glendale",
    "address": "1/25 Stockland Dr, Glendale NSW 2285, Australia",
    "suburb": "Glendale NSW 2285",
    "state": "NSW",
    "rating": 3.7,
    "reviews": 388,
    "lat": -32.9325321,
    "lng": 151.6422999,
    "place_id": "ChIJnZfZ6SU8c2sRlud2ow1MfRc",
    "maps_url": "https://www.google.com/maps/place/?q=place_id:ChIJnZfZ6SU8c2sRlud2ow1MfRc"
  },
  {
    "name": "Wollongong Bedding Warehouse",
    "address": "272 Keira St, Wollongong NSW 2500, Australia",
    "suburb": "Wollongong NSW 2500",
    "state": "NSW",
    "rating": 4.9,
    "reviews": 173,
    "lat": -34.4281739,
    "lng": 150.8925364,
    "place_id": "ChIJq6ra5qQZE2sR9Vl3PfBXd0o",
    "maps_url": "https://www.google.com/maps/place/?q=place_id:ChIJq6ra5qQZE2sR9Vl3PfBXd0o"
  },
  {
    "name": "Best Buys Furniture and Bedding",
    "address": "33 Flinders St, Wollongong NSW 2500, Australia",
    "suburb": "Wollongong NSW 2500",
    "state": "NSW",
    "rating": 5,
    "reviews": 94,
    "lat": -34.4178591,
    "lng": 150.8926728,
    "place_id": "ChIJeW2e75IZE2sRV9NDfjcj4AY",
    "maps_url": "https://www.google.com/maps/place/?q=place_id:ChIJeW2e75IZE2sRV9NDfjcj4AY"
  },
  {
    "name": "Welle Mattresses Erina",
    "address": "Inside Myer, Ground Level, Karalta Rd, Erina NSW 2250, Australia",
    "suburb": "Ground Level",
    "state": "NSW",
    "rating": 5,
    "reviews": 5,
    "lat": -33.4378704,
    "lng": 151.3936015,
    "place_id": "ChIJ8zsOedzLcmsRdeNqzlZwm5M",
    "maps_url": "https://www.google.com/maps/place/?q=place_id:ChIJ8zsOedzLcmsRdeNqzlZwm5M"
  },
  {
    "name": "Bedshed Tuggerah",
    "address": "HomeCo, Shop T26/2 Bryant Dr, Tuggerah NSW 2259, Australia",
    "suburb": "Shop T26/2 Bryant Dr",
    "state": "NSW",
    "rating": 4.9,
    "reviews": 172,
    "lat": -33.309315,
    "lng": 151.4222172,
    "place_id": "ChIJHcrq9Y7PcmsRMGlb1hOdfi4",
    "maps_url": "https://www.google.com/maps/place/?q=place_id:ChIJHcrq9Y7PcmsRMGlb1hOdfi4"
  },
  {
    "name": "Snooze Erina",
    "address": "6/176 The Entrance Rd, Erina NSW 2250, Australia",
    "suburb": "Erina NSW 2250",
    "state": "NSW",
    "rating": 4.3,
    "reviews": 50,
    "lat": -33.436942,
    "lng": 151.385723,
    "place_id": "ChIJm5mXWHfKcmsRG50XuWqXjUE",
    "maps_url": "https://www.google.com/maps/place/?q=place_id:ChIJm5mXWHfKcmsRG50XuWqXjUE"
  },
  {
    "name": "Original Mattress Factory",
    "address": "Unit 3A, Centuria/356 Manns Rd, West Gosford NSW 2250, Australia",
    "suburb": "Centuria/356 Manns Rd",
    "state": "NSW",
    "rating": 4.9,
    "reviews": 194,
    "lat": -33.423312,
    "lng": 151.321652,
    "place_id": "ChIJFf4teVY1DWsR1f1iF-5ra6Y",
    "maps_url": "https://www.google.com/maps/place/?q=place_id:ChIJFf4teVY1DWsR1f1iF-5ra6Y"
  },
  {
    "name": "Forty Winks Erina",
    "address": "186 The Entrance Rd, Erina NSW 2250, Australia",
    "suburb": "Erina NSW 2250",
    "state": "NSW",
    "rating": 4.4,
    "reviews": 69,
    "lat": -33.4363552,
    "lng": 151.3856592,
    "place_id": "ChIJXUDw_3nKcmsRbSdBS0vgSV4",
    "maps_url": "https://www.google.com/maps/place/?q=place_id:ChIJXUDw_3nKcmsRbSdBS0vgSV4"
  },
  {
    "name": "Sleepy's Tuggerah - Mattress Store",
    "address": "HomeCo. Tuggerah, T35 Bryant Dr &, Wyong Rd, Tuggerah NSW 2259, Australia",
    "suburb": "T35 Bryant Dr &",
    "state": "NSW",
    "rating": 4.9,
    "reviews": 553,
    "lat": -33.3097162,
    "lng": 151.4212472,
    "place_id": "ChIJd9HvmXXOcmsRKKwPcYP_80M",
    "maps_url": "https://www.google.com/maps/place/?q=place_id:ChIJd9HvmXXOcmsRKKwPcYP_80M"
  },
  {
    "name": "Sleeping Giant Tuggerah",
    "address": "2 Bryant Dr, Tuggerah NSW 2259, Australia",
    "suburb": "Tuggerah NSW 2259",
    "state": "NSW",
    "rating": 4.4,
    "reviews": 52,
    "lat": -33.30995170000001,
    "lng": 151.4210523,
    "place_id": "ChIJn3jPyXXOcmsRz0rE05zQ7Bg",
    "maps_url": "https://www.google.com/maps/place/?q=place_id:ChIJn3jPyXXOcmsRz0rE05zQ7Bg"
  },
  {
    "name": "Central Coast Adjustable Beds",
    "address": "1/384 The Entrance Rd, Long Jetty NSW 2261, Australia",
    "suburb": "Long Jetty NSW 2261",
    "state": "NSW",
    "rating": 4.9,
    "reviews": 88,
    "lat": -33.3629311,
    "lng": 151.4809108,
    "place_id": "ChIJ_YLNVbXJcmsRc7dJnwCKkxk",
    "maps_url": "https://www.google.com/maps/place/?q=place_id:ChIJ_YLNVbXJcmsRc7dJnwCKkxk"
  },
  {
    "name": "Lifestyle Mattress and Bedding",
    "address": "103 Blackwall Rd, Woy Woy NSW 2256, Australia",
    "suburb": "Woy Woy NSW 2256",
    "state": "NSW",
    "rating": 5,
    "reviews": 18,
    "lat": -33.4880941,
    "lng": 151.3253753,
    "place_id": "ChIJJalpMElLDWsR_ymwLaSHPMw",
    "maps_url": "https://www.google.com/maps/place/?q=place_id:ChIJJalpMElLDWsR_ymwLaSHPMw"
  },
  {
    "name": "Original Mattress Factory",
    "address": "Cnr Bryant Drive & Wyong Road, Unit 21 Tuggerah Homeco, Tuggerah NSW 2259, Australia",
    "suburb": "Unit 21 Tuggerah Homeco",
    "state": "NSW",
    "rating": 4.9,
    "reviews": 195,
    "lat": -33.3098756,
    "lng": 151.4218673,
    "place_id": "ChIJ_fMa5XXOcmsRVqwkSZfRLJ0",
    "maps_url": "https://www.google.com/maps/place/?q=place_id:ChIJ_fMa5XXOcmsRVqwkSZfRLJ0"
  },
  {
    "name": "Beds n Dreams - Gosford",
    "address": "HomeCo West Gosford, Shop 2/392/398 Manns Rd, West Gosford NSW 2250, Australia",
    "suburb": "Shop 2/392/398 Manns Rd",
    "state": "NSW",
    "rating": 4.5,
    "reviews": 28,
    "lat": -33.4258966,
    "lng": 151.3205356,
    "place_id": "ChIJ8fZn0O9LDWsRIya_mU1Tnlo",
    "maps_url": "https://www.google.com/maps/place/?q=place_id:ChIJ8fZn0O9LDWsRIya_mU1Tnlo"
  },
  {
    "name": "Forty Winks Tuggerah",
    "address": "Super Centre, Unit 01A, Cnr Wyong Rd, Bryant Dr, Tuggerah NSW 2259, Australia",
    "suburb": "Unit 01A",
    "state": "NSW",
    "rating": 4.4,
    "reviews": 28,
    "lat": -33.3092026,
    "lng": 151.4220077,
    "place_id": "ChIJ0woD_DLPcmsRLxrv9GFoTVI",
    "maps_url": "https://www.google.com/maps/place/?q=place_id:ChIJ0woD_DLPcmsRLxrv9GFoTVI"
  },
  {
    "name": "Nik and Jane’s Furniture One - Erina",
    "address": "Shop 11, Karalta Plaza, Karalta Ln, Erina NSW 2250, Australia",
    "suburb": "Karalta Plaza",
    "state": "NSW",
    "rating": 4.1,
    "reviews": 110,
    "lat": -33.4380681,
    "lng": 151.3852016,
    "place_id": "ChIJSQa4enfKcmsRfNWLjyJKnUk",
    "maps_url": "https://www.google.com/maps/place/?q=place_id:ChIJSQa4enfKcmsRfNWLjyJKnUk"
  },
  {
    "name": "Amart West Gosford",
    "address": "7A & 7B, Shop 6A/356 Manns Rd, West Gosford NSW 2250, Australia",
    "suburb": "Shop 6A/356 Manns Rd",
    "state": "NSW",
    "rating": 3.8,
    "reviews": 236,
    "lat": -33.4233549,
    "lng": 151.3218412,
    "place_id": "ChIJCSuVuVU1DWsRDDINmt6TDEI",
    "maps_url": "https://www.google.com/maps/place/?q=place_id:ChIJCSuVuVU1DWsRDDINmt6TDEI"
  },
  {
    "name": "Nick Scali Furniture Tuggerah Central Coast",
    "address": "HomeCo, Unit T05/11 Bryant Dr, Tuggerah NSW 2259, Australia",
    "suburb": "Unit T05/11 Bryant Dr",
    "state": "NSW",
    "rating": 4.4,
    "reviews": 116,
    "lat": -33.3101381,
    "lng": 151.4242249,
    "place_id": "ChIJoXboRnbOcmsRN03_oZWFwtg",
    "maps_url": "https://www.google.com/maps/place/?q=place_id:ChIJoXboRnbOcmsRN03_oZWFwtg"
  },
  {
    "name": "Supreme Furniture",
    "address": "HomeCo Centre, Showroom G3/2 Bryant Dr, Tuggerah NSW 2259, Australia",
    "suburb": "Showroom G3/2 Bryant Dr",
    "state": "NSW",
    "rating": 4.9,
    "reviews": 79,
    "lat": -33.30995170000001,
    "lng": 151.4210523,
    "place_id": "ChIJt3PZFvXPcmsRnjDPRWlB-Eg",
    "maps_url": "https://www.google.com/maps/place/?q=place_id:ChIJt3PZFvXPcmsRnjDPRWlB-Eg"
  },
  {
    "name": "Pillow Talk Tuggerah",
    "address": "HomeCo. Tuggerah Bryant Drive &, Wyong Rd, Tuggerah NSW 2259, Australia",
    "suburb": "Wyong Rd",
    "state": "NSW",
    "rating": 4.3,
    "reviews": 55,
    "lat": -33.3100861,
    "lng": 151.4208905,
    "place_id": "ChIJpWWxowDPcmsR-Ocmgh-C1QY",
    "maps_url": "https://www.google.com/maps/place/?q=place_id:ChIJpWWxowDPcmsR-Ocmgh-C1QY"
  },
  {
    "name": "Fantastic Furniture",
    "address": "Home Consortium, 392-398 Manns Rd, West Gosford NSW 2250, Australia",
    "suburb": "392-398 Manns Rd",
    "state": "NSW",
    "rating": 4.2,
    "reviews": 179,
    "lat": -33.4255918,
    "lng": 151.3207224,
    "place_id": "ChIJbci9N_VLDWsRtkHXbzeJtC8",
    "maps_url": "https://www.google.com/maps/place/?q=place_id:ChIJbci9N_VLDWsRtkHXbzeJtC8"
  },
  {
    "name": "Fantastic Furniture",
    "address": "Tuggerah Super Centre Corner Bryant Drive &, Wyong Rd, Tuggerah NSW 2259, Australia",
    "suburb": "Wyong Rd",
    "state": "NSW",
    "rating": 3.8,
    "reviews": 287,
    "lat": -33.3099272,
    "lng": 151.4209537,
    "place_id": "ChIJT06GM3_OcmsRhjPkOd4qxII",
    "maps_url": "https://www.google.com/maps/place/?q=place_id:ChIJT06GM3_OcmsRhjPkOd4qxII"
  },
  {
    "name": "Sleeping Giant Penrith",
    "address": "Home Consortium Penrith, 72/82 Mulgoa Rd, Penrith NSW 2750, Australia",
    "suburb": "72/82 Mulgoa Rd",
    "state": "NSW",
    "rating": 4.3,
    "reviews": 24,
    "lat": -33.765055,
    "lng": 150.6815662,
    "place_id": "ChIJoeNRVLSIEmsR23-lZKS1hWY",
    "maps_url": "https://www.google.com/maps/place/?q=place_id:ChIJoeNRVLSIEmsR23-lZKS1hWY"
  },
  {
    "name": "Snooze Penrith",
    "address": "Penrith Homemaker Centre, Cnr Mulgoa Road &, Wolseley St, Jamisontown NSW 2750, Australia",
    "suburb": "Cnr Mulgoa Road &",
    "state": "NSW",
    "rating": 4.6,
    "reviews": 132,
    "lat": -33.7697251,
    "lng": 150.6704995,
    "place_id": "ChIJm3Ojv_aFEmsRmu7eweludtU",
    "maps_url": "https://www.google.com/maps/place/?q=place_id:ChIJm3Ojv_aFEmsRmu7eweludtU"
  },
  {
    "name": "Forty Winks Penrith",
    "address": "Penrith Homemaker Centre, Shop 2C Mulgoa Rd, Jamisontown NSW 2750, Australia",
    "suburb": "Shop 2C Mulgoa Rd",
    "state": "NSW",
    "rating": 4.3,
    "reviews": 125,
    "lat": -33.7715523,
    "lng": 150.6714754,
    "place_id": "ChIJ07HheVSPEmsR3GR-a5zKSTg",
    "maps_url": "https://www.google.com/maps/place/?q=place_id:ChIJ07HheVSPEmsR3GR-a5zKSTg"
  },
  {
    "name": "Beds n Dreams - Penrith",
    "address": "310/8 Wolseley Street (Corner of, Homemaker Centre, Mulgoa Rd, Penrith NSW 2750, Australia",
    "suburb": "Homemaker Centre",
    "state": "NSW",
    "rating": 4.6,
    "reviews": 190,
    "lat": -33.7691552,
    "lng": 150.6702128,
    "place_id": "ChIJ4wktl7WIEmsR3azRraeZX10",
    "maps_url": "https://www.google.com/maps/place/?q=place_id:ChIJ4wktl7WIEmsR3azRraeZX10"
  },
  {
    "name": "Original Mattress Factory",
    "address": "Home Consortium Penrith, Shop 3/82 Mulgoa Rd, Jamisontown NSW 2750, Australia",
    "suburb": "Shop 3/82 Mulgoa Rd",
    "state": "NSW",
    "rating": 4.9,
    "reviews": 115,
    "lat": -33.7644895,
    "lng": 150.6825848,
    "place_id": "ChIJd_n7tZmPEmsRyT-H3xopRSA",
    "maps_url": "https://www.google.com/maps/place/?q=place_id:ChIJd_n7tZmPEmsRyT-H3xopRSA"
  },
  {
    "name": "Sleeping Giant Penrith Clearance",
    "address": "138 Blaikie Rd, Penrith NSW 2750, Australia",
    "suburb": "Penrith NSW 2750",
    "state": "NSW",
    "rating": 4,
    "reviews": 15,
    "lat": -33.7678317,
    "lng": 150.6751289,
    "place_id": "ChIJu27OtbSIEmsRvhfoOst7IQk",
    "maps_url": "https://www.google.com/maps/place/?q=place_id:ChIJu27OtbSIEmsRvhfoOst7IQk"
  },
  {
    "name": "Penrith Homemaker",
    "address": "Wolseley St, Jamisontown NSW 2749, Australia",
    "suburb": "Jamisontown NSW 2749",
    "state": "NSW",
    "rating": 4.3,
    "reviews": 2912,
    "lat": -33.76988170000001,
    "lng": 150.6708825,
    "place_id": "ChIJJ4VvxrWIEmsRiuFDLqM4hoc",
    "maps_url": "https://www.google.com/maps/place/?q=place_id:ChIJJ4VvxrWIEmsRiuFDLqM4hoc"
  },
  {
    "name": "Pillow Talk Penrith",
    "address": "Penrith Homemaker Centre Cnr Mulgoa Road &, Wolseley St, Jamisontown NSW 2750, Australia",
    "suburb": "Wolseley St",
    "state": "NSW",
    "rating": 4.9,
    "reviews": 157,
    "lat": -33.7701175,
    "lng": 150.6706261,
    "place_id": "ChIJNd3xm2SJEmsRvKRjKkLBL-Q",
    "maps_url": "https://www.google.com/maps/place/?q=place_id:ChIJNd3xm2SJEmsRvKRjKkLBL-Q"
  },
  {
    "name": "Amart Penrith",
    "address": "241 Mulgoa Rd, Penrith NSW 2750, Australia",
    "suburb": "Penrith NSW 2750",
    "state": "NSW",
    "rating": 3.6,
    "reviews": 381,
    "lat": -33.7678651,
    "lng": 150.6768459,
    "place_id": "ChIJayIhW0uPEmsRNXXKzuCTDsQ",
    "maps_url": "https://www.google.com/maps/place/?q=place_id:ChIJayIhW0uPEmsRNXXKzuCTDsQ"
  },
  {
    "name": "Ab Fab Furniture ( Office & warehouse )",
    "address": "40 Cassola Pl, Penrith NSW 2750, Australia",
    "suburb": "Penrith NSW 2750",
    "state": "NSW",
    "rating": 4.6,
    "reviews": 46,
    "lat": -33.7355231,
    "lng": 150.6883843,
    "place_id": "ChIJ2-oH2cCFEmsRl2QebiWDuZo",
    "maps_url": "https://www.google.com/maps/place/?q=place_id:ChIJ2-oH2cCFEmsRl2QebiWDuZo"
  },
  {
    "name": "Freedom - Penrith",
    "address": "Tenancy 1/82 Mulgoa Rd, Jamisontown NSW 2750, Australia",
    "suburb": "Jamisontown NSW 2750",
    "state": "NSW",
    "rating": 3.7,
    "reviews": 114,
    "lat": -33.7650527,
    "lng": 150.6815185,
    "place_id": "ChIJOXbk5n6PEmsRMXQoQV84cYk",
    "maps_url": "https://www.google.com/maps/place/?q=place_id:ChIJOXbk5n6PEmsRMXQoQV84cYk"
  },
  {
    "name": "James Lane Penrith",
    "address": "82, shop 2a/72 Mulgoa Rd, Penrith NSW 2750, Australia",
    "suburb": "shop 2a/72 Mulgoa Rd",
    "state": "NSW",
    "rating": 4.7,
    "reviews": 76,
    "lat": -33.76362659999999,
    "lng": 150.6823651,
    "place_id": "ChIJSXtAlXqPEmsRbiTic84YNcM",
    "maps_url": "https://www.google.com/maps/place/?q=place_id:ChIJSXtAlXqPEmsRbiTic84YNcM"
  },
  {
    "name": "Sheridan Outlet Penrith",
    "address": "Unit 4/109-127 Batt St, Jamisontown NSW 2750, Australia",
    "suburb": "Jamisontown NSW 2750",
    "state": "NSW",
    "rating": 4.2,
    "reviews": 54,
    "lat": -33.7668664,
    "lng": 150.6811838,
    "place_id": "ChIJp5wknU6PEmsR0sadC1Od8vw",
    "maps_url": "https://www.google.com/maps/place/?q=place_id:ChIJp5wknU6PEmsR0sadC1Od8vw"
  },
  {
    "name": "Home Furniture OUTLET",
    "address": "61-79 Henry St Shop 2B, Penrith NSW 2750, Australia",
    "suburb": "Penrith NSW 2750",
    "state": "NSW",
    "rating": 4.9,
    "reviews": 299,
    "lat": -33.7528595,
    "lng": 150.7006691,
    "place_id": "ChIJF_ByzzeFEmsRtwTB--JDV-0",
    "maps_url": "https://www.google.com/maps/place/?q=place_id:ChIJF_ByzzeFEmsRtwTB--JDV-0"
  },
  {
    "name": "Harvey Norman Penrith",
    "address": "Cnr Wolseley St &, Penrith Homemaker Centre, Unit 1B Mulgoa Rd, Jamisontown NSW 2750, Australia",
    "suburb": "Penrith Homemaker Centre",
    "state": "NSW",
    "rating": 4,
    "reviews": 1220,
    "lat": -33.7714828,
    "lng": 150.6704555,
    "place_id": "ChIJFRPcQLWIEmsRcXT8qmngXvI",
    "maps_url": "https://www.google.com/maps/place/?q=place_id:ChIJFRPcQLWIEmsRcXT8qmngXvI"
  },
  {
    "name": "Clearance Furniture Warehouse",
    "address": "70 Mulgoa Rd, Jamisontown NSW 2750, Australia",
    "suburb": "Jamisontown NSW 2750",
    "state": "NSW",
    "rating": 4.7,
    "reviews": 37,
    "lat": -33.7635507,
    "lng": 150.6830422,
    "place_id": "ChIJccPnhL2PEmsRudqbBkcFVZw",
    "maps_url": "https://www.google.com/maps/place/?q=place_id:ChIJccPnhL2PEmsRudqbBkcFVZw"
  },
  {
    "name": "1825 Interiors - Furniture Store Penrith",
    "address": "88 Mulgoa Rd, Penrith NSW 2750, Australia",
    "suburb": "Penrith NSW 2750",
    "state": "NSW",
    "rating": 4.7,
    "reviews": 64,
    "lat": -33.7662124,
    "lng": 150.6808319,
    "place_id": "ChIJ-0lBK0yPEmsR-QJ7eqi25wI",
    "maps_url": "https://www.google.com/maps/place/?q=place_id:ChIJ-0lBK0yPEmsR-QJ7eqi25wI"
  },
  {
    "name": "Fantastic Furniture",
    "address": "Homemaker Centre, 13-23 Pattys Pl, Penrith NSW 2750, Australia",
    "suburb": "13-23 Pattys Pl",
    "state": "NSW",
    "rating": 3.9,
    "reviews": 303,
    "lat": -33.7689586,
    "lng": 150.6704307,
    "place_id": "ChIJt7hb-k2PEmsRSyh8xbDD_zg",
    "maps_url": "https://www.google.com/maps/place/?q=place_id:ChIJt7hb-k2PEmsRSyh8xbDD_zg"
  },
  {
    "name": "James Lane Penrith Clearance",
    "address": "Shop 2/138 Blaikie Rd, Jamisontown NSW 2750, Australia",
    "suburb": "Jamisontown NSW 2750",
    "state": "NSW",
    "rating": 4.2,
    "reviews": 20,
    "lat": -33.7681,
    "lng": 150.675091,
    "place_id": "ChIJAwXKVkuPEmsRHrT01wdb5-o",
    "maps_url": "https://www.google.com/maps/place/?q=place_id:ChIJAwXKVkuPEmsRHrT01wdb5-o"
  },
  {
    "name": "HomeCo. Penrith",
    "address": "72/82 Mulgoa Rd, Penrith NSW 2750, Australia",
    "suburb": "Penrith NSW 2750",
    "state": "NSW",
    "rating": 4.3,
    "reviews": 285,
    "lat": -33.765022,
    "lng": 150.6815422,
    "place_id": "ChIJv6ai31GPEmsRFGnn36rXWc4",
    "maps_url": "https://www.google.com/maps/place/?q=place_id:ChIJv6ai31GPEmsRFGnn36rXWc4"
  },
  {
    "name": "Original Mattress Factory",
    "address": "Homebase, Shop 1b/19 Stoddart Rd, Prospect NSW 2148, Australia",
    "suburb": "Shop 1b/19 Stoddart Rd",
    "state": "NSW",
    "rating": 4.7,
    "reviews": 280,
    "lat": -33.8002632,
    "lng": 150.9187519,
    "place_id": "ChIJz5cAnjCYEmsRwVtoZ-YdRe8",
    "maps_url": "https://www.google.com/maps/place/?q=place_id:ChIJz5cAnjCYEmsRwVtoZ-YdRe8"
  },
  {
    "name": "Snooze Prospect",
    "address": "7/19 Stoddart Rd, Prospect NSW 2148, Australia",
    "suburb": "Prospect NSW 2148",
    "state": "NSW",
    "rating": 4.5,
    "reviews": 261,
    "lat": -33.801591,
    "lng": 150.9184693,
    "place_id": "ChIJz5cAnjCYEmsRIl3xq1XlD2U",
    "maps_url": "https://www.google.com/maps/place/?q=place_id:ChIJz5cAnjCYEmsRIl3xq1XlD2U"
  },
  {
    "name": "Bedding King Blacktown",
    "address": "near JB Hi-Fi, Westpoint, Shop 2071 - Level 2, Blacktown NSW 2148, Australia",
    "suburb": "Westpoint",
    "state": "NSW",
    "rating": 5,
    "reviews": 2,
    "lat": -33.7660982,
    "lng": 150.9126927,
    "place_id": "ChIJFUxHl5KZEmsR0KQrTU-axSc",
    "maps_url": "https://www.google.com/maps/place/?q=place_id:ChIJFUxHl5KZEmsR0KQrTU-axSc"
  },
  {
    "name": "Harvey Norman Blacktown",
    "address": "Unit C5 Bungarribee Rd, Blacktown NSW 2148, Australia",
    "suburb": "Blacktown NSW 2148",
    "state": "NSW",
    "rating": 3.5,
    "reviews": 959,
    "lat": -33.78029739999999,
    "lng": 150.9185946,
    "place_id": "ChIJ8U8ijFCYEmsRjmdf7Mexl40",
    "maps_url": "https://www.google.com/maps/place/?q=place_id:ChIJ8U8ijFCYEmsRjmdf7Mexl40"
  },
  {
    "name": "Kmart Blacktown",
    "address": "28 Patrick St, Blacktown NSW 2148, Australia",
    "suburb": "Blacktown NSW 2148",
    "state": "NSW",
    "rating": 4.1,
    "reviews": 5925,
    "lat": -33.7725022,
    "lng": 150.9063131,
    "place_id": "ChIJFzaLvKqZEmsR6msgh_nIYX0",
    "maps_url": "https://www.google.com/maps/place/?q=place_id:ChIJFzaLvKqZEmsR6msgh_nIYX0"
  },
  {
    "name": "Forty Winks Prospect",
    "address": "Homemaker Prospect, Tenancy 15/19 Stoddart Rd, Prospect NSW 2148, Australia",
    "suburb": "Tenancy 15/19 Stoddart Rd",
    "state": "NSW",
    "rating": 4.8,
    "reviews": 20,
    "lat": -33.8010802,
    "lng": 150.9199623,
    "place_id": "ChIJJ4Yb_oaZEmsRRmaRHHoGmVk",
    "maps_url": "https://www.google.com/maps/place/?q=place_id:ChIJJ4Yb_oaZEmsRRmaRHHoGmVk"
  },
  {
    "name": "Mattresses in Black - Wetherill Park",
    "address": "Warehouse Showroom 24/130 Hassall St, Wetherill Park NSW 2164, Australia",
    "suburb": "Wetherill Park NSW 2164",
    "state": "NSW",
    "rating": 4.6,
    "reviews": 30,
    "lat": -33.841027,
    "lng": 150.9138632,
    "place_id": "ChIJDe2f9QeXEmsRmAkRHreAMpM",
    "maps_url": "https://www.google.com/maps/place/?q=place_id:ChIJDe2f9QeXEmsRmAkRHreAMpM"
  },
  {
    "name": "OZ Furniture Store Blacktown",
    "address": "Unit 20-22, Building/47 Third Ave, Blacktown NSW 2148, Australia",
    "suburb": "Building/47 Third Ave",
    "state": "NSW",
    "rating": 3.7,
    "reviews": 175,
    "lat": -33.7648254,
    "lng": 150.9073031,
    "place_id": "ChIJy2nEXh6ZEmsRhGUZW-QDUk8",
    "maps_url": "https://www.google.com/maps/place/?q=place_id:ChIJy2nEXh6ZEmsRhGUZW-QDUk8"
  },
  {
    "name": "BIG W Blacktown",
    "address": "17 Patrick St, Blacktown NSW 2148, Australia",
    "suburb": "Blacktown NSW 2148",
    "state": "NSW",
    "rating": 4.1,
    "reviews": 1691,
    "lat": -33.7702595,
    "lng": 150.9073071,
    "place_id": "ChIJS8mwHQCZEmsRr8qAyP_gMpk",
    "maps_url": "https://www.google.com/maps/place/?q=place_id:ChIJS8mwHQCZEmsRr8qAyP_gMpk"
  },
  {
    "name": "Beds R Us - Wetherill Park",
    "address": "Greenway Plaza & Homemaker Greenway, Unit 70/71/1183 The Horsley Dr, Wetherill Park NSW 2164, Australia",
    "suburb": "Unit 70/71/1183 The Horsley Dr",
    "state": "NSW",
    "rating": 4.7,
    "reviews": 203,
    "lat": -33.8497558,
    "lng": 150.8986118,
    "place_id": "ChIJIV3yfAKXEmsR4FSSoemyVV0",
    "maps_url": "https://www.google.com/maps/place/?q=place_id:ChIJIV3yfAKXEmsR4FSSoemyVV0"
  },
  {
    "name": "Blacktown Mega Centre",
    "address": "14 St Martins Cres, Blacktown NSW 2148, Australia",
    "suburb": "Blacktown NSW 2148",
    "state": "NSW",
    "rating": 4.1,
    "reviews": 2770,
    "lat": -33.7812024,
    "lng": 150.9189913,
    "place_id": "ChIJ2TDHe1qYEmsR0I1VSbQ1JNY",
    "maps_url": "https://www.google.com/maps/place/?q=place_id:ChIJ2TDHe1qYEmsR0I1VSbQ1JNY"
  },
  {
    "name": "Best in Beds",
    "address": "27 Rowood Rd, Prospect NSW 2148, Australia",
    "suburb": "Prospect NSW 2148",
    "state": "NSW",
    "rating": 4.9,
    "reviews": 63,
    "lat": -33.8017657,
    "lng": 150.9201441,
    "place_id": "ChIJNWmB6tyZEmsR9dwLcFcWzog",
    "maps_url": "https://www.google.com/maps/place/?q=place_id:ChIJNWmB6tyZEmsR9dwLcFcWzog"
  },
  {
    "name": "Harris Scarfe Blacktown (Homewares, Manchester & Apparel)",
    "address": "T2078/17 Patrick St, Blacktown NSW 2148, Australia",
    "suburb": "Blacktown NSW 2148",
    "state": "NSW",
    "rating": 3.7,
    "reviews": 66,
    "lat": -33.7696913,
    "lng": 150.9046428,
    "place_id": "ChIJq39vk7iZEmsRh3uMutdlaeQ",
    "maps_url": "https://www.google.com/maps/place/?q=place_id:ChIJq39vk7iZEmsRh3uMutdlaeQ"
  },
  {
    "name": "Bed Bath N' Table Blacktown",
    "address": "Westpoint Shopping Centre, Shop T1057/17 Patrick St, Blacktown NSW 2148, Australia",
    "suburb": "Shop T1057/17 Patrick St",
    "state": "NSW",
    "rating": 4.3,
    "reviews": 28,
    "lat": -33.770378,
    "lng": 150.9061415,
    "place_id": "ChIJKZIgcwCZEmsRKBtwceQ3sWU",
    "maps_url": "https://www.google.com/maps/place/?q=place_id:ChIJKZIgcwCZEmsRKBtwceQ3sWU"
  },
  {
    "name": "Amart Prospect",
    "address": "1 Rowood Rd, Prospect NSW 2148, Australia",
    "suburb": "Prospect NSW 2148",
    "state": "NSW",
    "rating": 3.7,
    "reviews": 570,
    "lat": -33.8012308,
    "lng": 150.9269162,
    "place_id": "ChIJg7iRJjyYEmsR0hdFGu5932c",
    "maps_url": "https://www.google.com/maps/place/?q=place_id:ChIJg7iRJjyYEmsR0hdFGu5932c"
  },
  {
    "name": "Homemaker Prospect",
    "address": "19 Stoddart Rd, Prospect NSW 2148, Australia",
    "suburb": "Prospect NSW 2148",
    "state": "NSW",
    "rating": 4.1,
    "reviews": 1142,
    "lat": -33.8013896,
    "lng": 150.919463,
    "place_id": "ChIJCVLynTCYEmsRQCnz-Wh9AQ8",
    "maps_url": "https://www.google.com/maps/place/?q=place_id:ChIJCVLynTCYEmsRQCnz-Wh9AQ8"
  },
  {
    "name": "Fantastic Furniture",
    "address": "Homemaker Prospect, 19 Stoddart Rd, Prospect NSW 2148, Australia",
    "suburb": "19 Stoddart Rd",
    "state": "NSW",
    "rating": 3.9,
    "reviews": 516,
    "lat": -33.8002654,
    "lng": 150.9188797,
    "place_id": "ChIJz5cAnjCYEmsRlieJRuvKgIE",
    "maps_url": "https://www.google.com/maps/place/?q=place_id:ChIJz5cAnjCYEmsRlieJRuvKgIE"
  },
  {
    "name": "Target Blacktown",
    "address": "Alpha St, Blacktown NSW 2148, Australia",
    "suburb": "Blacktown NSW 2148",
    "state": "NSW",
    "rating": 4.1,
    "reviews": 942,
    "lat": -33.7702953,
    "lng": 150.9072982,
    "place_id": "ChIJAYaLl6qZEmsR-D4kRGYPlbI",
    "maps_url": "https://www.google.com/maps/place/?q=place_id:ChIJAYaLl6qZEmsR-D4kRGYPlbI"
  },
  {
    "name": "Beds Online NSW warehouse",
    "address": "Part A, Unit 1A, Business Park, 13 Bessemer St, Blacktown NSW 2148, Australia",
    "suburb": "Unit 1A",
    "state": "NSW",
    "rating": 2.8,
    "reviews": 4,
    "lat": -33.7556642,
    "lng": 150.9048859,
    "place_id": "ChIJFf7DKcKZEmsR9OplYQ3ZNuI",
    "maps_url": "https://www.google.com/maps/place/?q=place_id:ChIJFf7DKcKZEmsR9OplYQ3ZNuI"
  },
  {
    "name": "Bedding King - Best Bedding Store",
    "address": "18 Peter Brock Dr, Eastern Creek NSW 2766, Australia",
    "suburb": "Eastern Creek NSW 2766",
    "state": "NSW",
    "rating": 4.5,
    "reviews": 191,
    "lat": -33.8027702,
    "lng": 150.8745658,
    "place_id": "ChIJ0fpkhc-ZEmsRsfe-HhpG3iU",
    "maps_url": "https://www.google.com/maps/place/?q=place_id:ChIJ0fpkhc-ZEmsRsfe-HhpG3iU"
  },
  {
    "name": "Lj Bedding and Furniture",
    "address": "255-257 George St, Liverpool NSW 2170, Australia",
    "suburb": "Liverpool NSW 2170",
    "state": "NSW",
    "rating": 4.9,
    "reviews": 134,
    "lat": -33.9243374,
    "lng": 150.9244361,
    "place_id": "ChIJdc6F_LuVEmsRLMcxSck1xUs",
    "maps_url": "https://www.google.com/maps/place/?q=place_id:ChIJdc6F_LuVEmsRLMcxSck1xUs"
  },
  {
    "name": "Sleeping Giant Liverpool",
    "address": "The Grove Homemaker Centre, Shop 5 2/18 Orange Grove Rd, Liverpool NSW 2170, Australia",
    "suburb": "Shop 5 2/18 Orange Grove Rd",
    "state": "NSW",
    "rating": 4.4,
    "reviews": 76,
    "lat": -33.90759,
    "lng": 150.9199396,
    "place_id": "ChIJMQVI8c-VEmsR7rd2YomctTw",
    "maps_url": "https://www.google.com/maps/place/?q=place_id:ChIJMQVI8c-VEmsR7rd2YomctTw"
  },
  {
    "name": "Forty Winks Liverpool",
    "address": "Shop 3, Crossroads Homemaker Centre, Cnr Camden Valley Way, Beech Rd, Casula NSW 2170, Australia",
    "suburb": "Crossroads Homemaker Centre",
    "state": "NSW",
    "rating": 4,
    "reviews": 93,
    "lat": -33.9578162,
    "lng": 150.8795596,
    "place_id": "ChIJ99xSKMWVEmsR_nhokxAX06w",
    "maps_url": "https://www.google.com/maps/place/?q=place_id:ChIJ99xSKMWVEmsR_nhokxAX06w"
  },
  {
    "name": "Bedding King Liverpool",
    "address": "Level 1, Near Myer entrance, Shop 176/7 Macquarie St, Liverpool NSW 2170, Australia",
    "suburb": "Near Myer entrance",
    "state": "NSW",
    "rating": 5,
    "reviews": 8,
    "lat": -33.9167112,
    "lng": 150.9247676,
    "place_id": "ChIJWXMtCZGVEmsRNvtfcvuX6V8",
    "maps_url": "https://www.google.com/maps/place/?q=place_id:ChIJWXMtCZGVEmsRNvtfcvuX6V8"
  },
  {
    "name": "Harvey Norman Liverpool",
    "address": "Mega Centre, Shop R19/18 Orange Grove Rd, Liverpool NSW 2170, Australia",
    "suburb": "Shop R19/18 Orange Grove Rd",
    "state": "NSW",
    "rating": 3.8,
    "reviews": 1471,
    "lat": -33.9063548,
    "lng": 150.9192758,
    "place_id": "ChIJXWLWq9qVEmsRTryS0CGLx2E",
    "maps_url": "https://www.google.com/maps/place/?q=place_id:ChIJXWLWq9qVEmsRTryS0CGLx2E"
  },
  {
    "name": "Snooze Crossroads",
    "address": "Crossroads Homemaker Centre Cnr of Beech Rd &, Camden Valley Wy, Casula NSW 2170, Australia",
    "suburb": "Camden Valley Wy",
    "state": "NSW",
    "rating": 4.8,
    "reviews": 373,
    "lat": -33.9580547,
    "lng": 150.8813746,
    "place_id": "ChIJHTxUq7eUEmsRRiZMy4qB_7k",
    "maps_url": "https://www.google.com/maps/place/?q=place_id:ChIJHTxUq7eUEmsRRiZMy4qB_7k"
  },
  {
    "name": "Original Mattress Factory",
    "address": "Unit 4A/25 Parkers Farm Place The Crossroads Homemaker Centre, Casula NSW 2170, Australia",
    "suburb": "Casula NSW 2170",
    "state": "NSW",
    "rating": 4.9,
    "reviews": 510,
    "lat": -33.9577966,
    "lng": 150.8794065,
    "place_id": "ChIJ_5W02bmUEmsRtjhtgcJg1V8",
    "maps_url": "https://www.google.com/maps/place/?q=place_id:ChIJ_5W02bmUEmsRtjhtgcJg1V8"
  },
  {
    "name": "The Grove Homemaker Centre",
    "address": "Shop R19/18 Orange Grove Rd, Liverpool NSW 2170, Australia",
    "suburb": "Liverpool NSW 2170",
    "state": "NSW",
    "rating": 4.1,
    "reviews": 2097,
    "lat": -33.9065734,
    "lng": 150.9204442,
    "place_id": "ChIJi_gSxNqVEmsR4C3z-Wh9AQ8",
    "maps_url": "https://www.google.com/maps/place/?q=place_id:ChIJi_gSxNqVEmsR4C3z-Wh9AQ8"
  },
  {
    "name": "Bamboo Home Bedding",
    "address": "Westfield Liverpool, Shop 142/3 Macquarie St, Liverpool NSW 2170, Australia",
    "suburb": "Shop 142/3 Macquarie St",
    "state": "NSW",
    "rating": 3.6,
    "reviews": 25,
    "lat": -33.9190825,
    "lng": 150.9236221,
    "place_id": "ChIJU8UkNUCVEmsRwbw-37MEKIM",
    "maps_url": "https://www.google.com/maps/place/?q=place_id:ChIJU8UkNUCVEmsRwbw-37MEKIM"
  },
  {
    "name": "Home Harbor Liverpool",
    "address": "shop 16-18/18 Orange Grove Rd, Liverpool NSW 2170, Australia",
    "suburb": "Liverpool NSW 2170",
    "state": "NSW",
    "rating": 4.9,
    "reviews": 111,
    "lat": -33.9076,
    "lng": 150.9199199,
    "place_id": "ChIJk8SM0iiVEmsRc09g5fZltkc",
    "maps_url": "https://www.google.com/maps/place/?q=place_id:ChIJk8SM0iiVEmsRc09g5fZltkc"
  },
  {
    "name": "Rest Easy Bedding and Furniture",
    "address": "Unit 12/264 Hoxton Park Rd, Prestons NSW 2170, Australia",
    "suburb": "Prestons NSW 2170",
    "state": "NSW",
    "rating": 4.7,
    "reviews": 43,
    "lat": -33.9287796,
    "lng": 150.8913564,
    "place_id": "ChIJ4WgmaEGVEmsRg5XKmh__g04",
    "maps_url": "https://www.google.com/maps/place/?q=place_id:ChIJ4WgmaEGVEmsRg5XKmh__g04"
  },
  {
    "name": "Domayne Liverpool",
    "address": "Shop R19/18 Orange Grove Rd, Liverpool NSW 2170, Australia",
    "suburb": "Liverpool NSW 2170",
    "state": "NSW",
    "rating": 4,
    "reviews": 181,
    "lat": -33.9065001,
    "lng": 150.9203063,
    "place_id": "ChIJqbnSSsWVEmsR_1fLHursRiI",
    "maps_url": "https://www.google.com/maps/place/?q=place_id:ChIJqbnSSsWVEmsR_1fLHursRiI"
  },
  {
    "name": "Bed Bath N' Table Sydney Outlet Village Liverpool",
    "address": "Sydney Outlet Village, Shop 35 36/5 Viscount Pl, Liverpool NSW 2170, Australia",
    "suburb": "Shop 35 36/5 Viscount Pl",
    "state": "NSW",
    "rating": 2.8,
    "reviews": 34,
    "lat": -33.9081355,
    "lng": 150.9218257,
    "place_id": "ChIJs0NQKMWVEmsRKURybINh-e4",
    "maps_url": "https://www.google.com/maps/place/?q=place_id:ChIJs0NQKMWVEmsRKURybINh-e4"
  },
  {
    "name": "OZ Furniture Store Liverpool",
    "address": "Shop 25, 2/18 Orange Grove Rd, Liverpool NSW 2170, Australia",
    "suburb": "2/18 Orange Grove Rd",
    "state": "NSW",
    "rating": 3.7,
    "reviews": 83,
    "lat": -33.9065001,
    "lng": 150.9203063,
    "place_id": "ChIJ2ZJEEJiVEmsR3mMxTF75ne4",
    "maps_url": "https://www.google.com/maps/place/?q=place_id:ChIJ2ZJEEJiVEmsR3mMxTF75ne4"
  },
  {
    "name": "James Lane Liverpool",
    "address": "The Grove Homemaker Centre, Shops 3 - 5 2/18 Orange Grove Rd, Liverpool NSW 2170, Australia",
    "suburb": "Shops 3 - 5 2/18 Orange Grove Rd",
    "state": "NSW",
    "rating": 4.2,
    "reviews": 41,
    "lat": -33.9075901,
    "lng": 150.9199196,
    "place_id": "ChIJzSLD-9qVEmsR6plGaEDkjWc",
    "maps_url": "https://www.google.com/maps/place/?q=place_id:ChIJzSLD-9qVEmsR6plGaEDkjWc"
  },
  {
    "name": "Sleeping Giant Campbelltown",
    "address": "shop 6/4 Blaxland Rd, Campbelltown NSW 2560, Australia",
    "suburb": "Campbelltown NSW 2560",
    "state": "NSW",
    "rating": 4,
    "reviews": 44,
    "lat": -34.0537147,
    "lng": 150.8231964,
    "place_id": "ChIJdVA-xozuEmsRsyFOIXa11nI",
    "maps_url": "https://www.google.com/maps/place/?q=place_id:ChIJdVA-xozuEmsRsyFOIXa11nI"
  },
  {
    "name": "The Sleep Doctor Campbelltown",
    "address": "2/18 Blaxland Rd, Campbelltown NSW 2560, Australia",
    "suburb": "Campbelltown NSW 2560",
    "state": "NSW",
    "rating": 4.7,
    "reviews": 94,
    "lat": -34.0557969,
    "lng": 150.8198618,
    "place_id": "ChIJ1am-AI3uEmsRj-KJMdCni3U",
    "maps_url": "https://www.google.com/maps/place/?q=place_id:ChIJ1am-AI3uEmsRj-KJMdCni3U"
  },
  {
    "name": "Forty Winks Campbelltown",
    "address": "Unit 4/24 Blaxland Rd, Campbelltown NSW 2560, Australia",
    "suburb": "Campbelltown NSW 2560",
    "state": "NSW",
    "rating": 4.6,
    "reviews": 147,
    "lat": -34.0589879,
    "lng": 150.8166546,
    "place_id": "ChIJ36WS2PXuEmsRoYQCXW2pFxo",
    "maps_url": "https://www.google.com/maps/place/?q=place_id:ChIJ36WS2PXuEmsRoYQCXW2pFxo"
  },
  {
    "name": "Original Mattress Factory",
    "address": "Campbelltown Homebase, Shop 3/24 Blaxland Rd, Campbelltown NSW 2560, Australia",
    "suburb": "Shop 3/24 Blaxland Rd",
    "state": "NSW",
    "rating": 4.7,
    "reviews": 29,
    "lat": -34.0583458,
    "lng": 150.8166931,
    "place_id": "ChIJSc3379nvEmsRzKOlqCCdl8Y",
    "maps_url": "https://www.google.com/maps/place/?q=place_id:ChIJSc3379nvEmsRzKOlqCCdl8Y"
  },
  {
    "name": "Beds R Us - Campbelltown",
    "address": "Unit 1 B/22B Blaxland Rd, Campbelltown NSW 2560, Australia",
    "suburb": "Campbelltown NSW 2560",
    "state": "NSW",
    "rating": 4.6,
    "reviews": 118,
    "lat": -34.0580826,
    "lng": 150.8168286,
    "place_id": "ChIJB_S6o_TuEmsRoMeaqQNcDxk",
    "maps_url": "https://www.google.com/maps/place/?q=place_id:ChIJB_S6o_TuEmsRoMeaqQNcDxk"
  },
  {
    "name": "Best in Beds",
    "address": "20 Blaxland Rd, Campbelltown NSW 2560, Australia",
    "suburb": "Campbelltown NSW 2560",
    "state": "NSW",
    "rating": 4.7,
    "reviews": 265,
    "lat": -34.0560831,
    "lng": 150.8193985,
    "place_id": "ChIJ36WS2PXuEmsRiW35epR_cj8",
    "maps_url": "https://www.google.com/maps/place/?q=place_id:ChIJ36WS2PXuEmsRiW35epR_cj8"
  },
  {
    "name": "Snooze Campbelltown",
    "address": "22 Blaxland Rd, Campbelltown NSW 2560, Australia",
    "suburb": "Campbelltown NSW 2560",
    "state": "NSW",
    "rating": 4.4,
    "reviews": 102,
    "lat": -34.0570562,
    "lng": 150.8183096,
    "place_id": "ChIJ5YCHpYzuEmsRh9Tg5zZmZ2c",
    "maps_url": "https://www.google.com/maps/place/?q=place_id:ChIJ5YCHpYzuEmsRh9Tg5zZmZ2c"
  },
  {
    "name": "Amart Campbelltown",
    "address": "3/7 Blaxland Rd, Campbelltown NSW 2560, Australia",
    "suburb": "Campbelltown NSW 2560",
    "state": "NSW",
    "rating": 3.8,
    "reviews": 382,
    "lat": -34.0562791,
    "lng": 150.8176234,
    "place_id": "ChIJwbp5_PTuEmsRNYDqqyRmxP4",
    "maps_url": "https://www.google.com/maps/place/?q=place_id:ChIJwbp5_PTuEmsRNYDqqyRmxP4"
  },
  {
    "name": "Sydney Furniture Factory",
    "address": "4 Nursery Rd, Campbelltown NSW 2560, Australia",
    "suburb": "Campbelltown NSW 2560",
    "state": "NSW",
    "rating": 4.8,
    "reviews": 511,
    "lat": -34.0574194,
    "lng": 150.8090323,
    "place_id": "ChIJJVR8io6UEmsRFFSNbsSTvcI",
    "maps_url": "https://www.google.com/maps/place/?q=place_id:ChIJJVR8io6UEmsRFFSNbsSTvcI"
  },
  {
    "name": "Mattress by Appointment Macarthur",
    "address": "Unit 7/70 Topham Rd, Smeaton Grange NSW 2567, Australia",
    "suburb": "Smeaton Grange NSW 2567",
    "state": "NSW",
    "rating": 5,
    "reviews": 64,
    "lat": -34.0374229,
    "lng": 150.7566548,
    "place_id": "ChIJw3iQxeHxEmsRdAMBmEE4vB4",
    "maps_url": "https://www.google.com/maps/place/?q=place_id:ChIJw3iQxeHxEmsRdAMBmEE4vB4"
  },
  {
    "name": "Koala Second Home - Furniture Recovery and Factory Outlet",
    "address": "1 Kellicar Rd, Campbelltown NSW 2560, Australia",
    "suburb": "Campbelltown NSW 2560",
    "state": "NSW",
    "rating": 4.3,
    "reviews": 91,
    "lat": -34.072692,
    "lng": 150.8018991,
    "place_id": "ChIJqeMiLAjvEmsRXbeFBaipvV0",
    "maps_url": "https://www.google.com/maps/place/?q=place_id:ChIJqeMiLAjvEmsRXbeFBaipvV0"
  },
  {
    "name": "Morrison Mattress Factory",
    "address": "Unit 2/8 Rose St, Campbelltown NSW 2560, Australia",
    "suburb": "Campbelltown NSW 2560",
    "state": "NSW",
    "rating": 5,
    "reviews": 1,
    "lat": -34.0575334,
    "lng": 150.8190087,
    "place_id": "ChIJZZ83RpbvEmsRyxjmsTUkDf0",
    "maps_url": "https://www.google.com/maps/place/?q=place_id:ChIJZZ83RpbvEmsRyxjmsTUkDf0"
  },
  {
    "name": "Harbour Lane Clearance Centre Campbelltown",
    "address": "10B/17 Blaxland Serviceway, Campbelltown NSW 2560, Australia",
    "suburb": "Campbelltown NSW 2560",
    "state": "NSW",
    "rating": 4.2,
    "reviews": 55,
    "lat": -34.0540061,
    "lng": 150.8208864,
    "place_id": "ChIJKTeAW6HvEmsR-wH1Av0icaQ",
    "maps_url": "https://www.google.com/maps/place/?q=place_id:ChIJKTeAW6HvEmsR-wH1Av0icaQ"
  },
  {
    "name": "Pillow Talk Campbelltown",
    "address": "Macarthur Square Shopping Centre, Store L087, Level 2/200 Gilchrist Dr, Campbelltown NSW 2560, Australia",
    "suburb": "Store L087",
    "state": "NSW",
    "rating": 4.9,
    "reviews": 157,
    "lat": -34.0734202,
    "lng": 150.7970923,
    "place_id": "ChIJ-dAbH6rvEmsR9rS-JMGa0iY",
    "maps_url": "https://www.google.com/maps/place/?q=place_id:ChIJ-dAbH6rvEmsR9rS-JMGa0iY"
  },
  {
    "name": "Bedding",
    "address": "2560 & 5, 4/10 Blaxland Rd, Campbelltown NSW 2560, Australia",
    "suburb": "4/10 Blaxland Rd",
    "state": "NSW",
    "rating": 4,
    "reviews": 4,
    "lat": -34.0551091,
    "lng": 150.8214244,
    "place_id": "ChIJH5RqSXHvEmsRVoU0Q7vHe9E",
    "maps_url": "https://www.google.com/maps/place/?q=place_id:ChIJH5RqSXHvEmsRVoU0Q7vHe9E"
  },
  {
    "name": "James Lane Campbelltown",
    "address": "1/17 Blaxland Serviceway, Campbelltown NSW 2560, Australia",
    "suburb": "Campbelltown NSW 2560",
    "state": "NSW",
    "rating": 4.5,
    "reviews": 76,
    "lat": -34.0550871,
    "lng": 150.8190407,
    "place_id": "ChIJzxdj_ozuEmsRimbHLerLQnY",
    "maps_url": "https://www.google.com/maps/place/?q=place_id:ChIJzxdj_ozuEmsRimbHLerLQnY"
  },
  {
    "name": "Harvey Norman Campbelltown",
    "address": "22A Blaxland Rd, Campbelltown NSW 2560, Australia",
    "suburb": "Campbelltown NSW 2560",
    "state": "NSW",
    "rating": 3.9,
    "reviews": 1229,
    "lat": -34.0577563,
    "lng": 150.8182067,
    "place_id": "ChIJdwZBTPTuEmsRjYColO1NBC4",
    "maps_url": "https://www.google.com/maps/place/?q=place_id:ChIJdwZBTPTuEmsRjYColO1NBC4"
  },
  {
    "name": "1825 Interiors - Furniture Store Campbelltown",
    "address": "8 Blaxland Rd, Campbelltown NSW 2560, Australia",
    "suburb": "Campbelltown NSW 2560",
    "state": "NSW",
    "rating": 4.5,
    "reviews": 59,
    "lat": -34.0547421,
    "lng": 150.8215976,
    "place_id": "ChIJB7gicMXvEmsReWh8lDcyU5A",
    "maps_url": "https://www.google.com/maps/place/?q=place_id:ChIJB7gicMXvEmsReWh8lDcyU5A"
  },
  {
    "name": "Fantastic Furniture",
    "address": "4 Blaxland Rd, Campbelltown NSW 2560, Australia",
    "suburb": "Campbelltown NSW 2560",
    "state": "NSW",
    "rating": 4,
    "reviews": 509,
    "lat": -34.0541165,
    "lng": 150.8228693,
    "place_id": "ChIJr-Kl4YzuEmsRftKiu9h1gpI",
    "maps_url": "https://www.google.com/maps/place/?q=place_id:ChIJr-Kl4YzuEmsRftKiu9h1gpI"
  },
  {
    "name": "Snooze Bankstown",
    "address": "Bankstown Home, Unit 10/9 Chapel Rd, Bankstown NSW 2200, Australia",
    "suburb": "Unit 10/9 Chapel Rd",
    "state": "NSW",
    "rating": 4.7,
    "reviews": 412,
    "lat": -33.9316606,
    "lng": 151.0289647,
    "place_id": "ChIJq9ksdqS-EmsRwgA3MdwNZW8",
    "maps_url": "https://www.google.com/maps/place/?q=place_id:ChIJq9ksdqS-EmsRwgA3MdwNZW8"
  },
  {
    "name": "Beds R Us Bankstown",
    "address": "Unit 19/173 Canterbury Rd, Bankstown NSW 2200, Australia",
    "suburb": "Bankstown NSW 2200",
    "state": "NSW",
    "rating": 4.5,
    "reviews": 75,
    "lat": -33.9333046,
    "lng": 151.0293025,
    "place_id": "ChIJGSl3K-W_EmsRY8O9EEGulIg",
    "maps_url": "https://www.google.com/maps/place/?q=place_id:ChIJGSl3K-W_EmsRY8O9EEGulIg"
  },
  {
    "name": "Forty Winks Bankstown",
    "address": "Shop 6/173 Canterbury Rd, Bankstown NSW 2200, Australia",
    "suburb": "Bankstown NSW 2200",
    "state": "NSW",
    "rating": 4.9,
    "reviews": 575,
    "lat": -33.9335031,
    "lng": 151.0285708,
    "place_id": "ChIJq9ksdqS-EmsRN6M7DQhoZcw",
    "maps_url": "https://www.google.com/maps/place/?q=place_id:ChIJq9ksdqS-EmsRN6M7DQhoZcw"
  },
  {
    "name": "Sleeping Giant Bankstown Home",
    "address": "9/49 Chapel Rd, Bankstown NSW 2200, Australia",
    "suburb": "Bankstown NSW 2200",
    "state": "NSW",
    "rating": 4.5,
    "reviews": 64,
    "lat": -33.9322967,
    "lng": 151.0286283,
    "place_id": "ChIJFYADct2_EmsRIKCcdw2Nr7w",
    "maps_url": "https://www.google.com/maps/place/?q=place_id:ChIJFYADct2_EmsRIKCcdw2Nr7w"
  },
  {
    "name": "Beds n Dreams - Bankstown",
    "address": "Shop 2/173 Canterbury Rd, Bankstown NSW 2200, Australia",
    "suburb": "Bankstown NSW 2200",
    "state": "NSW",
    "rating": 4.5,
    "reviews": 119,
    "lat": -33.9333046,
    "lng": 151.0293025,
    "place_id": "ChIJ68DDZqO-EmsRsXPcY4NFwuM",
    "maps_url": "https://www.google.com/maps/place/?q=place_id:ChIJ68DDZqO-EmsRsXPcY4NFwuM"
  },
  {
    "name": "Forty Winks Chatswood",
    "address": "14/16 Smith St, Chatswood NSW 2067, Australia",
    "suburb": "Chatswood NSW 2067",
    "state": "NSW",
    "rating": 4.8,
    "reviews": 140,
    "lat": -33.7867935,
    "lng": 151.1984544,
    "place_id": "ChIJm8Gs1DypEmsR6ukxi1OmWWY",
    "maps_url": "https://www.google.com/maps/place/?q=place_id:ChIJm8Gs1DypEmsR6ukxi1OmWWY"
  },
  {
    "name": "Welle Mattresses Chatswood",
    "address": "Inside Myer, Level 6 Westfield ,49/59 Albert Ave, Chatswood NSW 2067, Australia",
    "suburb": "Level 6 Westfield",
    "state": "NSW",
    "rating": 5,
    "reviews": 3,
    "lat": -33.797908,
    "lng": 151.1830446,
    "place_id": "ChIJuWRKxSqpEmsR7cGAgKcksmo",
    "maps_url": "https://www.google.com/maps/place/?q=place_id:ChIJuWRKxSqpEmsR7cGAgKcksmo"
  },
  {
    "name": "Wowbeds - Online Mattress Store",
    "address": "10 Help St, Chatswood NSW 2067, Australia",
    "suburb": "Chatswood NSW 2067",
    "state": "NSW",
    "rating": 4.1,
    "reviews": 65,
    "lat": -33.7962587,
    "lng": 151.1792386,
    "place_id": "ChIJgZzsFpOpEmsRBljaqrbncAc",
    "maps_url": "https://www.google.com/maps/place/?q=place_id:ChIJgZzsFpOpEmsRBljaqrbncAc"
  },
  {
    "name": "Snooze Artarmon",
    "address": "Home HQ, G8/1 Frederick St, Artarmon NSW 2064, Australia",
    "suburb": "G8/1 Frederick St",
    "state": "NSW",
    "rating": 4.7,
    "reviews": 544,
    "lat": -33.8174146,
    "lng": 151.1893259,
    "place_id": "ChIJ_QNWMt-uEmsRPs8oQIOSxD0",
    "maps_url": "https://www.google.com/maps/place/?q=place_id:ChIJ_QNWMt-uEmsRPs8oQIOSxD0"
  },
  {
    "name": "Ausbeds",
    "address": "94 Penshurst St, Willoughby NSW 2068, Australia",
    "suburb": "Willoughby NSW 2068",
    "state": "NSW",
    "rating": 5,
    "reviews": 13,
    "lat": -33.8018313,
    "lng": 151.1982464,
    "place_id": "ChIJ8wiK2t-pEmsR_sYiD__F0Nw",
    "maps_url": "https://www.google.com/maps/place/?q=place_id:ChIJ8wiK2t-pEmsR_sYiD__F0Nw"
  },
  {
    "name": "Boori - Chatswood",
    "address": "11-17, Ground Floor/65 Albert Ave, Chatswood NSW 2067, Australia",
    "suburb": "Ground Floor/65 Albert Ave",
    "state": "NSW",
    "rating": 4.8,
    "reviews": 116,
    "lat": -33.7980558,
    "lng": 151.1821582,
    "place_id": "ChIJ1fXi58CpEmsRX8r3eYFD3n0",
    "maps_url": "https://www.google.com/maps/place/?q=place_id:ChIJ1fXi58CpEmsRX8r3eYFD3n0"
  },
  {
    "name": "海馬床褥Seahorse Mercantile Pty Ltd",
    "address": "2/379 Victoria Ave, Chatswood NSW 2067, Australia",
    "suburb": "Chatswood NSW 2067",
    "state": "NSW",
    "rating": 4.4,
    "reviews": 11,
    "lat": -33.7952672,
    "lng": 151.1852919,
    "place_id": "ChIJOcCdcdaoEmsRpGM1WJn2qqM",
    "maps_url": "https://www.google.com/maps/place/?q=place_id:ChIJOcCdcdaoEmsRpGM1WJn2qqM"
  },
  {
    "name": "Forty Winks Crows Nest",
    "address": "575 Pacific Hwy, St Leonards NSW 2065, Australia",
    "suburb": "St Leonards NSW 2065",
    "state": "NSW",
    "rating": 4.8,
    "reviews": 243,
    "lat": -33.8241977,
    "lng": 151.197905,
    "place_id": "ChIJgYbDUN2uEmsRmBdrCExdDXQ",
    "maps_url": "https://www.google.com/maps/place/?q=place_id:ChIJgYbDUN2uEmsRmBdrCExdDXQ"
  },
  {
    "name": "Westfield Chatswood",
    "address": "1 Anderson St, Chatswood NSW 2067, Australia",
    "suburb": "Chatswood NSW 2067",
    "state": "NSW",
    "rating": 4.4,
    "reviews": 13468,
    "lat": -33.7965082,
    "lng": 151.1827496,
    "place_id": "ChIJj-yYy9WoEmsRqsttUM46JR4",
    "maps_url": "https://www.google.com/maps/place/?q=place_id:ChIJj-yYy9WoEmsRqsttUM46JR4"
  },
  {
    "name": "Beds n Dreams - Artarmon",
    "address": "Shop G4, Level 1/1 Frederick St, Artarmon NSW 2064, Australia",
    "suburb": "Level 1/1 Frederick St",
    "state": "NSW",
    "rating": 4.8,
    "reviews": 137,
    "lat": -33.8170454,
    "lng": 151.1888301,
    "place_id": "ChIJZ-PPJoevEmsRzfQXVVbXQ_o",
    "maps_url": "https://www.google.com/maps/place/?q=place_id:ChIJZ-PPJoevEmsRzfQXVVbXQ_o"
  },
  {
    "name": "HEKA AI MATTRESS Experience Centre Sydney",
    "address": "Level M/60 Archer St, Chatswood NSW 2067, Australia",
    "suburb": "Chatswood NSW 2067",
    "state": "NSW",
    "rating": 5,
    "reviews": 5,
    "lat": -33.7969278,
    "lng": 151.1857273,
    "place_id": "ChIJN6yWwQupEmsR6ec9XQqiZRA",
    "maps_url": "https://www.google.com/maps/place/?q=place_id:ChIJN6yWwQupEmsR6ec9XQqiZRA"
  },
  {
    "name": "Kmart Chatswood",
    "address": "Chatswood Chase S/C Cnr Victoria Ave &, Archer St, Chatswood NSW 2067, Australia",
    "suburb": "Archer St",
    "state": "NSW",
    "rating": 4.1,
    "reviews": 2302,
    "lat": -33.7951238,
    "lng": 151.1858439,
    "place_id": "ChIJv1eNctaoEmsRWcx4nuptHCU",
    "maps_url": "https://www.google.com/maps/place/?q=place_id:ChIJv1eNctaoEmsRWcx4nuptHCU"
  },
  {
    "name": "Myer Chatswood",
    "address": "Westfield, 49/59 Albert Ave, Chatswood NSW 2067, Australia",
    "suburb": "49/59 Albert Ave",
    "state": "NSW",
    "rating": 3.9,
    "reviews": 1880,
    "lat": -33.797908,
    "lng": 151.1830446,
    "place_id": "ChIJpdThnGGpEmsRzfE7ySL0jmA",
    "maps_url": "https://www.google.com/maps/place/?q=place_id:ChIJpdThnGGpEmsRzfE7ySL0jmA"
  },
  {
    "name": "Bed Bath N' Table Westfield Chatswood",
    "address": "Westfield Chatswood, Shop 304/5, Level 3/1 Anderson St, Chatswood NSW 2067, Australia",
    "suburb": "Shop 304/5",
    "state": "NSW",
    "rating": 2,
    "reviews": 4,
    "lat": -33.7973628,
    "lng": 151.1831083,
    "place_id": "ChIJB7ezhM2oEmsRRilUQnw9Eu8",
    "maps_url": "https://www.google.com/maps/place/?q=place_id:ChIJB7ezhM2oEmsRRilUQnw9Eu8"
  },
  {
    "name": "King Living Chatswood NSW",
    "address": "216 Victoria Ave, Chatswood NSW 2067, Australia",
    "suburb": "Chatswood NSW 2067",
    "state": "NSW",
    "rating": 4,
    "reviews": 345,
    "lat": -33.794296,
    "lng": 151.189898,
    "place_id": "ChIJS_-I-CipEmsRUIJgHJbVQjU",
    "maps_url": "https://www.google.com/maps/place/?q=place_id:ChIJS_-I-CipEmsRUIJgHJbVQjU"
  },
  {
    "name": "Chatswood Chase",
    "address": "345 Victoria Ave, Chatswood NSW 2067, Australia",
    "suburb": "Chatswood NSW 2067",
    "state": "NSW",
    "rating": 4.2,
    "reviews": 6555,
    "lat": -33.7942587,
    "lng": 151.1861126,
    "place_id": "ChIJT2OmMNaoEmsRXufbNT-tP14",
    "maps_url": "https://www.google.com/maps/place/?q=place_id:ChIJT2OmMNaoEmsRXufbNT-tP14"
  },
  {
    "name": "Bed Bath N' Table The Works Chatswood Chase",
    "address": "Chatswood Chase, Level 2, Shop 2-014/015/345 Victoria Ave, Chatswood NSW 2067, Australia",
    "suburb": "Level 2",
    "state": "NSW",
    "rating": 3.6,
    "reviews": 37,
    "lat": -33.794418,
    "lng": 151.1859023,
    "place_id": "ChIJB7ezhM2oEmsRtDMMp3PL1dQ",
    "maps_url": "https://www.google.com/maps/place/?q=place_id:ChIJB7ezhM2oEmsRtDMMp3PL1dQ"
  },
  {
    "name": "David Jones - Chatswood Chase",
    "address": "Chatswood Chase, 345 Victoria Ave, Chatswood NSW 2067, Australia",
    "suburb": "345 Victoria Ave",
    "state": "NSW",
    "rating": 3.8,
    "reviews": 985,
    "lat": -33.79418,
    "lng": 151.1850566,
    "place_id": "ChIJ-csp_dWoEmsRO6GGBsT6Y4I",
    "maps_url": "https://www.google.com/maps/place/?q=place_id:ChIJ-csp_dWoEmsRO6GGBsT6Y4I"
  },
  {
    "name": "Sleeping Giant Hornsby",
    "address": "Shop 1 & 2/6-18 Bridge Rd, Hornsby NSW 2077, Australia",
    "suburb": "Hornsby NSW 2077",
    "state": "NSW",
    "rating": 4.2,
    "reviews": 75,
    "lat": -33.697743,
    "lng": 151.1006772,
    "place_id": "ChIJI3BApnhYDWsRrbkU4XzX8IM",
    "maps_url": "https://www.google.com/maps/place/?q=place_id:ChIJI3BApnhYDWsRrbkU4XzX8IM"
  },
  {
    "name": "Furniture Warehouse Hornsby",
    "address": "254 Peats Ferry Rd, Hornsby NSW 2077, Australia",
    "suburb": "Hornsby NSW 2077",
    "state": "NSW",
    "rating": 4.8,
    "reviews": 172,
    "lat": -33.7028584,
    "lng": 151.0974341,
    "place_id": "ChIJhyCfxYOnEmsRSN8Vh8q0ddE",
    "maps_url": "https://www.google.com/maps/place/?q=place_id:ChIJhyCfxYOnEmsRSN8Vh8q0ddE"
  },
  {
    "name": "Harvey Norman Hornsby",
    "address": "Westfield Hornsby, Level 3/18 Burdett St, Hornsby NSW 2077, Australia",
    "suburb": "Level 3/18 Burdett St",
    "state": "NSW",
    "rating": 3.6,
    "reviews": 277,
    "lat": -33.7030943,
    "lng": 151.1019108,
    "place_id": "ChIJZ77RlJKnEmsRC61ZK0p-crU",
    "maps_url": "https://www.google.com/maps/place/?q=place_id:ChIJZ77RlJKnEmsRC61ZK0p-crU"
  },
  {
    "name": "Snooze Manly Vale",
    "address": "210-216 Condamine St, Balgowlah NSW 2093, Australia",
    "suburb": "Balgowlah NSW 2093",
    "state": "NSW",
    "rating": 4.7,
    "reviews": 193,
    "lat": -33.7870856,
    "lng": 151.2667535,
    "place_id": "ChIJr-nskrGrEmsRakdnBGW1jH4",
    "maps_url": "https://www.google.com/maps/place/?q=place_id:ChIJr-nskrGrEmsRakdnBGW1jH4"
  },
  {
    "name": "Forty Winks Manly Vale",
    "address": "234 Condamine St, Manly Vale NSW 2093, Australia",
    "suburb": "Manly Vale NSW 2093",
    "state": "NSW",
    "rating": 4,
    "reviews": 44,
    "lat": -33.7854934,
    "lng": 151.2673083,
    "place_id": "ChIJz12xF7KrEmsRTeaA23EKdwo",
    "maps_url": "https://www.google.com/maps/place/?q=place_id:ChIJz12xF7KrEmsRTeaA23EKdwo"
  },
  {
    "name": "Mattress By Appointment Northern Beaches",
    "address": "Unit 11A/B/106 Old Pittwater Rd, Brookvale NSW 2100, Australia",
    "suburb": "Brookvale NSW 2100",
    "state": "NSW",
    "rating": 5,
    "reviews": 97,
    "lat": -33.7633165,
    "lng": 151.2614706,
    "place_id": "ChIJXxB2-2OrEmsRhczzAQciJP0",
    "maps_url": "https://www.google.com/maps/place/?q=place_id:ChIJXxB2-2OrEmsRhczzAQciJP0"
  },
  {
    "name": "Sleep Solutions",
    "address": "5/36 Sydney Rd, Manly NSW 2095, Australia",
    "suburb": "Manly NSW 2095",
    "state": "NSW",
    "rating": 4.4,
    "reviews": 137,
    "lat": -33.7968911,
    "lng": 151.2863495,
    "place_id": "ChIJ3Wvw4PGqEmsRa2r_S42pKuc",
    "maps_url": "https://www.google.com/maps/place/?q=place_id:ChIJ3Wvw4PGqEmsRa2r_S42pKuc"
  },
  {
    "name": "Beds Australia",
    "address": "503 Old South Head Rd, Rose Bay NSW 2029, Australia",
    "suburb": "Rose Bay NSW 2029",
    "state": "NSW",
    "rating": 4.8,
    "reviews": 42,
    "lat": -33.8748007,
    "lng": 151.2728534,
    "place_id": "ChIJ-b47sFitEmsRSozvHtg0yHo",
    "maps_url": "https://www.google.com/maps/place/?q=place_id:ChIJ-b47sFitEmsRSozvHtg0yHo"
  },
  {
    "name": "Harvey Norman Bondi Junction",
    "address": "Westfield, Shop 5016/500 Oxford St, Bondi Junction NSW 2022, Australia",
    "suburb": "Shop 5016/500 Oxford St",
    "state": "NSW",
    "rating": 3.6,
    "reviews": 580,
    "lat": -33.8928249,
    "lng": 151.2501392,
    "place_id": "ChIJ9erUg_GtEmsRcN6oulKmcUc",
    "maps_url": "https://www.google.com/maps/place/?q=place_id:ChIJ9erUg_GtEmsRcN6oulKmcUc"
  },
  {
    "name": "King Living Bondi Junction NSW",
    "address": "588 Oxford Street Corner Syd Einfeld Drive &, Oxford St, Bondi Junction NSW 2022, Australia",
    "suburb": "Oxford St",
    "state": "NSW",
    "rating": 4.2,
    "reviews": 90,
    "lat": -33.8909505,
    "lng": 151.2528727,
    "place_id": "ChIJWQQZbPKtEmsRfcpZRmD9-3k",
    "maps_url": "https://www.google.com/maps/place/?q=place_id:ChIJWQQZbPKtEmsRfcpZRmD9-3k"
  },
  {
    "name": "Bed Bath N' Table Bondi Junction",
    "address": "Shop 5018/500 Oxford St, Bondi Junction NSW 2022, Australia",
    "suburb": "Bondi Junction NSW 2022",
    "state": "NSW",
    "rating": 4.1,
    "reviews": 35,
    "lat": -33.8923506,
    "lng": 151.2504784,
    "place_id": "ChIJs9fqnPGtEmsRh_9ws_hUju8",
    "maps_url": "https://www.google.com/maps/place/?q=place_id:ChIJs9fqnPGtEmsRh_9ws_hUju8"
  },
  {
    "name": "Westfield Bondi Junction",
    "address": "500 Oxford St, Bondi Junction NSW 2022, Australia",
    "suburb": "Bondi Junction NSW 2022",
    "state": "NSW",
    "rating": 4.4,
    "reviews": 11836,
    "lat": -33.8918439,
    "lng": 151.2507577,
    "place_id": "ChIJLfOL-vCtEmsRqjZ6TfY6YW0",
    "maps_url": "https://www.google.com/maps/place/?q=place_id:ChIJLfOL-vCtEmsRqjZ6TfY6YW0"
  },
  {
    "name": "Sheet Society",
    "address": "Westfield, Level 4, Shop 4077/500 Oxford St, Bondi Junction NSW 2022, Australia",
    "suburb": "Level 4",
    "state": "NSW",
    "rating": 4.6,
    "reviews": 39,
    "lat": -33.8915695,
    "lng": 151.2505012,
    "place_id": "ChIJebX3YQ-tEmsRIzMhcjha-g4",
    "maps_url": "https://www.google.com/maps/place/?q=place_id:ChIJebX3YQ-tEmsRIzMhcjha-g4"
  },
  {
    "name": "west elm",
    "address": "472 Oxford St, Bondi Junction NSW 2022, Australia",
    "suburb": "Bondi Junction NSW 2022",
    "state": "NSW",
    "rating": 2.7,
    "reviews": 163,
    "lat": -33.8919391,
    "lng": 151.2496797,
    "place_id": "ChIJy-kXdfGtEmsREZnuYBFj-94",
    "maps_url": "https://www.google.com/maps/place/?q=place_id:ChIJy-kXdfGtEmsREZnuYBFj-94"
  },
  {
    "name": "Myer Bondi",
    "address": "500 Oxford St, Bondi Junction NSW 2022, Australia",
    "suburb": "Bondi Junction NSW 2022",
    "state": "NSW",
    "rating": 3.9,
    "reviews": 1496,
    "lat": -33.8928484,
    "lng": 151.2510006,
    "place_id": "ChIJy6ziUheuEmsRByLQv67djBI",
    "maps_url": "https://www.google.com/maps/place/?q=place_id:ChIJy6ziUheuEmsRByLQv67djBI"
  },
  {
    "name": "Sheridan Bondi Junction",
    "address": "500 Oxford St, Bondi Junction NSW 2022, Australia",
    "suburb": "Bondi Junction NSW 2022",
    "state": "NSW",
    "rating": 3.7,
    "reviews": 39,
    "lat": -33.89265779999999,
    "lng": 151.2504012,
    "place_id": "ChIJ6YOonPGtEmsRk_S7uHeuL2Y",
    "maps_url": "https://www.google.com/maps/place/?q=place_id:ChIJ6YOonPGtEmsRk_S7uHeuL2Y"
  },
  {
    "name": "Ausbeds",
    "address": "136 Victoria Rd, Marrickville NSW 2204, Australia",
    "suburb": "Marrickville NSW 2204",
    "state": "NSW",
    "rating": 4.9,
    "reviews": 404,
    "lat": -33.9067052,
    "lng": 151.1648443,
    "place_id": "ChIJYUYTHBGwEmsRu43I95AEGLQ",
    "maps_url": "https://www.google.com/maps/place/?q=place_id:ChIJYUYTHBGwEmsRu43I95AEGLQ"
  },
  {
    "name": "Forty Winks Alexandria",
    "address": "Shop 2, 49/59 O'Riordan St, Alexandria NSW 2015, Australia",
    "suburb": "49/59 O'Riordan St",
    "state": "NSW",
    "rating": 4.3,
    "reviews": 209,
    "lat": -33.9141611,
    "lng": 151.1948556,
    "place_id": "ChIJeRHRp7GxEmsRYONHpwre4Oc",
    "maps_url": "https://www.google.com/maps/place/?q=place_id:ChIJeRHRp7GxEmsRYONHpwre4Oc"
  },
  {
    "name": "Snooze Alexandria",
    "address": "The Homemaker Alexandria, 49-59 O'Riordan St, Alexandria NSW 2015, Australia",
    "suburb": "49-59 O'Riordan St",
    "state": "NSW",
    "rating": 4.6,
    "reviews": 828,
    "lat": -33.9137229,
    "lng": 151.1942367,
    "place_id": "ChIJlR4ZtLGxEmsRPmWkcNR5u28",
    "maps_url": "https://www.google.com/maps/place/?q=place_id:ChIJlR4ZtLGxEmsRPmWkcNR5u28"
  },
  {
    "name": "The Natural Bedding Company",
    "address": "122 Percival Rd, Stanmore NSW 2048, Australia",
    "suburb": "Stanmore NSW 2048",
    "state": "NSW",
    "rating": 4.8,
    "reviews": 71,
    "lat": -33.8935095,
    "lng": 151.1639705,
    "place_id": "ChIJv9lFBD6wEmsRSPF0F8cKgr8",
    "maps_url": "https://www.google.com/maps/place/?q=place_id:ChIJv9lFBD6wEmsRSPF0F8cKgr8"
  },
  {
    "name": "Newtown Furniture Haven",
    "address": "21 Bishop St, St Peters NSW 2044, Australia",
    "suburb": "St Peters NSW 2044",
    "state": "NSW",
    "rating": 3.9,
    "reviews": 50,
    "lat": -33.9139631,
    "lng": 151.1786222,
    "place_id": "ChIJjaWdMzawEmsRdWl2XkvoTHc",
    "maps_url": "https://www.google.com/maps/place/?q=place_id:ChIJjaWdMzawEmsRdWl2XkvoTHc"
  },
  {
    "name": "Beds n Dreams - Alexandria",
    "address": "Homemaker Centre, 6a/49-59 O'Riordan St, Alexandria NSW 2015, Australia",
    "suburb": "6a/49-59 O'Riordan St",
    "state": "NSW",
    "rating": 4.7,
    "reviews": 105,
    "lat": -33.9137229,
    "lng": 151.1942367,
    "place_id": "ChIJ32eqcqyxEmsRtfDJhcZrKLk",
    "maps_url": "https://www.google.com/maps/place/?q=place_id:ChIJ32eqcqyxEmsRtfDJhcZrKLk"
  },
  {
    "name": "Sleeping Giant Alexandria",
    "address": "Shop 7 49/59 O'Riordan St, Alexandria NSW 2015, Australia",
    "suburb": "Alexandria NSW 2015",
    "state": "NSW",
    "rating": 3.7,
    "reviews": 58,
    "lat": -33.9135386,
    "lng": 151.1956271,
    "place_id": "ChIJOXAJvWixEmsRpxIMLHqZEnY",
    "maps_url": "https://www.google.com/maps/place/?q=place_id:ChIJOXAJvWixEmsRpxIMLHqZEnY"
  },
  {
    "name": "Sleepy's Alexandria",
    "address": "49-59 O'Riordan St, Alexandria NSW 2015, Australia",
    "suburb": "Alexandria NSW 2015",
    "state": "NSW",
    "rating": 4.9,
    "reviews": 44,
    "lat": -33.9137229,
    "lng": 151.1942367,
    "place_id": "ChIJ8fI7tr2xEmsR5AVzyEBwGAI",
    "maps_url": "https://www.google.com/maps/place/?q=place_id:ChIJ8fI7tr2xEmsR5AVzyEBwGAI"
  },
  {
    "name": "Rockdale Mattress Factory",
    "address": "56 Fairford Rd, Padstow NSW 2211, Australia",
    "suburb": "Padstow NSW 2211",
    "state": "NSW",
    "rating": 4.7,
    "reviews": 78,
    "lat": -33.9391937,
    "lng": 151.0363159,
    "place_id": "ChIJQyhmXf65EmsRO2WeLgZdO48",
    "maps_url": "https://www.google.com/maps/place/?q=place_id:ChIJQyhmXf65EmsRO2WeLgZdO48"
  },
  {
    "name": "Koala® Alexandria (Global R&D Centre)",
    "address": "Unit 12/37-41 O'Riordan St, Alexandria NSW 2015, Australia",
    "suburb": "Alexandria NSW 2015",
    "state": "NSW",
    "rating": 4.1,
    "reviews": 723,
    "lat": -33.9110417,
    "lng": 151.1965008,
    "place_id": "ChIJVWXdNR-uEmsRSCQNJUR-iuI",
    "maps_url": "https://www.google.com/maps/place/?q=place_id:ChIJVWXdNR-uEmsRSCQNJUR-iuI"
  },
  {
    "name": "Kingstyle Living Furniture",
    "address": "626 King St, Newtown NSW 2042, Australia",
    "suburb": "Newtown NSW 2042",
    "state": "NSW",
    "rating": 5,
    "reviews": 22,
    "lat": -33.9050616,
    "lng": 151.1807955,
    "place_id": "ChIJHc3AfUmwEmsRtOJ6P987Rpo",
    "maps_url": "https://www.google.com/maps/place/?q=place_id:ChIJHc3AfUmwEmsRtOJ6P987Rpo"
  },
  {
    "name": "Original Mattress Factory",
    "address": "601 Hume St, Albury NSW 2640, Australia",
    "suburb": "Albury NSW 2640",
    "state": "NSW",
    "rating": 5,
    "reviews": 119,
    "lat": -36.0846647,
    "lng": 146.9110132,
    "place_id": "ChIJi58ZLhpfIWsRX-okSPb8dc4",
    "maps_url": "https://www.google.com/maps/place/?q=place_id:ChIJi58ZLhpfIWsRX-okSPb8dc4"
  },
  {
    "name": "Makin Mattresses Albury",
    "address": "334 Wagga Rd, Albury NSW 2640, Australia",
    "suburb": "Albury NSW 2640",
    "state": "NSW",
    "rating": 4.7,
    "reviews": 205,
    "lat": -36.05055,
    "lng": 146.936062,
    "place_id": "ChIJdTmV7xbgI2sRLPS3nxuYSrA",
    "maps_url": "https://www.google.com/maps/place/?q=place_id:ChIJdTmV7xbgI2sRLPS3nxuYSrA"
  },
  {
    "name": "Forty Winks Albury",
    "address": "Homemaker Centre, Shop 15/94 Borella Rd, East Albury NSW 2640, Australia",
    "suburb": "Shop 15/94 Borella Rd",
    "state": "NSW",
    "rating": 4.7,
    "reviews": 26,
    "lat": -36.0761985,
    "lng": 146.9442596,
    "place_id": "ChIJv2uAKtjhI2sRS8P5VZT244A",
    "maps_url": "https://www.google.com/maps/place/?q=place_id:ChIJv2uAKtjhI2sRS8P5VZT244A"
  },
  {
    "name": "Amart Albury",
    "address": "Unit 6/618 Wilson St, Albury NSW 2640, Australia",
    "suburb": "Albury NSW 2640",
    "state": "NSW",
    "rating": 3.4,
    "reviews": 95,
    "lat": -36.0778231,
    "lng": 146.9250691,
    "place_id": "ChIJD6D7NXDhI2sR9Ip6R1epy7k",
    "maps_url": "https://www.google.com/maps/place/?q=place_id:ChIJD6D7NXDhI2sR9Ip6R1epy7k"
  },
  {
    "name": "Harvey Norman Albury",
    "address": "94 Borella Rd, East Albury NSW 2640, Australia",
    "suburb": "East Albury NSW 2640",
    "state": "NSW",
    "rating": 4,
    "reviews": 648,
    "lat": -36.0748377,
    "lng": 146.9452318,
    "place_id": "ChIJo6IdtkrgI2sRa26bnq0XNCk",
    "maps_url": "https://www.google.com/maps/place/?q=place_id:ChIJo6IdtkrgI2sRa26bnq0XNCk"
  },
  {
    "name": "Pillow Talk Albury",
    "address": "3/469 Olive St, Albury NSW 2640, Australia",
    "suburb": "Albury NSW 2640",
    "state": "NSW",
    "rating": 4.6,
    "reviews": 134,
    "lat": -36.0820634,
    "lng": 146.9173032,
    "place_id": "ChIJDzvcZGFfIWsR16bDDEjNTvU",
    "maps_url": "https://www.google.com/maps/place/?q=place_id:ChIJDzvcZGFfIWsR16bDDEjNTvU"
  },
  {
    "name": "Focus on Furniture - Albury",
    "address": "Shop 8/94 Borella Rd, Albury NSW 2640, Australia",
    "suburb": "Albury NSW 2640",
    "state": "NSW",
    "rating": 4.3,
    "reviews": 95,
    "lat": -36.074836,
    "lng": 146.94464,
    "place_id": "ChIJo6IdtkrgI2sRU6309nD-Ik0",
    "maps_url": "https://www.google.com/maps/place/?q=place_id:ChIJo6IdtkrgI2sRU6309nD-Ik0"
  },
  {
    "name": "Fantastic Furniture",
    "address": "581 Hume St, South Albury NSW 2640, Australia",
    "suburb": "South Albury NSW 2640",
    "state": "NSW",
    "rating": 4.2,
    "reviews": 213,
    "lat": -36.0846103,
    "lng": 146.9113474,
    "place_id": "ChIJNcIReGdfIWsRZpYh3oWocLg",
    "maps_url": "https://www.google.com/maps/place/?q=place_id:ChIJNcIReGdfIWsRZpYh3oWocLg"
  },
  {
    "name": "Original Mattress Factory",
    "address": "Shop 2B, Homebase, 23 Hammond Ave, Wagga Wagga NSW 2650, Australia",
    "suburb": "Homebase",
    "state": "NSW",
    "rating": 4.9,
    "reviews": 205,
    "lat": -35.11924,
    "lng": 147.3799912,
    "place_id": "ChIJ8ysZ2tObGGsR1QmbcBZ67HU",
    "maps_url": "https://www.google.com/maps/place/?q=place_id:ChIJ8ysZ2tObGGsR1QmbcBZ67HU"
  },
  {
    "name": "Forty Winks Wagga Wagga",
    "address": "Shop 10, Homebase Centre, 7/23 Hammond Ave, East Wagga Wagga NSW 2650, Australia",
    "suburb": "Homebase Centre",
    "state": "NSW",
    "rating": 4.7,
    "reviews": 55,
    "lat": -35.11943,
    "lng": 147.3807003,
    "place_id": "ChIJ1bGJa9GbGGsRyPQMmYkkdNc",
    "maps_url": "https://www.google.com/maps/place/?q=place_id:ChIJ1bGJa9GbGGsRyPQMmYkkdNc"
  },
  {
    "name": "Snooze Wagga Wagga",
    "address": "Tenancy 3 Homebase, Hammond Ave, Wagga Wagga NSW 2650, Australia",
    "suburb": "Hammond Ave",
    "state": "NSW",
    "rating": 4.3,
    "reviews": 19,
    "lat": -35.1181186,
    "lng": 147.3808211,
    "place_id": "ChIJfaBTYbSbGGsRTHM69MpCJvc",
    "maps_url": "https://www.google.com/maps/place/?q=place_id:ChIJfaBTYbSbGGsRTHM69MpCJvc"
  },
  {
    "name": "Amart Wagga Wagga",
    "address": "32 Edward St, Wagga Wagga NSW 2650, Australia",
    "suburb": "Wagga Wagga NSW 2650",
    "state": "NSW",
    "rating": 4.2,
    "reviews": 158,
    "lat": -35.1201535,
    "lng": 147.3730834,
    "place_id": "ChIJ_dwYS9abGGsR7LMD6gY1iLI",
    "maps_url": "https://www.google.com/maps/place/?q=place_id:ChIJ_dwYS9abGGsR7LMD6gY1iLI"
  },
  {
    "name": "Pillow Talk Wagga Wagga",
    "address": "Wagga Homebase, 7/23 Hammond Ave, East Wagga Wagga NSW 2650, Australia",
    "suburb": "7/23 Hammond Ave",
    "state": "NSW",
    "rating": 4.4,
    "reviews": 76,
    "lat": -35.1193824,
    "lng": 147.3807337,
    "place_id": "ChIJ7eOwWsqbGGsRICgdDpxUnyU",
    "maps_url": "https://www.google.com/maps/place/?q=place_id:ChIJ7eOwWsqbGGsRICgdDpxUnyU"
  },
  {
    "name": "Focus on Furniture - Wagga Wagga",
    "address": "5/7 Hammond Ave, East Wagga Wagga NSW 2650, Australia",
    "suburb": "East Wagga Wagga NSW 2650",
    "state": "NSW",
    "rating": 4.2,
    "reviews": 59,
    "lat": -35.11879,
    "lng": 147.380157,
    "place_id": "ChIJj41IYtGbGGsRyfKsRjgstFg",
    "maps_url": "https://www.google.com/maps/place/?q=place_id:ChIJj41IYtGbGGsRyfKsRjgstFg"
  },
  {
    "name": "Harvey Norman Wagga Wagga",
    "address": "7/23 Hammond Ave, East Wagga Wagga NSW 2650, Australia",
    "suburb": "East Wagga Wagga NSW 2650",
    "state": "NSW",
    "rating": 4,
    "reviews": 436,
    "lat": -35.1196711,
    "lng": 147.3792019,
    "place_id": "ChIJT7fmZtGbGGsR_CoF-8mRpns",
    "maps_url": "https://www.google.com/maps/place/?q=place_id:ChIJT7fmZtGbGGsR_CoF-8mRpns"
  },
  {
    "name": "MyHouse",
    "address": "Shop 20/135-143 Baylis St, Wagga Wagga NSW 2650, Australia",
    "suburb": "Wagga Wagga NSW 2650",
    "state": "NSW",
    "rating": 4.1,
    "reviews": 76,
    "lat": -35.1135641,
    "lng": 147.3710857,
    "place_id": "ChIJu-CG6X-ZGGsRhNkrYIhH8a4",
    "maps_url": "https://www.google.com/maps/place/?q=place_id:ChIJu-CG6X-ZGGsRhNkrYIhH8a4"
  },
  {
    "name": "1825 Interiors",
    "address": "375 Edward St, Wagga Wagga NSW 2650, Australia",
    "suburb": "Wagga Wagga NSW 2650",
    "state": "NSW",
    "rating": 4.2,
    "reviews": 17,
    "lat": -35.1154725,
    "lng": 147.3481922,
    "place_id": "ChIJRUFMbn6ZGGsR3gFwe8cuCQk",
    "maps_url": "https://www.google.com/maps/place/?q=place_id:ChIJRUFMbn6ZGGsR3gFwe8cuCQk"
  },
  {
    "name": "Fantastic Furniture",
    "address": "Home Base Wagga, 7/23 Hammond Ave, East Wagga Wagga NSW 2650, Australia",
    "suburb": "7/23 Hammond Ave",
    "state": "NSW",
    "rating": 4.1,
    "reviews": 116,
    "lat": -35.1195166,
    "lng": 147.3808785,
    "place_id": "ChIJ1bGJa9GbGGsRzTI0jHCyAxg",
    "maps_url": "https://www.google.com/maps/place/?q=place_id:ChIJ1bGJa9GbGGsRzTI0jHCyAxg"
  },
  {
    "name": "Original Mattress Factory",
    "address": "Shop 1C, Tamworth, Lifestyle Centre, 31-41 The Ringers Rd, South Tamworth NSW 2340, Australia",
    "suburb": "Tamworth",
    "state": "NSW",
    "rating": 5,
    "reviews": 508,
    "lat": -31.1289581,
    "lng": 150.9205287,
    "place_id": "ChIJkbq76lmYCmsR-uk3sRQutmg",
    "maps_url": "https://www.google.com/maps/place/?q=place_id:ChIJkbq76lmYCmsR-uk3sRQutmg"
  },
  {
    "name": "Beds R Us",
    "address": "383/391 Goonoo Goonoo Rd, Tamworth NSW 2340, Australia",
    "suburb": "Tamworth NSW 2340",
    "state": "NSW",
    "rating": 4.9,
    "reviews": 54,
    "lat": -31.124646,
    "lng": 150.9229899,
    "place_id": "ChIJWxDbUjmZCmsRWSw_55FxyI4",
    "maps_url": "https://www.google.com/maps/place/?q=place_id:ChIJWxDbUjmZCmsRWSw_55FxyI4"
  },
  {
    "name": "Forty Winks Tamworth",
    "address": "Shop 9A Tamworth, Homespace, 425/437 Goonoo Goonoo Rd, Hillvue NSW 2340, Australia",
    "suburb": "Homespace",
    "state": "NSW",
    "rating": 4.8,
    "reviews": 25,
    "lat": -31.1293106,
    "lng": 150.9234212,
    "place_id": "ChIJS3I8O_aYCmsRLcpulATY3ZI",
    "maps_url": "https://www.google.com/maps/place/?q=place_id:ChIJS3I8O_aYCmsRLcpulATY3ZI"
  },
  {
    "name": "Original Mattress Factory",
    "address": "T7 Orange Homemaker Centre, 168 Lone Pine Ave, Orange NSW 2800, Australia",
    "suburb": "168 Lone Pine Ave",
    "state": "NSW",
    "rating": 5,
    "reviews": 39,
    "lat": -33.3001319,
    "lng": 149.1191549,
    "place_id": "ChIJDaaLaYHTEWsRBPsCrFFhKsA",
    "maps_url": "https://www.google.com/maps/place/?q=place_id:ChIJDaaLaYHTEWsRBPsCrFFhKsA"
  },
  {
    "name": "Lounges Plus",
    "address": "80-84 Bathurst Rd, Orange NSW 2800, Australia",
    "suburb": "Orange NSW 2800",
    "state": "NSW",
    "rating": 4.4,
    "reviews": 75,
    "lat": -33.291424,
    "lng": 149.110114,
    "place_id": "ChIJT8rdgynTEWsRYVapFaxRkn8",
    "maps_url": "https://www.google.com/maps/place/?q=place_id:ChIJT8rdgynTEWsRYVapFaxRkn8"
  },
  {
    "name": "Harvey Norman Orange",
    "address": "Cnr Lone Pine Avenue & Mitchell Highway Unit 1, Orange Grove Homemakers Centre, Orange NSW 2800, Australia",
    "suburb": "Orange Grove Homemakers Centre",
    "state": "NSW",
    "rating": 4.1,
    "reviews": 372,
    "lat": -33.2993744,
    "lng": 149.1191307,
    "place_id": "ChIJ79HSe9nSEWsRVczTJrfvji4",
    "maps_url": "https://www.google.com/maps/place/?q=place_id:ChIJ79HSe9nSEWsRVczTJrfvji4"
  },
  {
    "name": "Pillow Talk Orange",
    "address": "Woollen Mills Shopping Centre, 179-181 Byng St, Orange NSW 2800, Australia",
    "suburb": "179-181 Byng St",
    "state": "NSW",
    "rating": 4.7,
    "reviews": 111,
    "lat": -33.2814758,
    "lng": 149.1053236,
    "place_id": "ChIJE0OWnjLTEWsR5PgmNPquPq8",
    "maps_url": "https://www.google.com/maps/place/?q=place_id:ChIJE0OWnjLTEWsR5PgmNPquPq8"
  },
  {
    "name": "Fantastic Furniture",
    "address": "T13 - Orange Homemaker Centre, 168 Lone Pine Ave, Orange NSW 2800, Australia",
    "suburb": "168 Lone Pine Ave",
    "state": "NSW",
    "rating": 4.3,
    "reviews": 36,
    "lat": -33.3018713,
    "lng": 149.1187258,
    "place_id": "ChIJweegTpLTEWsRJqSeO69ZySQ",
    "maps_url": "https://www.google.com/maps/place/?q=place_id:ChIJweegTpLTEWsRJqSeO69ZySQ"
  },
  {
    "name": "Turners Furniture Gallery",
    "address": "70 Endsleigh Ave, Orange NSW 2800, Australia",
    "suburb": "Orange NSW 2800",
    "state": "NSW",
    "rating": 4.5,
    "reviews": 31,
    "lat": -33.2897466,
    "lng": 149.1046176,
    "place_id": "ChIJ8VO7LNUsEGsRjZrV47KM6Yc",
    "maps_url": "https://www.google.com/maps/place/?q=place_id:ChIJ8VO7LNUsEGsRjZrV47KM6Yc"
  },
  {
    "name": "Mattress Hub",
    "address": "168-200 Lone Pine Ave, Orange NSW 2800, Australia",
    "suburb": "Orange NSW 2800",
    "state": "NSW",
    "rating": 3,
    "reviews": 2,
    "lat": -33.299648,
    "lng": 149.118925,
    "place_id": "ChIJzWquDNnSEWsRqEc53HS5ZOg",
    "maps_url": "https://www.google.com/maps/place/?q=place_id:ChIJzWquDNnSEWsRqEc53HS5ZOg"
  },
  {
    "name": "Amart Orange",
    "address": "T2 & T3, 5295 Mitchell Hwy, Orange NSW 2800, Australia",
    "suburb": "5295 Mitchell Hwy",
    "state": "NSW",
    "rating": 2.5,
    "reviews": 11,
    "lat": -33.3022868,
    "lng": 149.1197828,
    "place_id": "ChIJl6wvOXDTEWsRBijZB8uHDXA",
    "maps_url": "https://www.google.com/maps/place/?q=place_id:ChIJl6wvOXDTEWsRBijZB8uHDXA"
  },
  {
    "name": "Just Mattresses",
    "address": "Shop 15 Orange Central Square, 227-239 Summer St, Orange NSW 2800, Australia",
    "suburb": "227-239 Summer St",
    "state": "NSW",
    "rating": null,
    "reviews": 0,
    "lat": -33.2828439,
    "lng": 149.1002549,
    "place_id": "ChIJ0XVLvb4tEGsRwXXMOz7T14I",
    "maps_url": "https://www.google.com/maps/place/?q=place_id:ChIJ0XVLvb4tEGsRwXXMOz7T14I"
  },
  {
    "name": "Eureka Furniture Orange",
    "address": "5290 Mitchell Hwy, Orange NSW 2800, Australia",
    "suburb": "Orange NSW 2800",
    "state": "NSW",
    "rating": 4.8,
    "reviews": 183,
    "lat": -33.3005345,
    "lng": 149.1199985,
    "place_id": "ChIJ121ZAtnSEWsR65FziIHVdh4",
    "maps_url": "https://www.google.com/maps/place/?q=place_id:ChIJ121ZAtnSEWsR65FziIHVdh4"
  },
  {
    "name": "Orange Homemaker Centre",
    "address": "168 Lone Pine Ave, Orange NSW 2800, Australia",
    "suburb": "Orange NSW 2800",
    "state": "NSW",
    "rating": 4.1,
    "reviews": 265,
    "lat": -33.3008532,
    "lng": 149.1191907,
    "place_id": "ChIJcypicNnSEWsRb2qs0b60wMA",
    "maps_url": "https://www.google.com/maps/place/?q=place_id:ChIJcypicNnSEWsRb2qs0b60wMA"
  },
  {
    "name": "Early Settler Furniture Store Orange",
    "address": "Orange Grove Homemaker Centre, Shop 11/12, 168 Lone Pine Ave, Orange NSW 2800, Australia",
    "suburb": "Shop 11/12",
    "state": "NSW",
    "rating": 3.8,
    "reviews": 42,
    "lat": -33.3013642,
    "lng": 149.119038,
    "place_id": "ChIJlVN_eNnSEWsRogEjwTb4aO8",
    "maps_url": "https://www.google.com/maps/place/?q=place_id:ChIJlVN_eNnSEWsRogEjwTb4aO8"
  },
  {
    "name": "Original Mattress Factory",
    "address": "Shop 3/6 Hawthorn St, Dubbo NSW 2830, Australia",
    "suburb": "Dubbo NSW 2830",
    "state": "NSW",
    "rating": 4.9,
    "reviews": 99,
    "lat": -32.2582411,
    "lng": 148.6253234,
    "place_id": "ChIJvY3uj5hxD2sRhmz_C4Bkl5A",
    "maps_url": "https://www.google.com/maps/place/?q=place_id:ChIJvY3uj5hxD2sRhmz_C4Bkl5A"
  },
  {
    "name": "Forty Winks Dubbo",
    "address": "Unit 5/195 Cobra St, Dubbo NSW 2830, Australia",
    "suburb": "Dubbo NSW 2830",
    "state": "NSW",
    "rating": 4.9,
    "reviews": 16,
    "lat": -32.25754300000001,
    "lng": 148.6232098,
    "place_id": "ChIJJ5hETKJxD2sRXMFisyRlb2Q",
    "maps_url": "https://www.google.com/maps/place/?q=place_id:ChIJJ5hETKJxD2sRXMFisyRlb2Q"
  },
  {
    "name": "Snooze Dubbo",
    "address": "231 Cobra St, Dubbo NSW 2830, Australia",
    "suburb": "Dubbo NSW 2830",
    "state": "NSW",
    "rating": 4.7,
    "reviews": 46,
    "lat": -32.2567443,
    "lng": 148.6240844,
    "place_id": "ChIJnQ9WkphxD2sRE3EtK4QCHAc",
    "maps_url": "https://www.google.com/maps/place/?q=place_id:ChIJnQ9WkphxD2sRE3EtK4QCHAc"
  },
  {
    "name": "Home Sweet Home Sofas & Living Dubbo",
    "address": "4/243 Cobra St, Dubbo NSW 2830, Australia",
    "suburb": "Dubbo NSW 2830",
    "state": "NSW",
    "rating": 3.3,
    "reviews": 39,
    "lat": -32.2577574,
    "lng": 148.6262023,
    "place_id": "ChIJm_WEJplxD2sRr0SLMRPk6QY",
    "maps_url": "https://www.google.com/maps/place/?q=place_id:ChIJm_WEJplxD2sRr0SLMRPk6QY"
  },
  {
    "name": "Lounges Plus",
    "address": "243 Darling St, Dubbo NSW 2830, Australia",
    "suburb": "Dubbo NSW 2830",
    "state": "NSW",
    "rating": 4.3,
    "reviews": 48,
    "lat": -32.253531,
    "lng": 148.605303,
    "place_id": "ChIJ70d8B6xxD2sRjyqFCI2Aoww",
    "maps_url": "https://www.google.com/maps/place/?q=place_id:ChIJ70d8B6xxD2sRjyqFCI2Aoww"
  },
  {
    "name": "Fantastic Furniture",
    "address": "Shop 6/8 Hawthorn St, Dubbo NSW 2830, Australia",
    "suburb": "Dubbo NSW 2830",
    "state": "NSW",
    "rating": 4.1,
    "reviews": 161,
    "lat": -32.258317,
    "lng": 148.625527,
    "place_id": "ChIJJ5hETKJxD2sRyfC6vb50N6s",
    "maps_url": "https://www.google.com/maps/place/?q=place_id:ChIJJ5hETKJxD2sRyfC6vb50N6s"
  },
  {
    "name": "Harvey Norman Dubbo",
    "address": "223 Cobra St, Dubbo NSW 2830, Australia",
    "suburb": "Dubbo NSW 2830",
    "state": "NSW",
    "rating": 4,
    "reviews": 288,
    "lat": -32.2570532,
    "lng": 148.6226442,
    "place_id": "ChIJS9l8dqJxD2sRQpIp7H_df58",
    "maps_url": "https://www.google.com/maps/place/?q=place_id:ChIJS9l8dqJxD2sRQpIp7H_df58"
  },
  {
    "name": "Beds R Us - Coffs Harbour",
    "address": "Park Beach Homebase, Shop 14, 252 Pacific Hwy, Coffs Harbour NSW 2450, Australia",
    "suburb": "Shop 14",
    "state": "NSW",
    "rating": 4.6,
    "reviews": 119,
    "lat": -30.2804623,
    "lng": 153.1283409,
    "place_id": "ChIJCepwmTYMnGsRoZK9VzuWZOM",
    "maps_url": "https://www.google.com/maps/place/?q=place_id:ChIJCepwmTYMnGsRoZK9VzuWZOM"
  },
  {
    "name": "Forty Winks Coffs Harbour",
    "address": "Homebase 8/252 Pacific Hwy, Coffs Harbour NSW 2450, Australia",
    "suburb": "Coffs Harbour NSW 2450",
    "state": "NSW",
    "rating": 3.8,
    "reviews": 49,
    "lat": -30.2808649,
    "lng": 153.1276829,
    "place_id": "ChIJM6umIDQMnGsREWXCg3p0vbk",
    "maps_url": "https://www.google.com/maps/place/?q=place_id:ChIJM6umIDQMnGsREWXCg3p0vbk"
  },
  {
    "name": "Amart Coffs Harbour",
    "address": "300 Pacific Hwy, Coffs Harbour NSW 2450, Australia",
    "suburb": "Coffs Harbour NSW 2450",
    "state": "NSW",
    "rating": 4.3,
    "reviews": 164,
    "lat": -30.3129894,
    "lng": 153.0923187,
    "place_id": "ChIJSTUsK-QRnGsRs4nsOBDXN1k",
    "maps_url": "https://www.google.com/maps/place/?q=place_id:ChIJSTUsK-QRnGsRs4nsOBDXN1k"
  },
  {
    "name": "Macleod's Furniture Coffs Harbour",
    "address": "Shop 15-16 Park Beach Homebase Centre, 252 Pacific Hwy, Coffs Harbour NSW 2450, Australia",
    "suburb": "252 Pacific Hwy",
    "state": "NSW",
    "rating": 4.8,
    "reviews": 97,
    "lat": -30.28035089999999,
    "lng": 153.1287597,
    "place_id": "ChIJAc6imjYMnGsRk9q2x_URfyU",
    "maps_url": "https://www.google.com/maps/place/?q=place_id:ChIJAc6imjYMnGsRk9q2x_URfyU"
  },
  {
    "name": "Harvey Norman Coffs Harbour",
    "address": "252 Pacific Hwy, Coffs Harbour NSW 2450, Australia",
    "suburb": "Coffs Harbour NSW 2450",
    "state": "NSW",
    "rating": 3.9,
    "reviews": 525,
    "lat": -30.2810349,
    "lng": 153.127586,
    "place_id": "ChIJgc3PoDYMnGsRl01ooZmSmmQ",
    "maps_url": "https://www.google.com/maps/place/?q=place_id:ChIJgc3PoDYMnGsRl01ooZmSmmQ"
  },
  {
    "name": "Pillow Talk Coffs Harbour",
    "address": "Home Central, Lot 3 Mastracolas Rd, Coffs Harbour NSW 2450, Australia",
    "suburb": "Lot 3 Mastracolas Rd",
    "state": "NSW",
    "rating": 4.6,
    "reviews": 83,
    "lat": -30.2791296,
    "lng": 153.1290747,
    "place_id": "ChIJ_S6RszYMnGsRY2F7chyQ3Ss",
    "maps_url": "https://www.google.com/maps/place/?q=place_id:ChIJ_S6RszYMnGsRY2F7chyQ3Ss"
  },
  {
    "name": "Fantastic Furniture",
    "address": "Park Beach HomeBase, 252 Pacific Hwy, Coffs Harbour NSW 2450, Australia",
    "suburb": "252 Pacific Hwy",
    "state": "NSW",
    "rating": 4,
    "reviews": 147,
    "lat": -30.2808861,
    "lng": 153.1275169,
    "place_id": "ChIJz9-jIDQMnGsR1aC4vcRn3bY",
    "maps_url": "https://www.google.com/maps/place/?q=place_id:ChIJz9-jIDQMnGsR1aC4vcRn3bY"
  },
  {
    "name": "Original Mattress Factory",
    "address": "Shop A10b/160-174 Hastings River Dr, Port Macquarie NSW 2444, Australia",
    "suburb": "Port Macquarie NSW 2444",
    "state": "NSW",
    "rating": 4.9,
    "reviews": 200,
    "lat": -31.4259722,
    "lng": 152.8769625,
    "place_id": "ChIJwfrOZST_nWsRiJfmCv3JxfE",
    "maps_url": "https://www.google.com/maps/place/?q=place_id:ChIJwfrOZST_nWsRiJfmCv3JxfE"
  },
  {
    "name": "Snooze Port Macquarie",
    "address": "2/199 Lake Rd, Port Macquarie NSW 2444, Australia",
    "suburb": "Port Macquarie NSW 2444",
    "state": "NSW",
    "rating": 4.3,
    "reviews": 53,
    "lat": -31.4478874,
    "lng": 152.8884381,
    "place_id": "ChIJz5RRM2z_nWsRd__NYM6PITA",
    "maps_url": "https://www.google.com/maps/place/?q=place_id:ChIJz5RRM2z_nWsRd__NYM6PITA"
  },