[
  {
    "name": "The Guitar Lounge",
    "address": "259 Clarence St, Sydney NSW 2000, Australia",
    "suburb": "Sydney NSW 2000",
    "state": "NSW",
    "rating": 4.6,
    "reviews": 442,
    "lat": -33.871788,
    "lng": 151.205425,
    "place_id": "ChIJHTFxuz6uEmsRgJQXaAfZysQ",
    "maps_url": "https://www.google.com/maps/place/?q=place_id:ChIJHTFxuz6uEmsRgJQXaAfZysQ"
  },
  {
    "name": "H Music Shop&Studio (CBD)",
    "address": "102/67 Macarthur St, Ultimo NSW 2007, Australia",
    "suburb": "Ultimo NSW 2007",
    "state": "NSW",
    "rating": 4.8,
    "reviews": 67,
    "lat": -33.879745,
    "lng": 151.1988672,
    "place_id": "ChIJxyvziCWuEmsRC7GFipGPf1M",
    "maps_url": "https://www.google.com/maps/place/?q=place_id:ChIJxyvziCWuEmsRC7GFipGPf1M"
  },
  {
    "name": "Mannys Music",
    "address": "a/204-218 Botany Rd, Alexandria NSW 2015, Australia",
    "suburb": "Alexandria NSW 2015",
    "state": "NSW",
    "rating": 4.5,
    "reviews": 862,
    "lat": -33.9013814,
    "lng": 151.2009327,
    "place_id": "ChIJdRuqlyOxEmsRc7RC_LZxjYY",
    "maps_url": "https://www.google.com/maps/place/?q=place_id:ChIJdRuqlyOxEmsRc7RC_LZxjYY"
  },
  {
    "name": "Pete's Musicians Market",
    "address": "494 King St, Newtown NSW 2042, Australia",
    "suburb": "Newtown NSW 2042",
    "state": "NSW",
    "rating": 4.9,
    "reviews": 200,
    "lat": -33.9016774,
    "lng": 151.1789316,
    "place_id": "ChIJlS0BJjawEmsRYz-6u45Iu40",
    "maps_url": "https://www.google.com/maps/place/?q=place_id:ChIJlS0BJjawEmsRYz-6u45Iu40"
  },
  {
    "name": "Belfield Music Shop",
    "address": "846 Hume Hwy, Bass Hill NSW 2197, Australia",
    "suburb": "Bass Hill NSW 2197",
    "state": "NSW",
    "rating": 4.6,
    "reviews": 533,
    "lat": -33.902367,
    "lng": 151.0004617,
    "place_id": "ChIJkfOWwai7EmsRLMDPAH6ok5w",
    "maps_url": "https://www.google.com/maps/place/?q=place_id:ChIJkfOWwai7EmsRLMDPAH6ok5w"
  },
  {
    "name": "Big Music School and Studios",
    "address": "Level 1/85 Alexander St, Crows Nest NSW 2065, Australia",
    "suburb": "Crows Nest NSW 2065",
    "state": "NSW",
    "rating": 4.4,
    "reviews": 275,
    "lat": -33.8257871,
    "lng": 151.202663,
    "place_id": "ChIJi2Lqc8KuEmsRSXZlMtEsPaw",
    "maps_url": "https://www.google.com/maps/place/?q=place_id:ChIJi2Lqc8KuEmsRSXZlMtEsPaw"
  },
  {
    "name": "Top 10 Sound & Movie",
    "address": "SHOP 1/741 George St, Haymarket NSW 2000, Australia",
    "suburb": "Haymarket NSW 2000",
    "state": "NSW",
    "rating": 4.9,
    "reviews": 27,
    "lat": -33.8812783,
    "lng": 151.2042143,
    "place_id": "ChIJJQTedSSuEmsRGC8s3yUv-9U",
    "maps_url": "https://www.google.com/maps/place/?q=place_id:ChIJJQTedSSuEmsRGC8s3yUv-9U"
  },
  {
    "name": "Mannys Music",
    "address": "Ground Floor/85 Alexander St, Crows Nest NSW 2065, Australia",
    "suburb": "Crows Nest NSW 2065",
    "state": "NSW",
    "rating": 4.7,
    "reviews": 107,
    "lat": -33.8257871,
    "lng": 151.202663,
    "place_id": "ChIJUan9hbqvEmsRNvDERFzPuws",
    "maps_url": "https://www.google.com/maps/place/?q=place_id:ChIJUan9hbqvEmsRNvDERFzPuws"
  },
  {
    "name": "Bava's Music City",
    "address": "252 Macquarie St, Liverpool NSW 2170, Australia",
    "suburb": "Liverpool NSW 2170",
    "state": "NSW",
    "rating": 4.5,
    "reviews": 883,
    "lat": -33.9237497,
    "lng": 150.9238418,
    "place_id": "ChIJT8eW4LuVEmsRaHxENQ637ok",
    "maps_url": "https://www.google.com/maps/place/?q=place_id:ChIJT8eW4LuVEmsRaHxENQ637ok"
  },
  {
    "name": "Sax & Woodwind and Brass",
    "address": "3/158 Parramatta Rd, Camperdown NSW 2050, Australia",
    "suburb": "Camperdown NSW 2050",
    "state": "NSW",
    "rating": 4.6,
    "reviews": 254,
    "lat": -33.886432,
    "lng": 151.1766377,
    "place_id": "ChIJNX8hSi-wEmsRjvV6l6AZoec",
    "maps_url": "https://www.google.com/maps/place/?q=place_id:ChIJNX8hSi-wEmsRjvV6l6AZoec"
  },
  {
    "name": "Dr Gear",
    "address": "6/160 King St, Newtown NSW 2042, Australia",
    "suburb": "Newtown NSW 2042",
    "state": "NSW",
    "rating": 4.2,
    "reviews": 111,
    "lat": -33.8938275,
    "lng": 151.1833179,
    "place_id": "ChIJ__9vR8LxEmsRgRw5D_-fIiw",
    "maps_url": "https://www.google.com/maps/place/?q=place_id:ChIJ__9vR8LxEmsRgRw5D_-fIiw"
  },
  {
    "name": "Logans Pianos",
    "address": "250 Burwood Rd, Burwood NSW 2134, Australia",
    "suburb": "Burwood NSW 2134",
    "state": "NSW",
    "rating": 4.8,
    "reviews": 1192,
    "lat": -33.8799706,
    "lng": 151.1032825,
    "place_id": "ChIJZ67D4ty6EmsR1GZ2ZedW9UY",
    "maps_url": "https://www.google.com/maps/place/?q=place_id:ChIJZ67D4ty6EmsR1GZ2ZedW9UY"
  },
  {
    "name": "Mall Music",
    "address": "430 Old Pittwater Rd, Brookvale NSW 2100, Australia",
    "suburb": "Brookvale NSW 2100",
    "state": "NSW",
    "rating": 4.6,
    "reviews": 425,
    "lat": -33.7695231,
    "lng": 151.2661583,
    "place_id": "ChIJZ4iwdkWqEmsRH1flDoaCsqM",
    "maps_url": "https://www.google.com/maps/place/?q=place_id:ChIJZ4iwdkWqEmsRH1flDoaCsqM"
  },
  {
    "name": "Turramurra Music Centre",
    "address": "1267 Pacific Hwy, Turramurra NSW 2074, Australia",
    "suburb": "Turramurra NSW 2074",
    "state": "NSW",
    "rating": 4.7,
    "reviews": 458,
    "lat": -33.733057,
    "lng": 151.130031,
    "place_id": "ChIJPUO-ItunEmsRWTjqnxGGeSI",
    "maps_url": "https://www.google.com/maps/place/?q=place_id:ChIJPUO-ItunEmsRWTjqnxGGeSI"
  },
  {
    "name": "Carlingford Music Centre",
    "address": "320 Pennant Hills Rd, Carlingford NSW 2118, Australia",
    "suburb": "Carlingford NSW 2118",
    "state": "NSW",
    "rating": 4.4,
    "reviews": 467,
    "lat": -33.7832276,
    "lng": 151.047113,
    "place_id": "ChIJGTEHeAqkEmsRaE86IP8dJ4w",
    "maps_url": "https://www.google.com/maps/place/?q=place_id:ChIJGTEHeAqkEmsRaE86IP8dJ4w"
  },
  {
    "name": "Guitar Jungle",
    "address": "153-155 Regent St, Redfern NSW 2016, Australia",
    "suburb": "Redfern NSW 2016",
    "state": "NSW",
    "rating": 4.8,
    "reviews": 66,
    "lat": -33.8939199,
    "lng": 151.1998364,
    "place_id": "ChIJ_ewxZtqxEmsRcDaYbs2ga28",
    "maps_url": "https://www.google.com/maps/place/?q=place_id:ChIJ_ewxZtqxEmsRcDaYbs2ga28"
  },
  {
    "name": "Penguin Vintage Guitars",
    "address": "462 Oxford St, Paddington NSW 2021, Australia",
    "suburb": "Paddington NSW 2021",
    "state": "NSW",
    "rating": 4.9,
    "reviews": 70,
    "lat": -33.8880322,
    "lng": 151.2318173,
    "place_id": "ChIJoZU-o82vEmsRZHniScwqt7M",
    "maps_url": "https://www.google.com/maps/place/?q=place_id:ChIJoZU-o82vEmsRZHniScwqt7M"
  },
  {
    "name": "Gladesville Guitar Factory",
    "address": "280 Victoria Rd, Gladesville NSW 2111, Australia",
    "suburb": "Gladesville NSW 2111",
    "state": "NSW",
    "rating": 4.6,
    "reviews": 377,
    "lat": -33.828242,
    "lng": 151.1262424,
    "place_id": "ChIJP-jwyHelEmsRNMVmrwsYyCo",
    "maps_url": "https://www.google.com/maps/place/?q=place_id:ChIJP-jwyHelEmsRNMVmrwsYyCo"
  },
  {
    "name": "Guitar Factory Parramatta",
    "address": "255 Church St, Parramatta NSW 2150, Australia",
    "suburb": "Parramatta NSW 2150",
    "state": "NSW",
    "rating": 4.5,
    "reviews": 232,
    "lat": -33.8129734,
    "lng": 151.0033962,
    "place_id": "ChIJvfhvmkijEmsRA43HdcIg8u8",
    "maps_url": "https://www.google.com/maps/place/?q=place_id:ChIJvfhvmkijEmsRA43HdcIg8u8"
  },
  {
    "name": "Drummers Dream & Dream Music",
    "address": "610-612 Canterbury Rd, Belmore NSW 2192, Australia",
    "suburb": "Belmore NSW 2192",
    "state": "NSW",
    "rating": 4.1,
    "reviews": 205,
    "lat": -33.9221721,
    "lng": 151.0952827,
    "place_id": "ChIJXarNZzW6EmsRywDIhjfdeDA",
    "maps_url": "https://www.google.com/maps/place/?q=place_id:ChIJXarNZzW6EmsRywDIhjfdeDA"
  },
  {
    "name": "Sieff’s Music | Parramatta",
    "address": "2/142 James Ruse Dr, Parramatta NSW 2150, Australia",
    "suburb": "Parramatta NSW 2150",
    "state": "NSW",
    "rating": 4.2,
    "reviews": 115,
    "lat": -33.8175592,
    "lng": 151.0217743,
    "place_id": "ChIJY6VJooanEmsRyMQDgGg4X6M",
    "maps_url": "https://www.google.com/maps/place/?q=place_id:ChIJY6VJooanEmsRyMQDgGg4X6M"
  },
  {
    "name": "Drum Factory",
    "address": "257 Church St, Parramatta NSW 2150, Australia",
    "suburb": "Parramatta NSW 2150",
    "state": "NSW",
    "rating": 4.5,
    "reviews": 438,
    "lat": -33.8129101,
    "lng": 151.0033468,
    "place_id": "ChIJ-SsPWB6jEmsR6xuJ43eA8L0",
    "maps_url": "https://www.google.com/maps/place/?q=place_id:ChIJ-SsPWB6jEmsR6xuJ43eA8L0"
  },
  {
    "name": "The Music Man",
    "address": "27/191 Parramatta Rd, Auburn NSW 2144, Australia",
    "suburb": "Auburn NSW 2144",
    "state": "NSW",
    "rating": 4.6,
    "reviews": 78,
    "lat": -33.8402338,
    "lng": 151.0349053,
    "place_id": "ChIJSZIK602jEmsRPGK05FB9Nxg",
    "maps_url": "https://www.google.com/maps/place/?q=place_id:ChIJSZIK602jEmsRPGK05FB9Nxg"
  },
  {
    "name": "Sound Devices",
    "address": "Level 2/255 Church St, Parramatta NSW 2150, Australia",
    "suburb": "Parramatta NSW 2150",
    "state": "NSW",
    "rating": 4.3,
    "reviews": 44,
    "lat": -33.8129734,
    "lng": 151.0033962,
    "place_id": "ChIJq-IT8TuuEmsR9J4MuuPlHD0",
    "maps_url": "https://www.google.com/maps/place/?q=place_id:ChIJq-IT8TuuEmsR9J4MuuPlHD0"
  },
  {
    "name": "Hillsound Guitar Warehouse",
    "address": "4/88 Magowar Rd, Girraween NSW 2145, Australia",
    "suburb": "Girraween NSW 2145",
    "state": "NSW",
    "rating": 4.8,
    "reviews": 140,
    "lat": -33.80258990000001,
    "lng": 150.9437476,
    "place_id": "ChIJaTi2bA2YEmsRkmyBMtXOguw",
    "maps_url": "https://www.google.com/maps/place/?q=place_id:ChIJaTi2bA2YEmsRkmyBMtXOguw"
  },
  {
    "name": "Piano City | Yamaha - Roland - Casio - Beale",
    "address": "2/142 James Ruse Dr, Parramatta NSW 2150, Australia",
    "suburb": "Parramatta NSW 2150",
    "state": "NSW",
    "rating": 4.4,
    "reviews": 107,
    "lat": -33.8175239,
    "lng": 151.0216674,
    "place_id": "ChIJLZ8M7xSjEmsRuPvvQUDWBWQ",
    "maps_url": "https://www.google.com/maps/place/?q=place_id:ChIJLZ8M7xSjEmsRuPvvQUDWBWQ"
  },
  {
    "name": "Artist Guitars",
    "address": "6/26 Nelson Rd, Yennora NSW 2161, Australia",
    "suburb": "Yennora NSW 2161",
    "state": "NSW",
    "rating": null,
    "reviews": 0,
    "lat": -33.8648483,
    "lng": 150.9686967,
    "place_id": "ChIJ3eh-p1CwEmsRcMdLe0MvU3Y",
    "maps_url": "https://www.google.com/maps/place/?q=place_id:ChIJ3eh-p1CwEmsRcMdLe0MvU3Y"
  },
  {
    "name": "Stormer Music Parramatta",
    "address": "2/23 Castle St, North Parramatta NSW 2151, Australia",
    "suburb": "North Parramatta NSW 2151",
    "state": "NSW",
    "rating": 4.6,
    "reviews": 71,
    "lat": -33.797969,
    "lng": 151.004094,
    "place_id": "ChIJefPb-gCjEmsR9_tWU5IlnI0",
    "maps_url": "https://www.google.com/maps/place/?q=place_id:ChIJefPb-gCjEmsR9_tWU5IlnI0"
  },
  {
    "name": "Haze Guitars & Instruments Store",
    "address": "357 Chisholm Rd, Auburn NSW 2144, Australia",
    "suburb": "Auburn NSW 2144",
    "state": "NSW",
    "rating": 4.9,
    "reviews": 166,
    "lat": -33.877838,
    "lng": 151.0145463,
    "place_id": "ChIJ06DnVzqxEmsRpBrwKOjPfnI",
    "maps_url": "https://www.google.com/maps/place/?q=place_id:ChIJ06DnVzqxEmsRpBrwKOjPfnI"
  },
  {
    "name": "Gsus4 - Music Gear & Supply Co.",
    "address": "267 Victoria Rd, Rydalmere NSW 2116, Australia",
    "suburb": "Rydalmere NSW 2116",
    "state": "NSW",
    "rating": 4.8,
    "reviews": 371,
    "lat": -33.8111805,
    "lng": 151.0334446,
    "place_id": "ChIJjWYOCi-lEmsRob7E0hu3B1w",
    "maps_url": "https://www.google.com/maps/place/?q=place_id:ChIJjWYOCi-lEmsRob7E0hu3B1w"
  },
  {
    "name": "Nuance Lab Music Boutique",
    "address": "5 Comber Cres, Pendle Hill NSW 2145, Australia",
    "suburb": "Pendle Hill NSW 2145",
    "state": "NSW",
    "rating": 5,
    "reviews": 34,
    "lat": -33.8019296,
    "lng": 150.9589397,
    "place_id": "ChIJ3_V42u-jEmsRsMTXp-Al0xM",
    "maps_url": "https://www.google.com/maps/place/?q=place_id:ChIJ3_V42u-jEmsRsMTXp-Al0xM"
  },
  {
    "name": "Anthonys Music - Music Lessons, Repairs and Music Store",
    "address": "89/91 Moore St, Liverpool NSW 2170, Australia",
    "suburb": "Liverpool NSW 2170",
    "state": "NSW",
    "rating": 4.4,
    "reviews": 96,
    "lat": -33.922302,
    "lng": 150.922753,
    "place_id": "ChIJ8aLHbbmVEmsRo6f2RkSoCiI",
    "maps_url": "https://www.google.com/maps/place/?q=place_id:ChIJ8aLHbbmVEmsRo6f2RkSoCiI"
  },
  {
    "name": "Kurt Jacob & Co Pty Ltd",
    "address": "2 Stoddart Rd, Prospect NSW 2148, Australia",
    "suburb": "Prospect NSW 2148",
    "state": "NSW",
    "rating": 4.8,
    "reviews": 15,
    "lat": -33.8004165,
    "lng": 150.92434,
    "place_id": "ChIJR2rSSzmYEmsR-I_6EGXo6Wk",
    "maps_url": "https://www.google.com/maps/place/?q=place_id:ChIJR2rSSzmYEmsR-I_6EGXo6Wk"
  },
  {
    "name": "Beatdisc Records",
    "address": "11/181 Church St, Parramatta NSW 2150, Australia",
    "suburb": "Parramatta NSW 2150",
    "state": "NSW",
    "rating": 4.8,
    "reviews": 325,
    "lat": -33.816268,
    "lng": 151.002474,
    "place_id": "ChIJX4YWJiCjEmsRxJ47P4WtQcs",
    "maps_url": "https://www.google.com/maps/place/?q=place_id:ChIJX4YWJiCjEmsRxJ47P4WtQcs"
  },
  {
    "name": "Musos Corner",
    "address": "252 Pacific Hwy, Charlestown NSW 2290, Australia",
    "suburb": "Charlestown NSW 2290",
    "state": "NSW",
    "rating": 4.5,
    "reviews": 1118,
    "lat": -32.9597852,
    "lng": 151.6978133,
    "place_id": "ChIJncx2IkUUc2sRgvf7FqrWPfA",
    "maps_url": "https://www.google.com/maps/place/?q=place_id:ChIJncx2IkUUc2sRgvf7FqrWPfA"
  },
  {
    "name": "Jack's Music",
    "address": "12 Fern St, Islington NSW 2296, Australia",
    "suburb": "Islington NSW 2296",
    "state": "NSW",
    "rating": 4.6,
    "reviews": 127,
    "lat": -32.917496,
    "lng": 151.7478095,
    "place_id": "ChIJ-62e8JIVc2sROwhgiFvasRI",
    "maps_url": "https://www.google.com/maps/place/?q=place_id:ChIJ-62e8JIVc2sROwhgiFvasRI"
  },
  {
    "name": "Music Specialists",
    "address": "367 High St, Maitland NSW 2320, Australia",
    "suburb": "Maitland NSW 2320",
    "state": "NSW",
    "rating": 4.8,
    "reviews": 107,
    "lat": -32.7339875,
    "lng": 151.5578162,
    "place_id": "ChIJec8-ltFFc2sR_UeRmSAe89E",
    "maps_url": "https://www.google.com/maps/place/?q=place_id:ChIJec8-ltFFc2sR_UeRmSAe89E"
  },
  {
    "name": "Lakeside Music",
    "address": "Shop 3/450 The Esplanade, Warners Bay NSW 2282, Australia",
    "suburb": "Warners Bay NSW 2282",
    "state": "NSW",
    "rating": 4.8,
    "reviews": 9,
    "lat": -32.9737637,
    "lng": 151.6441959,
    "place_id": "ChIJWVftDpA9c2sRA1M9If02hP8",
    "maps_url": "https://www.google.com/maps/place/?q=place_id:ChIJWVftDpA9c2sRA1M9If02hP8"
  },
  {
    "name": "Music Centre Gosford",
    "address": "4/39 Central Coast Hwy, West Gosford NSW 2250, Australia",
    "suburb": "West Gosford NSW 2250",
    "state": "NSW",
    "rating": 4.8,
    "reviews": 217,
    "lat": -33.4271697,
    "lng": 151.3317871,
    "place_id": "ChIJHQWRL6TKcmsRNEYozU0XL70",
    "maps_url": "https://www.google.com/maps/place/?q=place_id:ChIJHQWRL6TKcmsRNEYozU0XL70"
  },
  {
    "name": "Hunter Valley Violins",
    "address": "507 Hunter St, Newcastle NSW 2300, Australia",
    "suburb": "Newcastle NSW 2300",
    "state": "NSW",
    "rating": 4.8,
    "reviews": 67,
    "lat": -32.9275343,
    "lng": 151.7682612,
    "place_id": "ChIJx4mPQmYUc2sRu7VG_xKwA9E",
    "maps_url": "https://www.google.com/maps/place/?q=place_id:ChIJx4mPQmYUc2sRu7VG_xKwA9E"
  },
  {
    "name": "Glasgow Music and Guitar Repairs",
    "address": "The Stables, 50 Clyde St, Hamilton North NSW 2292, Australia",
    "suburb": "50 Clyde St",
    "state": "NSW",
    "rating": 5,
    "reviews": 55,
    "lat": -32.9107697,
    "lng": 151.7388535,
    "place_id": "ChIJeSHaOfQVc2sRoGG0uEbomwQ",
    "maps_url": "https://www.google.com/maps/place/?q=place_id:ChIJeSHaOfQVc2sRoGG0uEbomwQ"
  },
  {
    "name": "Guitar Service Newcastle",
    "address": "Kings Rd, New Lambton NSW 2305, Australia",
    "suburb": "New Lambton NSW 2305",
    "state": "NSW",
    "rating": 5,
    "reviews": 122,
    "lat": -32.93092920000001,
    "lng": 151.7217736,
    "place_id": "ChIJqYW8orYVc2sRpfzxgHcnZE0",
    "maps_url": "https://www.google.com/maps/place/?q=place_id:ChIJqYW8orYVc2sRpfzxgHcnZE0"
  },
  {
    "name": "Salt Mine Repair Services",
    "address": "35 Kullaroo Rd, Charlestown NSW 2290, Australia",
    "suburb": "Charlestown NSW 2290",
    "state": "NSW",
    "rating": 4.9,
    "reviews": 113,
    "lat": -32.9582738,
    "lng": 151.7056693,
    "place_id": "ChIJW3JGQBeuEmsR1Db3Y5S6jX4",
    "maps_url": "https://www.google.com/maps/place/?q=place_id:ChIJW3JGQBeuEmsR1Db3Y5S6jX4"
  },
  {
    "name": "Pipers Wollongong Music Centre",
    "address": "390 Crown St, Wollongong NSW 2500, Australia",
    "suburb": "Wollongong NSW 2500",
    "state": "NSW",
    "rating": 4.8,
    "reviews": 466,
    "lat": -34.4256649,
    "lng": 150.8779807,
    "place_id": "ChIJiZ09qZAZE2sRzjeWuc71U9c",
    "maps_url": "https://www.google.com/maps/place/?q=place_id:ChIJiZ09qZAZE2sRzjeWuc71U9c"
  },
  {
    "name": "Leisure Coast Wind and Brass",
    "address": "296 Keira St, Wollongong NSW 2500, Australia",
    "suburb": "Wollongong NSW 2500",
    "state": "NSW",
    "rating": 5,
    "reviews": 151,
    "lat": -34.430274,
    "lng": 150.89215,
    "place_id": "ChIJmT0kyRgaE2sRPj-LyTvwB9M",
    "maps_url": "https://www.google.com/maps/place/?q=place_id:ChIJmT0kyRgaE2sRPj-LyTvwB9M"
  },
  {
    "name": "Syrinx Musical Instruments",
    "address": "296 Keira St, Wollongong NSW 2500, Australia",
    "suburb": "Wollongong NSW 2500",
    "state": "NSW",
    "rating": 5,
    "reviews": 3,
    "lat": -34.4302744,
    "lng": 150.8921502,
    "place_id": "ChIJq6r-nrAZE2sRXxSSo3tjqf8",
    "maps_url": "https://www.google.com/maps/place/?q=place_id:ChIJq6r-nrAZE2sRXxSSo3tjqf8"
  },
  {
    "name": "Elliott's Guitars",
    "address": "Unit 1/31 Montague St, North Wollongong NSW 2500, Australia",
    "suburb": "North Wollongong NSW 2500",
    "state": "NSW",
    "rating": 5,
    "reviews": 51,
    "lat": -34.398831,
    "lng": 150.8964217,
    "place_id": "ChIJx4lyiZMZE2sRWEdfp3SXk9w",
    "maps_url": "https://www.google.com/maps/place/?q=place_id:ChIJx4lyiZMZE2sRWEdfp3SXk9w"
  },
  {
    "name": "The Basement Unplugged",
    "address": "2/22 Durgadin Dr, Albion Park Rail NSW 2527, Australia",
    "suburb": "Albion Park Rail NSW 2527",
    "state": "NSW",
    "rating": 4,
    "reviews": 366,
    "lat": -34.5742738,
    "lng": 150.8165179,
    "place_id": "ChIJW4FnCB0TE2sRbV42lEFoYiE",
    "maps_url": "https://www.google.com/maps/place/?q=place_id:ChIJW4FnCB0TE2sRbV42lEFoYiE"
  },
  {
    "name": "Music Farmers",
    "address": "228 Keira St, Wollongong NSW 2500, Australia",
    "suburb": "Wollongong NSW 2500",
    "state": "NSW",
    "rating": 4.6,
    "reviews": 87,
    "lat": -34.4255063,
    "lng": 150.8928703,
    "place_id": "ChIJVVVVVZkZE2sR58IlFOcxm0o",
    "maps_url": "https://www.google.com/maps/place/?q=place_id:ChIJVVVVVZkZE2sR58IlFOcxm0o"
  },
  {
    "name": "Engadine Music Store + Education Specialists",
    "address": "25 Station St, Engadine NSW 2233, Australia",
    "suburb": "Engadine NSW 2233",
    "state": "NSW",
    "rating": 4.7,
    "reviews": 70,
    "lat": -34.0665138,
    "lng": 151.0142915,
    "place_id": "ChIJb1Fmp23BEmsRgvkoMWF2VxU",
    "maps_url": "https://www.google.com/maps/place/?q=place_id:ChIJb1Fmp23BEmsRgvkoMWF2VxU"
  },
  {
    "name": "Gaslight Music",
    "address": "11 MacLeay Pl, Albion Park NSW 2527, Australia",
    "suburb": "Albion Park NSW 2527",
    "state": "NSW",
    "rating": 5,
    "reviews": 5,
    "lat": -34.5834805,
    "lng": 150.7738765,
    "place_id": "ChIJlUcF_BAZE2sRj2F8pi7l0ss",
    "maps_url": "https://www.google.com/maps/place/?q=place_id:ChIJlUcF_BAZE2sRj2F8pi7l0ss"
  },
  {
    "name": "South Coast Music",
    "address": "19 Kinghorne St, Nowra NSW 2541, Australia",
    "suburb": "Nowra NSW 2541",
    "state": "NSW",
    "rating": 4.4,
    "reviews": 254,
    "lat": -34.8739009,
    "lng": 150.602468,
    "place_id": "ChIJC1DrLx-AFGsRmdDEaDIfbrs",
    "maps_url": "https://www.google.com/maps/place/?q=place_id:ChIJC1DrLx-AFGsRmdDEaDIfbrs"
  },
  {
    "name": "Elk Elektronik",
    "address": "Bay 1/36 Ralph Black Dr, North Wollongong NSW 2500, Australia",
    "suburb": "North Wollongong NSW 2500",
    "state": "NSW",
    "rating": 4.9,
    "reviews": 74,
    "lat": -34.4097604,
    "lng": 150.8935563,
    "place_id": "ChIJkVyf1fQZE2sRo_5KBlCEYAE",
    "maps_url": "https://www.google.com/maps/place/?q=place_id:ChIJkVyf1fQZE2sRo_5KBlCEYAE"
  },
  {
    "name": "Bond Peter",
    "address": "75 Montague St, North Wollongong NSW 2500, Australia",
    "suburb": "North Wollongong NSW 2500",
    "state": "NSW",
    "rating": 3.9,
    "reviews": 8,
    "lat": -34.4038248,
    "lng": 150.8957905,
    "place_id": "ChIJoWTcWxcZE2sRvNFKNcLBoaI",
    "maps_url": "https://www.google.com/maps/place/?q=place_id:ChIJoWTcWxcZE2sRvNFKNcLBoaI"
  },
  {
    "name": "Piano Shop Wollongong",
    "address": "75 Montague St, North Wollongong NSW 2500, Australia",
    "suburb": "North Wollongong NSW 2500",
    "state": "NSW",
    "rating": null,
    "reviews": 0,
    "lat": -34.4038248,
    "lng": 150.8957905,
    "place_id": "ChIJrdZ6XxcZE2sRssAwQ_OLX7w",
    "maps_url": "https://www.google.com/maps/place/?q=place_id:ChIJrdZ6XxcZE2sRssAwQ_OLX7w"
  },
  {
    "name": "Steve Forrest Music Tuggerah",
    "address": "Upstairs, Office 1/2/112 Pacific Hwy, Tuggerah NSW 2259, Australia",
    "suburb": "Office 1/2/112 Pacific Hwy",
    "state": "NSW",
    "rating": 4.7,
    "reviews": 137,
    "lat": -33.3047582,
    "lng": 151.4200557,
    "place_id": "ChIJG14opwrOcmsRf_6EjMMNtcc",
    "maps_url": "https://www.google.com/maps/place/?q=place_id:ChIJG14opwrOcmsRf_6EjMMNtcc"
  },
  {
    "name": "LoFi Music",
    "address": "13/5 Daintree Pl, West Gosford NSW 2250, Australia",
    "suburb": "West Gosford NSW 2250",
    "state": "NSW",
    "rating": 4.9,
    "reviews": 38,
    "lat": -33.4107282,
    "lng": 151.3252467,
    "place_id": "ChIJAbUv-As1DWsRhbclKjlkNJE",
    "maps_url": "https://www.google.com/maps/place/?q=place_id:ChIJAbUv-As1DWsRhbclKjlkNJE"
  },
  {
    "name": "Harpers Music",
    "address": "Unit 13/11-13 Cochrone St, Kincumber NSW 2251, Australia",
    "suburb": "Kincumber NSW 2251",
    "state": "NSW",
    "rating": 5,
    "reviews": 6,
    "lat": -33.4724772,
    "lng": 151.393134,
    "place_id": "ChIJd_YE9S61cmsRgeYOHPGyK_A",
    "maps_url": "https://www.google.com/maps/place/?q=place_id:ChIJd_YE9S61cmsRgeYOHPGyK_A"
  },
  {
    "name": "Amp Craft Electronics - Guitar Craft Central Coast",
    "address": "Unit 67/13 Jusfrute Dr, West Gosford NSW 2250, Australia",
    "suburb": "West Gosford NSW 2250",
    "state": "NSW",
    "rating": 5,
    "reviews": 26,
    "lat": -33.4289477,
    "lng": 151.3106083,
    "place_id": "ChIJGTy7uEjLcmsR7Tr4SUho6dI",
    "maps_url": "https://www.google.com/maps/place/?q=place_id:ChIJGTy7uEjLcmsR7Tr4SUho6dI"
  },
  {
    "name": "Central Coast Guitars",
    "address": "Unit A23/2a Lucca Rd, Wyong NSW 2259, Australia",
    "suburb": "Wyong NSW 2259",
    "state": "NSW",
    "rating": 5,
    "reviews": 42,
    "lat": -33.2675433,
    "lng": 151.4411693,
    "place_id": "ChIJJ8gfuibLcmsRVG4EAAZvljU",
    "maps_url": "https://www.google.com/maps/place/?q=place_id:ChIJJ8gfuibLcmsRVG4EAAZvljU"
  },
  {
    "name": "Rock Stock Music Shop Vending Machine (Woy Woy)",
    "address": "Railway St, Woy Woy NSW 2256, Australia",
    "suburb": "Woy Woy NSW 2256",
    "state": "NSW",
    "rating": 5,
    "reviews": 1,
    "lat": -33.4875211,
    "lng": 151.3235728,
    "place_id": "ChIJAaOeiGspc2sR6SsHprG5Bq8",
    "maps_url": "https://www.google.com/maps/place/?q=place_id:ChIJAaOeiGspc2sR6SsHprG5Bq8"
  },
  {
    "name": "Central Coast Woodwind & Brass Services",
    "address": "228 Henry Parry Dr, North Gosford NSW 2250, Australia",
    "suburb": "North Gosford NSW 2250",
    "state": "NSW",
    "rating": 4.7,
    "reviews": 15,
    "lat": -33.4152735,
    "lng": 151.3486817,
    "place_id": "ChIJ6wxhPr7KcmsRG5cvB28asvY",
    "maps_url": "https://www.google.com/maps/place/?q=place_id:ChIJ6wxhPr7KcmsRG5cvB28asvY"
  },
  {
    "name": "High Street Music",
    "address": "491 High St, Penrith NSW 2750, Australia",
    "suburb": "Penrith NSW 2750",
    "state": "NSW",
    "rating": 4.7,
    "reviews": 103,
    "lat": -33.7531487,
    "lng": 150.6959073,
    "place_id": "ChIJucrIlfSFEmsRosnkWV29m_U",
    "maps_url": "https://www.google.com/maps/place/?q=place_id:ChIJucrIlfSFEmsRosnkWV29m_U"
  },
  {
    "name": "Guitar Factory Penrith",
    "address": "12 Castlereagh St, Penrith NSW 2750, Australia",
    "suburb": "Penrith NSW 2750",
    "state": "NSW",
    "rating": 4.9,
    "reviews": 345,
    "lat": -33.7552005,
    "lng": 150.6990222,
    "place_id": "ChIJMb4KJYuFEmsRDzPS-0SC7zI",
    "maps_url": "https://www.google.com/maps/place/?q=place_id:ChIJMb4KJYuFEmsRDzPS-0SC7zI"
  },
  {
    "name": "Stormer Music Penrith",
    "address": "Suite 7, Level 1/20-22 Woodriff St, Penrith NSW 2750, Australia",
    "suburb": "Level 1/20-22 Woodriff St",
    "state": "NSW",
    "rating": 4.7,
    "reviews": 57,
    "lat": -33.754349,
    "lng": 150.697597,
    "place_id": "ChIJw0jBYIyFEmsRfUd9F9tqdUU",
    "maps_url": "https://www.google.com/maps/place/?q=place_id:ChIJw0jBYIyFEmsRfUd9F9tqdUU"
  },
  {
    "name": "Guitar World - City Arcade",
    "address": "Shop 8b/17 Blaxland Service Way, Campbelltown NSW 2560, Australia",
    "suburb": "Campbelltown NSW 2560",
    "state": "NSW",
    "rating": 4.7,
    "reviews": 151,
    "lat": -34.0534725,
    "lng": 150.8206577,
    "place_id": "ChIJs3Cxg_juEmsReuJYUGNEap8",
    "maps_url": "https://www.google.com/maps/place/?q=place_id:ChIJs3Cxg_juEmsReuJYUGNEap8"
  },
  {
    "name": "Brad's Guitar Garage",
    "address": "3/129 Russell St, Emu Plains NSW 2750, Australia",
    "suburb": "Emu Plains NSW 2750",
    "state": "NSW",
    "rating": 5,
    "reviews": 94,
    "lat": -33.7443789,
    "lng": 150.6545337,
    "place_id": "ChIJE-m_RIiHEmsR8ZKqZyf9Lw0",
    "maps_url": "https://www.google.com/maps/place/?q=place_id:ChIJE-m_RIiHEmsR8ZKqZyf9Lw0"
  },
  {
    "name": "Penrith School of Guitar",
    "address": "26 Skiptons Arcade, 541 High St, Penrith NSW 2750, Australia",
    "suburb": "541 High St",
    "state": "NSW",
    "rating": 4.9,
    "reviews": 12,
    "lat": -33.7526783,
    "lng": 150.6942553,
    "place_id": "ChIJC25bafSFEmsRlRdq1vLMxVU",
    "maps_url": "https://www.google.com/maps/place/?q=place_id:ChIJC25bafSFEmsRlRdq1vLMxVU"
  },
  {
    "name": "Dural Music Centre",
    "address": "31-32/286 New Line Rd, Dural NSW 2158, Australia",
    "suburb": "Dural NSW 2158",
    "state": "NSW",
    "rating": 4.8,
    "reviews": 71,
    "lat": -33.6964131,
    "lng": 151.0327598,
    "place_id": "ChIJs-XTebmgEmsR1zMWfjOKIVc",
    "maps_url": "https://www.google.com/maps/place/?q=place_id:ChIJs-XTebmgEmsR1zMWfjOKIVc"
  },
  {
    "name": "JB Hi-Fi Penrith Westfield HOME",
    "address": "Store MM1/21-55 Station St, Penrith NSW 2750, Australia",
    "suburb": "Penrith NSW 2750",
    "state": "NSW",
    "rating": 4.2,
    "reviews": 2134,
    "lat": -33.7507887,
    "lng": 150.6953459,
    "place_id": "ChIJcf8fefOFEmsR1LXDj9cGJFc",
    "maps_url": "https://www.google.com/maps/place/?q=place_id:ChIJcf8fefOFEmsR1LXDj9cGJFc"
  },
  {
    "name": "The Music House Penrith",
    "address": "Higgins Street, (Opposite St. Nicholas Primary School), Penrith NSW 2750, Australia",
    "suburb": "(Opposite St. Nicholas Primary School)",
    "state": "NSW",
    "rating": 4.8,
    "reviews": 6,
    "lat": -33.755028,
    "lng": 150.700122,
    "place_id": "ChIJFyQZEYuFEmsRiOXhALVulyg",
    "maps_url": "https://www.google.com/maps/place/?q=place_id:ChIJFyQZEYuFEmsRiOXhALVulyg"
  },
  {
    "name": "Maxx Music Lesson School & Retail Rouse Hill",
    "address": "Opposite Medical Centre, Suite 103, Level 1/10-14 Market Ln, Rouse Hill NSW 2155, Australia",
    "suburb": "Suite 103",
    "state": "NSW",
    "rating": 4.3,
    "reviews": 124,
    "lat": -33.6915653,
    "lng": 150.9249306,
    "place_id": "ChIJtfz7tSR5tAERuVi9mnEG0uA",
    "maps_url": "https://www.google.com/maps/place/?q=place_id:ChIJtfz7tSR5tAERuVi9mnEG0uA"
  },
  {
    "name": "KJ Studios",
    "address": "Broadwalk Arcade, 458-470 High St, Penrith NSW 2750, Australia",
    "suburb": "458-470 High St",
    "state": "NSW",
    "rating": 4.3,
    "reviews": 27,
    "lat": -33.7534105,
    "lng": 150.6962554,
    "place_id": "ChIJJZhIN3CPEmsR0yjtXdsX3fU",
    "maps_url": "https://www.google.com/maps/place/?q=place_id:ChIJJZhIN3CPEmsR0yjtXdsX3fU"
  },
  {
    "name": "Mega Cash - Penrith",
    "address": "Shop 12-13/92-112 Henry St, Penrith NSW 2750, Australia",
    "suburb": "Penrith NSW 2750",
    "state": "NSW",
    "rating": 4.9,
    "reviews": 309,
    "lat": -33.7525079,
    "lng": 150.6980508,
    "place_id": "ChIJYWtSVPOFEmsRRQwXnbQ2TQg",
    "maps_url": "https://www.google.com/maps/place/?q=place_id:ChIJYWtSVPOFEmsRRQwXnbQ2TQg"
  },
  {
    "name": "Penrith Conservatorium of Music",
    "address": "597 High St, Penrith NSW 2750, Australia",
    "suburb": "Penrith NSW 2750",
    "state": "NSW",
    "rating": 4.9,
    "reviews": 8,
    "lat": -33.7511596,
    "lng": 150.6903076,
    "place_id": "ChIJNzLBz_aFEmsRi9BirIlWZcE",
    "maps_url": "https://www.google.com/maps/place/?q=place_id:ChIJNzLBz_aFEmsRi9BirIlWZcE"
  },
  {
    "name": "Sieff's Music | Blacktown",
    "address": "10 Patrick St, Blacktown NSW 2148, Australia",
    "suburb": "Blacktown NSW 2148",
    "state": "NSW",
    "rating": 3.6,
    "reviews": 91,
    "lat": -33.7707413,
    "lng": 150.9070228,
    "place_id": "ChIJ_3uhBgCZEmsRzSraWF2N6WI",
    "maps_url": "https://www.google.com/maps/place/?q=place_id:ChIJ_3uhBgCZEmsRzSraWF2N6WI"
  },
  {
    "name": "Pure Sound",
    "address": "42 Murphy Ave, Liverpool NSW 2170, Australia",
    "suburb": "Liverpool NSW 2170",
    "state": "NSW",
    "rating": 5,
    "reviews": 4,
    "lat": -33.9264445,
    "lng": 150.9107368,
    "place_id": "ChIJfU0gyg6VEmsRb2WySEPu-w0",
    "maps_url": "https://www.google.com/maps/place/?q=place_id:ChIJfU0gyg6VEmsRb2WySEPu-w0"
  },
  {
    "name": "Maestro",
    "address": "252 Macquarie St, Liverpool NSW 2170, Australia",
    "suburb": "Liverpool NSW 2170",
    "state": "NSW",
    "rating": null,
    "reviews": 0,
    "lat": -33.9237757,
    "lng": 150.9238815,
    "place_id": "ChIJZdLv47uVEmsRNsHYNELv4Rc",
    "maps_url": "https://www.google.com/maps/place/?q=place_id:ChIJZdLv47uVEmsRNsHYNELv4Rc"
  },
  {
    "name": "Muso's Supply and Service",
    "address": "Shop 1/55 Raymond St, Bankstown NSW 2200, Australia",
    "suburb": "Bankstown NSW 2200",
    "state": "NSW",
    "rating": 4.9,
    "reviews": 90,
    "lat": -33.9194484,
    "lng": 151.0359007,
    "place_id": "ChIJyQ7a9Bq8EmsRNN43DMP_jSc",
    "maps_url": "https://www.google.com/maps/place/?q=place_id:ChIJyQ7a9Bq8EmsRNN43DMP_jSc"
  },
  {
    "name": "Stormer Music Bankstown",
    "address": "1/12 Fetherstone St, Bankstown NSW 2200, Australia",
    "suburb": "Bankstown NSW 2200",
    "state": "NSW",
    "rating": 4.4,
    "reviews": 35,
    "lat": -33.9166655,
    "lng": 151.0339563,
    "place_id": "ChIJJWUxvRq8EmsRerHduwMBX28",
    "maps_url": "https://www.google.com/maps/place/?q=place_id:ChIJJWUxvRq8EmsRerHduwMBX28"
  },
  {
    "name": "Parsons Music - Music Store & Lessons Chatswood, Piano, Guitar, Drums, Violin",
    "address": "338/1 Anderson St, Chatswood NSW 2067, Australia",
    "suburb": "Chatswood NSW 2067",
    "state": "NSW",
    "rating": 3.8,
    "reviews": 220,
    "lat": -33.7973798,
    "lng": 151.1843083,
    "place_id": "ChIJTYNRtNWoEmsRziWtg_MXJCo",
    "maps_url": "https://www.google.com/maps/place/?q=place_id:ChIJTYNRtNWoEmsRziWtg_MXJCo"
  },
  {
    "name": "The Sydney String Centre | Chatswood",
    "address": "314 High St, Chatswood NSW 2067, Australia",
    "suburb": "Chatswood NSW 2067",
    "state": "NSW",
    "rating": 4.9,
    "reviews": 917,
    "lat": -33.7867778,
    "lng": 151.1962673,
    "place_id": "ChIJKWzXwC-pEmsRGHNnGCchVfg",
    "maps_url": "https://www.google.com/maps/place/?q=place_id:ChIJKWzXwC-pEmsRGHNnGCchVfg"
  },
  {
    "name": "Adlib Music",
    "address": "Suite 2/328 High St, Chatswood NSW 2067, Australia",
    "suburb": "Chatswood NSW 2067",
    "state": "NSW",
    "rating": 4.8,
    "reviews": 93,
    "lat": -33.7864215,
    "lng": 151.1961084,
    "place_id": "ChIJXyv1QtGoEmsR6DvCtYUoWZc",
    "maps_url": "https://www.google.com/maps/place/?q=place_id:ChIJXyv1QtGoEmsR6DvCtYUoWZc"
  },
  {
    "name": "Ukulele Mate",
    "address": "9 Sirius Rd, Lane Cove West NSW 2066, Australia",
    "suburb": "Lane Cove West NSW 2066",
    "state": "NSW",
    "rating": 5,
    "reviews": 1594,
    "lat": -33.80846,
    "lng": 151.1460874,
    "place_id": "ChIJS05QLyqrEmsRsVbYQTzI2Qc",
    "maps_url": "https://www.google.com/maps/place/?q=place_id:ChIJS05QLyqrEmsRsVbYQTzI2Qc"
  },
  {
    "name": "In Tune Music Pty Ltd",
    "address": "48 Atchison St, St Leonards NSW 2065, Australia",
    "suburb": "St Leonards NSW 2065",
    "state": "NSW",
    "rating": 4.7,
    "reviews": 69,
    "lat": -33.8228206,
    "lng": 151.1979783,
    "place_id": "ChIJ3UVsL92uEmsRJzyPn4t2bzY",
    "maps_url": "https://www.google.com/maps/place/?q=place_id:ChIJ3UVsL92uEmsRJzyPn4t2bzY"
  },
  {
    "name": "Mona Vale Music",
    "address": "51-55 Bassett St, Mona Vale NSW 2103, Australia",
    "suburb": "Mona Vale NSW 2103",
    "state": "NSW",
    "rating": 4.7,
    "reviews": 53,
    "lat": -33.6732946,
    "lng": 151.3094893,
    "place_id": "ChIJYxN_TqFUDWsRSG_JfFOBgUs",
    "maps_url": "https://www.google.com/maps/place/?q=place_id:ChIJYxN_TqFUDWsRSG_JfFOBgUs"
  },
  {
    "name": "Australia Piano World (Sydney Piano World)",
    "address": "Unit 20b/390 Eastern Valley Way, Chatswood NSW 2067, Australia",
    "suburb": "Chatswood NSW 2067",
    "state": "NSW",
    "rating": 4.9,
    "reviews": 494,
    "lat": -33.7829739,
    "lng": 151.1966757,
    "place_id": "ChIJLeSkEhipEmsReXOO5x6Py_Y",
    "maps_url": "https://www.google.com/maps/place/?q=place_id:ChIJLeSkEhipEmsReXOO5x6Py_Y"
  },
  {
    "name": "Australian Piano Warehouse",
    "address": "285 Penshurst St, North Willoughby NSW 2068, Australia",
    "suburb": "North Willoughby NSW 2068",
    "state": "NSW",
    "rating": 4.6,
    "reviews": 307,
    "lat": -33.79409,
    "lng": 151.1963913,
    "place_id": "ChIJd3jVrr2pEmsRm-BqfE64zTA",
    "maps_url": "https://www.google.com/maps/place/?q=place_id:ChIJd3jVrr2pEmsRm-BqfE64zTA"
  },
  {
    "name": "Noble Academy Chatswood",
    "address": "The Gallery, Level 1/445 Victoria Ave, Chatswood NSW 2067, Australia",
    "suburb": "Level 1/445 Victoria Ave",
    "state": "NSW",
    "rating": 4.9,
    "reviews": 51,
    "lat": -33.7964199,
    "lng": 151.1820646,
    "place_id": "ChIJD_H1EiupEmsR__lq2PFrMyY",
    "maps_url": "https://www.google.com/maps/place/?q=place_id:ChIJD_H1EiupEmsR__lq2PFrMyY"
  },
  {
    "name": "Devirra Music",
    "address": "Suite 2/328 High St, Chatswood NSW 2067, Australia",
    "suburb": "Chatswood NSW 2067",
    "state": "NSW",
    "rating": 5,
    "reviews": 1,
    "lat": -33.786553,
    "lng": 151.1958348,
    "place_id": "ChIJIdqtByOpEmsR8si6lWFK04A",
    "maps_url": "https://www.google.com/maps/place/?q=place_id:ChIJIdqtByOpEmsR8si6lWFK04A"
  },
  {
    "name": "Strings Embassy - Enthusiastic and Inteligent Practise Lessons - Instrument Sales & Rentals",
    "address": "250 Military Rd, Neutral Bay NSW 2089, Australia",
    "suburb": "Neutral Bay NSW 2089",
    "state": "NSW",
    "rating": 4.4,
    "reviews": 45,
    "lat": -33.8308932,
    "lng": 151.2242298,
    "place_id": "ChIJ4T8pf1-3EmsRw1j_EUy6qjw",
    "maps_url": "https://www.google.com/maps/place/?q=place_id:ChIJ4T8pf1-3EmsRw1j_EUy6qjw"
  },
  {
    "name": "Shine Music School",
    "address": "1/12 Thomas St, Chatswood NSW 2067, Australia",
    "suburb": "Chatswood NSW 2067",
    "state": "NSW",
    "rating": 4.7,
    "reviews": 106,
    "lat": -33.7982208,
    "lng": 151.180101,
    "place_id": "ChIJgX0RMNOoEmsRoZQtZ4nIrVQ",
    "maps_url": "https://www.google.com/maps/place/?q=place_id:ChIJgX0RMNOoEmsRoZQtZ4nIrVQ"
  },
  {
    "name": "Lyndon Music",
    "address": "Suite 202/11 Help St, Chatswood NSW 2067, Australia",
    "suburb": "Chatswood NSW 2067",
    "state": "NSW",
    "rating": null,
    "reviews": 0,
    "lat": -33.7954694,
    "lng": 151.1789655,
    "place_id": "ChIJ___vxdOoEmsRShu69V7VaGs",
    "maps_url": "https://www.google.com/maps/place/?q=place_id:ChIJ___vxdOoEmsRShu69V7VaGs"
  },
  {
    "name": "Deep Tone Music | Service & Repairs",
    "address": "135 New Canterbury Rd, Lewisham NSW 2049, Australia",
    "suburb": "Lewisham NSW 2049",
    "state": "NSW",
    "rating": 4.9,
    "reviews": 261,
    "lat": -33.8967986,
    "lng": 151.1499575,
    "place_id": "ChIJJX3rDiuxEmsRsMyISNMOMsA",
    "maps_url": "https://www.google.com/maps/place/?q=place_id:ChIJJX3rDiuxEmsRsMyISNMOMsA"
  },
  {
    "name": "JB Hi-Fi Chatswood Westfield",
    "address": "Store 500 Anderson St, Chatswood NSW 2067, Australia",
    "suburb": "Chatswood NSW 2067",
    "state": "NSW",
    "rating": 4.1,
    "reviews": 1715,
    "lat": -33.7972649,
    "lng": 151.1840375,
    "place_id": "ChIJ1zigotaoEmsRbbiwK0S6pgs",
    "maps_url": "https://www.google.com/maps/place/?q=place_id:ChIJ1zigotaoEmsRbbiwK0S6pgs"
  },
  {
    "name": "MixupMusic",
    "address": "9 Coronation St, Hornsby NSW 2077, Australia",
    "suburb": "Hornsby NSW 2077",
    "state": "NSW",
    "rating": 4.9,
    "reviews": 62,
    "lat": -33.7019481,
    "lng": 151.0977943,
    "place_id": "ChIJJ2VkHISnEmsRkO3aDHZLR5U",
    "maps_url": "https://www.google.com/maps/place/?q=place_id:ChIJJ2VkHISnEmsRkO3aDHZLR5U"
  },
  {
    "name": "Tom Sparkes Instrument Repairs",
    "address": "6/103 Hunter St, Hornsby NSW 2077, Australia",
    "suburb": "Hornsby NSW 2077",
    "state": "NSW",
    "rating": 5,
    "reviews": 104,
    "lat": -33.6988225,
    "lng": 151.1013617,
    "place_id": "ChIJeeblaYenEmsR1bwkAXE3BTI",
    "maps_url": "https://www.google.com/maps/place/?q=place_id:ChIJeeblaYenEmsR1bwkAXE3BTI"
  },
  {
    "name": "Gary McFetridge & Son Fretted Instrument Repairs",
    "address": "58 Florence St, Hornsby NSW 2077, Australia",
    "suburb": "Hornsby NSW 2077",
    "state": "NSW",
    "rating": 5,
    "reviews": 1,
    "lat": -33.7048778,
    "lng": 151.1047093,
    "place_id": "ChIJ_-cp7oWnEmsRv9XRuXumwZQ",
    "maps_url": "https://www.google.com/maps/place/?q=place_id:ChIJ_-cp7oWnEmsRv9XRuXumwZQ"
  },
  {
    "name": "Artisan Stringed Instruments",
    "address": "Unit 4/282/288 Peats Ferry Rd, Hornsby NSW 2077, Australia",
    "suburb": "Hornsby NSW 2077",
    "state": "NSW",
    "rating": 5,
    "reviews": 10,
    "lat": -33.7021552,
    "lng": 151.0971525,
    "place_id": "ChIJ2y7BAeOnEmsRrIPlHG82PkE",
    "maps_url": "https://www.google.com/maps/place/?q=place_id:ChIJ2y7BAeOnEmsRrIPlHG82PkE"
  },
  {
    "name": "Manly Guitar Works The Most Trusted Guitar & Bass Repairs and Servicing on the northern beaches",
    "address": "56a Consul Rd N, Narraweena NSW 2099, Australia",
    "suburb": "Narraweena NSW 2099",
    "state": "NSW",
    "rating": 5,
    "reviews": 124,
    "lat": -33.7571263,
    "lng": 151.2694567,
    "place_id": "ChIJx-FMyhCqEmsRjPlJZcREzsE",
    "maps_url": "https://www.google.com/maps/place/?q=place_id:ChIJx-FMyhCqEmsRjPlJZcREzsE"
  },
  {
    "name": "Manly Music",
    "address": "15 The Corso, Manly NSW 2095, Australia",
    "suburb": "Manly NSW 2095",
    "state": "NSW",
    "rating": 5,
    "reviews": 7,
    "lat": -33.7982294,
    "lng": 151.2855978,
    "place_id": "ChIJi306iVurEmsRL3I8GhfxLZ0",
    "maps_url": "https://www.google.com/maps/place/?q=place_id:ChIJi306iVurEmsRL3I8GhfxLZ0"
  },
  {
    "name": "CD Direct Factory Outlet",
    "address": "74 The Corso, Manly NSW 2095, Australia",
    "suburb": "Manly NSW 2095",
    "state": "NSW",
    "rating": 5,
    "reviews": 1,
    "lat": -33.797949,
    "lng": 151.287318,
    "place_id": "ChIJD99ePg-rEmsRqZ6pmigTj5U",
    "maps_url": "https://www.google.com/maps/place/?q=place_id:ChIJD99ePg-rEmsRqZ6pmigTj5U"
  },
  {
    "name": "Bexley Guitars",
    "address": "415 Forest Rd, Bexley NSW 2207, Australia",
    "suburb": "Bexley NSW 2207",
    "state": "NSW",
    "rating": 4.5,
    "reviews": 40,
    "lat": -33.9484192,
    "lng": 151.1274561,
    "place_id": "ChIJ43iIuDy6EmsRskGDM6b60xQ",
    "maps_url": "https://www.google.com/maps/place/?q=place_id:ChIJ43iIuDy6EmsRskGDM6b60xQ"
  },
  {
    "name": "M&M'S GUITAR SCHOOL",
    "address": "167 Pittwater Rd, Manly NSW 2095, Australia",
    "suburb": "Manly NSW 2095",
    "state": "NSW",
    "rating": 5,
    "reviews": 2,
    "lat": -33.78939769999999,
    "lng": 151.2846183,
    "place_id": "ChIJXYR6QAGrEmsR0ee2g3X1T_g",
    "maps_url": "https://www.google.com/maps/place/?q=place_id:ChIJXYR6QAGrEmsR0ee2g3X1T_g"
  },
  {
    "name": "manly music studio",
    "address": "167 Pittwater Rd, Manly NSW 2095, Australia",
    "suburb": "Manly NSW 2095",
    "state": "NSW",
    "rating": null,
    "reviews": 0,
    "lat": -33.7893787,
    "lng": 151.2846327,
    "place_id": "ChIJ-28cQAGrEmsRVXWw3rQQTO0",
    "maps_url": "https://www.google.com/maps/place/?q=place_id:ChIJ-28cQAGrEmsRVXWw3rQQTO0"
  },
  {
    "name": "Guitar Garage",
    "address": "604 Old South Head Rd, Rose Bay NSW 2029, Australia",
    "suburb": "Rose Bay NSW 2029",
    "state": "NSW",
    "rating": 5,
    "reviews": 41,
    "lat": -33.8703621,
    "lng": 151.2757584,
    "place_id": "ChIJl7m7noatEmsRD6IDvPLnmrs",
    "maps_url": "https://www.google.com/maps/place/?q=place_id:ChIJl7m7noatEmsRD6IDvPLnmrs"
  },
  {
    "name": "Bondi Records",
    "address": "258 Oxford St, Bondi Junction NSW 2022, Australia",
    "suburb": "Bondi Junction NSW 2022",
    "state": "NSW",
    "rating": 4.9,
    "reviews": 100,
    "lat": -33.8907204,
    "lng": 151.2440372,
    "place_id": "ChIJLyZOAcFz5EwRysI3AEf4jq4",
    "maps_url": "https://www.google.com/maps/place/?q=place_id:ChIJLyZOAcFz5EwRysI3AEf4jq4"
  },
  {
    "name": "Custom Audio and Instrument Cables",
    "address": "87 Oakley Rd, North Bondi NSW 2026, Australia",
    "suburb": "North Bondi NSW 2026",
    "state": "NSW",
    "rating": null,
    "reviews": 0,
    "lat": -33.8843933,
    "lng": 151.2752101,
    "place_id": "ChIJJckN7aGtEmsRSR_zkz_sbl8",
    "maps_url": "https://www.google.com/maps/place/?q=place_id:ChIJJckN7aGtEmsRSR_zkz_sbl8"
  },
  {
    "name": "Global Vintage Guitars",
    "address": "King St, Newtown NSW 2042, Australia",
    "suburb": "Newtown NSW 2042",
    "state": "NSW",
    "rating": 4.3,
    "reviews": 89,
    "lat": -33.8927164,
    "lng": 151.1862655,
    "place_id": "ChIJqzgKPSOwEmsRd0AOfea0tZs",
    "maps_url": "https://www.google.com/maps/place/?q=place_id:ChIJqzgKPSOwEmsRd0AOfea0tZs"
  },
  {
    "name": "All Music",
    "address": "608 Dean St, Albury NSW 2640, Australia",
    "suburb": "Albury NSW 2640",
    "state": "NSW",
    "rating": 4.7,
    "reviews": 98,
    "lat": -36.08028669999999,
    "lng": 146.9142093,
    "place_id": "ChIJ4cdenWZfIWsRGjJpOwLjPec",
    "maps_url": "https://www.google.com/maps/place/?q=place_id:ChIJ4cdenWZfIWsRGjJpOwLjPec"
  },
  {
    "name": "Megas Music Store",
    "address": "161 High St, Wodonga VIC 3690, Australia",
    "suburb": "Wodonga VIC 3690",
    "state": "NSW",
    "rating": 3.8,
    "reviews": 54,
    "lat": -36.124116,
    "lng": 146.887946,
    "place_id": "ChIJobGtlehYIWsR9zXH9zJsyB8",
    "maps_url": "https://www.google.com/maps/place/?q=place_id:ChIJobGtlehYIWsR9zXH9zJsyB8"
  },
  {
    "name": "Mumford Guitars",
    "address": "7 Fraser Ct, West Wodonga VIC 3690, Australia",
    "suburb": "West Wodonga VIC 3690",
    "state": "NSW",
    "rating": 5,
    "reviews": 31,
    "lat": -36.1392011,
    "lng": 146.8615519,
    "place_id": "ChIJ2Ya2LIFZIWsRg1Zm7-hFaKY",
    "maps_url": "https://www.google.com/maps/place/?q=place_id:ChIJ2Ya2LIFZIWsRg1Zm7-hFaKY"
  },
  {
    "name": "Gallacher J",
    "address": "255 Kooba St, North Albury NSW 2640, Australia",
    "suburb": "North Albury NSW 2640",
    "state": "NSW",
    "rating": 5,
    "reviews": 6,
    "lat": -36.0543737,
    "lng": 146.9385778,
    "place_id": "ChIJOYOC9xXgI2sRGGNRPQV9pCY",
    "maps_url": "https://www.google.com/maps/place/?q=place_id:ChIJOYOC9xXgI2sRGGNRPQV9pCY"
  },
  {
    "name": "Murray Conservatorium",
    "address": "502 Dean St, Albury NSW 2640, Australia",
    "suburb": "Albury NSW 2640",
    "state": "NSW",
    "rating": 3.8,
    "reviews": 9,
    "lat": -36.0806731,
    "lng": 146.9179628,
    "place_id": "ChIJB_IkSGJfIWsRkqzFpmYZqfA",
    "maps_url": "https://www.google.com/maps/place/?q=place_id:ChIJB_IkSGJfIWsRkqzFpmYZqfA"
  },
  {
    "name": "JB Hi-Fi Albury - Mates Centre",
    "address": "The Mates Centre, Basement Level, 569 Dean St, Albury NSW 2640, Australia",
    "suburb": "Basement Level",
    "state": "NSW",
    "rating": 4.3,
    "reviews": 1274,
    "lat": -36.0814476,
    "lng": 146.9157714,
    "place_id": "ChIJn8XM-mNfIWsRYi4sbgMZcjo",
    "maps_url": "https://www.google.com/maps/place/?q=place_id:ChIJn8XM-mNfIWsRYi4sbgMZcjo"
  },
  {
    "name": "Cominos Guitar School",
    "address": "727 Forrest Hill Ave, Albury NSW 2640, Australia",
    "suburb": "Albury NSW 2640",
    "state": "NSW",
    "rating": null,
    "reviews": 0,
    "lat": -36.073884,
    "lng": 146.906005,
    "place_id": "ChIJq12HJG5fIWsRVFVQW8VdkRo",
    "maps_url": "https://www.google.com/maps/place/?q=place_id:ChIJq12HJG5fIWsRVFVQW8VdkRo"
  },
  {
    "name": "Allison Music",
    "address": "85 Forsyth St, Wagga Wagga NSW 2650, Australia",
    "suburb": "Wagga Wagga NSW 2650",
    "state": "NSW",
    "rating": 4.7,
    "reviews": 94,
    "lat": -35.1136903,
    "lng": 147.3685785,
    "place_id": "ChIJY-xvWH6ZGGsRjamGb_dZZSM",
    "maps_url": "https://www.google.com/maps/place/?q=place_id:ChIJY-xvWH6ZGGsRjamGb_dZZSM"
  },
  {
    "name": "Don Tuckwell Audio",
    "address": "12/40 Baylis St, Wagga Wagga NSW 2650, Australia",
    "suburb": "Wagga Wagga NSW 2650",
    "state": "NSW",
    "rating": 5,
    "reviews": 17,
    "lat": -35.1173165,
    "lng": 147.3685896,
    "place_id": "ChIJX-NVhn6ZGGsR9neDeWf_JKM",
    "maps_url": "https://www.google.com/maps/place/?q=place_id:ChIJX-NVhn6ZGGsR9neDeWf_JKM"
  },
  {
    "name": "Capitol Music",
    "address": "226 Peel St, Tamworth NSW 2340, Australia",
    "suburb": "Tamworth NSW 2340",
    "state": "NSW",
    "rating": 4.9,
    "reviews": 61,
    "lat": -31.087293,
    "lng": 150.92734,
    "place_id": "ChIJmUekqcuYCmsRL0fdtQvdEss",
    "maps_url": "https://www.google.com/maps/place/?q=place_id:ChIJmUekqcuYCmsRL0fdtQvdEss"
  },
  {
    "name": "Lander's Music",
    "address": "286 Summer St, Orange NSW 2800, Australia",
    "suburb": "Orange NSW 2800",
    "state": "NSW",
    "rating": 4.8,
    "reviews": 106,
    "lat": -33.2841262,
    "lng": 149.1024364,
    "place_id": "ChIJAW7eG9MsEGsRh1RmKRGjgDw",
    "maps_url": "https://www.google.com/maps/place/?q=place_id:ChIJAW7eG9MsEGsRh1RmKRGjgDw"
  },
  {
    "name": "Legends Music Shop",
    "address": "78 Macquarie St, Dubbo NSW 2830, Australia",
    "suburb": "Dubbo NSW 2830",
    "state": "NSW",
    "rating": 4.7,
    "reviews": 47,
    "lat": -32.2451858,
    "lng": 148.6018829,
    "place_id": "ChIJS32e2qxxD2sRnoMT4jPA3jI",
    "maps_url": "https://www.google.com/maps/place/?q=place_id:ChIJS32e2qxxD2sRnoMT4jPA3jI"
  },
  {
    "name": "Coffs Guitar Shop",
    "address": "71 Grafton St, Coffs Harbour NSW 2450, Australia",
    "suburb": "Coffs Harbour NSW 2450",
    "state": "NSW",
    "rating": 4.5,
    "reviews": 70,
    "lat": -30.2968613,
    "lng": 153.1135882,
    "place_id": "ChIJv45KctkNnGsRT3iBCzaJBmQ",
    "maps_url": "https://www.google.com/maps/place/?q=place_id:ChIJv45KctkNnGsRT3iBCzaJBmQ"
  },
  {
    "name": "Rage Music & Vinyl Coffs Harbour",
    "address": "2/20 Gordon St, Coffs Harbour NSW 2450, Australia",
    "suburb": "Coffs Harbour NSW 2450",
    "state": "NSW",
    "rating": 4.8,
    "reviews": 50,
    "lat": -30.2989967,
    "lng": 153.1159439,
    "place_id": "ChIJcb2n9lgNnGsRBL0WOpKCC8M",
    "maps_url": "https://www.google.com/maps/place/?q=place_id:ChIJcb2n9lgNnGsRBL0WOpKCC8M"
  },
  {
    "name": "Fox Music",
    "address": "14/21-27 Hurley Dr, Coffs Harbour NSW 2450, Australia",
    "suburb": "Coffs Harbour NSW 2450",
    "state": "NSW",
    "rating": 5,
    "reviews": 1,
    "lat": -30.3115148,
    "lng": 153.1013943,
    "place_id": "ChIJAzHGaQ8OnGsRpx0eGrHcTO4",
    "maps_url": "https://www.google.com/maps/place/?q=place_id:ChIJAzHGaQ8OnGsRpx0eGrHcTO4"
  },
  {
    "name": "Coastal Music",
    "address": "5/148 Lake Rd, Port Macquarie NSW 2444, Australia",
    "suburb": "Port Macquarie NSW 2444",
    "state": "NSW",
    "rating": 4.9,
    "reviews": 45,
    "lat": -31.4490621,
    "lng": 152.8884535,
    "place_id": "ChIJ60_ngW7_nWsRlf8wE3w7lRY",
    "maps_url": "https://www.google.com/maps/place/?q=place_id:ChIJ60_ngW7_nWsRlf8wE3w7lRY"
  },
  {
    "name": "Port Mac Guitars",
    "address": "Shop1/125 Gordon St, Port Macquarie NSW 2444, Australia",
    "suburb": "Port Macquarie NSW 2444",
    "state": "NSW",
    "rating": 4.8,
    "reviews": 182,
    "lat": -31.4341803,
    "lng": 152.9042734,
    "place_id": "ChIJDaXx_CX_nWsRG_Us4oIuUcU",
    "maps_url": "https://www.google.com/maps/place/?q=place_id:ChIJDaXx_CX_nWsRG_Us4oIuUcU"
  },
  {
    "name": "Planet Music",
    "address": "81 Keen St, Lismore NSW 2480, Australia",
    "suburb": "Lismore NSW 2480",
    "state": "NSW",
    "rating": 4.7,
    "reviews": 47,
    "lat": -28.8080577,
    "lng": 153.2787195,
    "place_id": "ChIJIb9uKxmekGsR4BCm6jcdQl0",
    "maps_url": "https://www.google.com/maps/place/?q=place_id:ChIJIb9uKxmekGsR4BCm6jcdQl0"
  },
  {
    "name": "Music Bizarre",
    "address": "60 Magellan St, Lismore NSW 2480, Australia",
    "suburb": "Lismore NSW 2480",
    "state": "NSW",
    "rating": 4.3,
    "reviews": 32,
    "lat": -28.8090068,
    "lng": 153.2766148,
    "place_id": "ChIJ7zXFMRmekGsRko0yc8Ebg-U",
    "maps_url": "https://www.google.com/maps/place/?q=place_id:ChIJ7zXFMRmekGsRko0yc8Ebg-U"
  },
  {
    "name": "Resonator Music and Tuition",
    "address": "9 Ascot Rd, Ballina NSW 2478, Australia",
    "suburb": "Ballina NSW 2478",
    "state": "NSW",
    "rating": 4.8,
    "reviews": 16,
    "lat": -28.8486309,
    "lng": 153.5584593,
    "place_id": "ChIJrdGgdgydkGsRdq_-d4B_m-c",
    "maps_url": "https://www.google.com/maps/place/?q=place_id:ChIJrdGgdgydkGsRdq_-d4B_m-c"
  },
  {
    "name": "Northern Rivers Music",
    "address": "14 Castle Dr, Lennox Head NSW 2478, Australia",
    "suburb": "Lennox Head NSW 2478",
    "state": "NSW",
    "rating": 5,
    "reviews": 7,
    "lat": -28.8161339,
    "lng": 153.5937748,
    "place_id": "ChIJ69-6Gcx9kGsRkqOMl-3KjnU",
    "maps_url": "https://www.google.com/maps/place/?q=place_id:ChIJ69-6Gcx9kGsRkqOMl-3KjnU"
  },
  {
    "name": "Byron Music",
    "address": "Shop 13 /90/96 Jonson St, Byron Bay NSW 2481, Australia",
    "suburb": "Byron Bay NSW 2481",
    "state": "NSW",
    "rating": 4.8,
    "reviews": 72,
    "lat": -28.6458383,
    "lng": 153.6119295,
    "place_id": "ChIJa55FrTtikGsREDjuhUK4tmU",
    "maps_url": "https://www.google.com/maps/place/?q=place_id:ChIJa55FrTtikGsREDjuhUK4tmU"
  },
  {
    "name": "Son of Drum",
    "address": "1/31 Burringbar St, Mullumbimby NSW 2482, Australia",
    "suburb": "Mullumbimby NSW 2482",
    "state": "NSW",
    "rating": 4.8,
    "reviews": 66,
    "lat": -28.5533825,
    "lng": 153.49993,
    "place_id": "ChIJiz00xHCLkGsRh0nDOLjqvc8",
    "maps_url": "https://www.google.com/maps/place/?q=place_id:ChIJiz00xHCLkGsRh0nDOLjqvc8"
  },
  {
    "name": "Federal Strings",
    "address": "11 Teak Rd, Federal NSW 2480, Australia",
    "suburb": "Federal NSW 2480",
    "state": "NSW",
    "rating": 5,
    "reviews": 67,
    "lat": -28.6646586,
    "lng": 153.4526053,
    "place_id": "ChIJuX6qWnKPkGsRQcuelkT4Y9E",
    "maps_url": "https://www.google.com/maps/place/?q=place_id:ChIJuX6qWnKPkGsRQcuelkT4Y9E"
  },
  {
    "name": "Miranda Music",
    "address": "21 Bay St, Tweed Heads NSW 2485, Australia",
    "suburb": "Tweed Heads NSW 2485",
    "state": "NSW",
    "rating": 4.6,
    "reviews": 76,
    "lat": -28.170718,
    "lng": 153.5416857,
    "place_id": "ChIJOx0q-i4AkWsRg46Cz4pdm1E",
    "maps_url": "https://www.google.com/maps/place/?q=place_id:ChIJOx0q-i4AkWsRg46Cz4pdm1E"
  },
  {
    "name": "Ian D Brown & Associates",
    "address": "Unit 3/14 Southern Cross Dr, Ballina NSW 2478, Australia",
    "suburb": "Ballina NSW 2478",
    "state": "NSW",
    "rating": null,
    "reviews": 0,
    "lat": -28.8510016,
    "lng": 153.5568559,
    "place_id": "ChIJ6z3pJ0CAkGsR6lWuWUWNeSM",
    "maps_url": "https://www.google.com/maps/place/?q=place_id:ChIJ6z3pJ0CAkGsR6lWuWUWNeSM"
  },
  {
    "name": "Jarrah Parry Music",
    "address": "6 Jarrett St, Ballina NSW 2478, Australia",
    "suburb": "Ballina NSW 2478",
    "state": "NSW",
    "rating": null,
    "reviews": 0,
    "lat": -28.8644525,
    "lng": 153.5658112,
    "place_id": "ChIJAw9MF6SBkGsRwzeuHh4YV_Y",
    "maps_url": "https://www.google.com/maps/place/?q=place_id:ChIJAw9MF6SBkGsRwzeuHh4YV_Y"
  },
  {
    "name": "Coleman's Music",
    "address": "266 Coventry St, South Melbourne VIC 3205, Australia",
    "suburb": "South Melbourne VIC 3205",
    "state": "VIC",
    "rating": 4.7,
    "reviews": 1053,
    "lat": -37.8318828,
    "lng": 144.9594394,
    "place_id": "ChIJhQ44H8tC1moRpspJP8cQnxY",
    "maps_url": "https://www.google.com/maps/place/?q=place_id:ChIJhQ44H8tC1moRpspJP8cQnxY"
  },
  {
    "name": "The Acoustic Centre",
    "address": "206 Park St, South Melbourne VIC 3205, Australia",
    "suburb": "South Melbourne VIC 3205",
    "state": "VIC",
    "rating": 4.9,
    "reviews": 1687,
    "lat": -37.8345748,
    "lng": 144.9629445,
    "place_id": "ChIJM3i76QBo1moRKi2FGsmQuBM",
    "maps_url": "https://www.google.com/maps/place/?q=place_id:ChIJM3i76QBo1moRKi2FGsmQuBM"
  },
  {
    "name": "Sky Music",
    "address": "4/2181 Princes Hwy, Clayton VIC 3168, Australia",
    "suburb": "Clayton VIC 3168",
    "state": "VIC",
    "rating": 4.9,
    "reviews": 4321,
    "lat": -37.9249722,
    "lng": 145.1452972,
    "place_id": "ChIJIRqKzi4V1moRdSIu9u-IH1A",
    "maps_url": "https://www.google.com/maps/place/?q=place_id:ChIJIRqKzi4V1moRdSIu9u-IH1A"
  },
  {
    "name": "Music Swop Shop",
    "address": "145-147 Elgin St, Carlton VIC 3053, Australia",
    "suburb": "Carlton VIC 3053",
    "state": "VIC",
    "rating": 4.8,
    "reviews": 482,
    "lat": -37.7975469,
    "lng": 144.9698309,
    "place_id": "ChIJY_Das9dC1moRdas-M_39zWI",
    "maps_url": "https://www.google.com/maps/place/?q=place_id:ChIJY_Das9dC1moRdas-M_39zWI"
  },
  {
    "name": "Melbourne Music Centre",
    "address": "Deliveries to rear, 525 North Rd, Ormond VIC 3204, Australia",
    "suburb": "525 North Rd",
    "state": "VIC",
    "rating": 4.8,
    "reviews": 418,
    "lat": -37.9039522,
    "lng": 145.041583,
    "place_id": "ChIJacaMJXtp1moR1lQDJlVNGR8",
    "maps_url": "https://www.google.com/maps/place/?q=place_id:ChIJacaMJXtp1moR1lQDJlVNGR8"
  },
  {
    "name": "Mannys Music",
    "address": "161-163 St Georges Rd, Fitzroy North VIC 3068, Australia",
    "suburb": "Fitzroy North VIC 3068",
    "state": "VIC",
    "rating": 4.7,
    "reviews": 999,
    "lat": -37.7852886,
    "lng": 144.9817796,
    "place_id": "ChIJF-5Aaz5D1moRbVaT3Fg6dv0",
    "maps_url": "https://www.google.com/maps/place/?q=place_id:ChIJF-5Aaz5D1moRbVaT3Fg6dv0"
  },
  {
    "name": "Found Sound",
    "address": "110 Albert St, Brunswick East VIC 3057, Australia",
    "suburb": "Brunswick East VIC 3057",
    "state": "VIC",
    "rating": 4.9,
    "reviews": 757,
    "lat": -37.7701949,
    "lng": 144.9727571,
    "place_id": "ChIJzeUMs9dC1moRZ08P-LtSsTk",
    "maps_url": "https://www.google.com/maps/place/?q=place_id:ChIJzeUMs9dC1moRZ08P-LtSsTk"
  },
  {
    "name": "Guitar Paradise",
    "address": "402 Victoria St, Richmond VIC 3121, Australia",
    "suburb": "Richmond VIC 3121",
    "state": "VIC",
    "rating": 4.8,
    "reviews": 333,
    "lat": -37.81107009999999,
    "lng": 145.0048733,
    "place_id": "ChIJoeHgZP9C1moRwCV84X7Nd1I",
    "maps_url": "https://www.google.com/maps/place/?q=place_id:ChIJoeHgZP9C1moRwCV84X7Nd1I"
  },
  {
    "name": "Scarlett Music",
    "address": "284-288 Ballarat Rd, Footscray VIC 3011, Australia",
    "suburb": "Footscray VIC 3011",
    "state": "VIC",
    "rating": 4.6,
    "reviews": 871,
    "lat": -37.788557,
    "lng": 144.8833112,
    "place_id": "ChIJT9TfO-Zd1moRHf3e2k6yfHU",
    "maps_url": "https://www.google.com/maps/place/?q=place_id:ChIJT9TfO-Zd1moRHf3e2k6yfHU"
  },
  {
    "name": "Bass Centre",
    "address": "206 Park St, South Melbourne VIC 3205, Australia",
    "suburb": "South Melbourne VIC 3205",
    "state": "VIC",
    "rating": 5,
    "reviews": 1788,
    "lat": -37.83455,
    "lng": 144.962925,
    "place_id": "ChIJQax-6QBo1moRSNKj1oT9PiM",
    "maps_url": "https://www.google.com/maps/place/?q=place_id:ChIJQax-6QBo1moRSNKj1oT9PiM"
  },
  {
    "name": "Australian Piano Warehouse | Melbourne",
    "address": "17B Market St, South Melbourne VIC 3205, Australia",
    "suburb": "South Melbourne VIC 3205",
    "state": "VIC",
    "rating": 4.5,
    "reviews": 306,
    "lat": -37.8293748,
    "lng": 144.9607559,
    "place_id": "ChIJnaGoiAJo1moRyjKLsvR2MWs",
    "maps_url": "https://www.google.com/maps/place/?q=place_id:ChIJnaGoiAJo1moRyjKLsvR2MWs"
  },
  {
    "name": "Angkor Music",
    "address": "4/6 Drake Blvd, Altona VIC 3018, Australia",
    "suburb": "Altona VIC 3018",
    "state": "VIC",
    "rating": 4.9,
    "reviews": 1586,
    "lat": -37.85046,
    "lng": 144.8331146,
    "place_id": "ChIJoxOLEw1h1moReHksj7nyMfM",
    "maps_url": "https://www.google.com/maps/place/?q=place_id:ChIJoxOLEw1h1moReHksj7nyMfM"
  },
  {
    "name": "World of Music",
    "address": "809 Nepean Hwy, Bentleigh VIC 3204, Australia",
    "suburb": "Bentleigh VIC 3204",
    "state": "VIC",
    "rating": 4.7,
    "reviews": 161,
    "lat": -37.9239349,
    "lng": 145.026184,
    "place_id": "ChIJ87XClDVp1moRjDCs22xdmF0",
    "maps_url": "https://www.google.com/maps/place/?q=place_id:ChIJ87XClDVp1moRjDCs22xdmF0"
  },
  {
    "name": "JB Hi-Fi Melbourne Central",
    "address": "Melbourne Central, Shop 101B, L01 Building/211 La Trobe St, Melbourne VIC 3000, Australia",
    "suburb": "Shop 101B",
    "state": "VIC",
    "rating": 4.2,
    "reviews": 4326,
    "lat": -37.8101561,
    "lng": 144.9624826,
    "place_id": "ChIJpY9j5cpC1moRVEMrbFcV750",
    "maps_url": "https://www.google.com/maps/place/?q=place_id:ChIJpY9j5cpC1moRVEMrbFcV750"
  },
  {
    "name": "Music Factory Direct",
    "address": "2/55 Malvern St, Bayswater VIC 3153, Australia",
    "suburb": "Bayswater VIC 3153",
    "state": "VIC",
    "rating": 4.8,
    "reviews": 149,
    "lat": -37.8432731,
    "lng": 145.2780609,
    "place_id": "ChIJr1MX0Qw71moR1MRDLfsS3G4",
    "maps_url": "https://www.google.com/maps/place/?q=place_id:ChIJr1MX0Qw71moR1MRDLfsS3G4"
  },
  {
    "name": "ABC Music Group",
    "address": "THE MUSIC GYM, Shop 9/348 Little Collins St, Melbourne VIC 3000, Australia",
    "suburb": "Shop 9/348 Little Collins St",
    "state": "VIC",
    "rating": 4.8,
    "reviews": 33,
    "lat": -37.8153363,
    "lng": 144.9630477,
    "place_id": "ChIJ5WRdLPFC1moR023aOTL8T94",
    "maps_url": "https://www.google.com/maps/place/?q=place_id:ChIJ5WRdLPFC1moR023aOTL8T94"
  },
  {
    "name": "Guitar Gallery",
    "address": "38A Johnston St, Fitzroy VIC 3065, Australia",
    "suburb": "Fitzroy VIC 3065",
    "state": "VIC",
    "rating": 4.8,
    "reviews": 85,
    "lat": -37.7982647,
    "lng": 144.9760869,
    "place_id": "ChIJ4b1AYidD1moRx4TYWqT8sVg",
    "maps_url": "https://www.google.com/maps/place/?q=place_id:ChIJ4b1AYidD1moRx4TYWqT8sVg"
  },
  {
    "name": "The SoundLab Music School & Store",
    "address": "1 Chapel St, St Kilda VIC 3182, Australia",
    "suburb": "St Kilda VIC 3182",
    "state": "VIC",
    "rating": 4.8,
    "reviews": 77,
    "lat": -37.857906,
    "lng": 144.991994,
    "place_id": "ChIJgebilS9o1moRYpvkjhN0hk0",
    "maps_url": "https://www.google.com/maps/place/?q=place_id:ChIJgebilS9o1moRYpvkjhN0hk0"
  },
  {
    "name": "Mannys Music",
    "address": "93 Chapel St, Windsor VIC 3181, Australia",
    "suburb": "Windsor VIC 3181",
    "state": "VIC",
    "rating": 4.7,
    "reviews": 202,
    "lat": -37.85435,
    "lng": 144.992704,
    "place_id": "ChIJtcPZPxtp1moR7VX4AzC9_ik",
    "maps_url": "https://www.google.com/maps/place/?q=place_id:ChIJtcPZPxtp1moR7VX4AzC9_ik"
  },
  {
    "name": "Fine Music",
    "address": "228 Auburn Rd, Hawthorn VIC 3122, Australia",
    "suburb": "Hawthorn VIC 3122",
    "state": "VIC",
    "rating": 4.8,
    "reviews": 194,
    "lat": -37.827586,
    "lng": 145.043756,
    "place_id": "ChIJh0IjiCxC1moRNid8L1lRSrU",
    "maps_url": "https://www.google.com/maps/place/?q=place_id:ChIJh0IjiCxC1moRNid8L1lRSrU"
  },
  {
    "name": "African Drumming",
    "address": "252 St Kilda Rd, St Kilda VIC 3182, Australia",
    "suburb": "St Kilda VIC 3182",
    "state": "VIC",
    "rating": 4.8,
    "reviews": 41,
    "lat": -37.8633742,
    "lng": 144.9856405,
    "place_id": "ChIJpYDSSUJo1moRoR77W2A21pE",
    "maps_url": "https://www.google.com/maps/place/?q=place_id:ChIJpYDSSUJo1moRoR77W2A21pE"
  },
  {
    "name": "Treble Makers Music School Australia",
    "address": "Level 1/82 Acland St, St Kilda VIC 3182, Australia",
    "suburb": "St Kilda VIC 3182",
    "state": "VIC",
    "rating": 5,
    "reviews": 20,
    "lat": -37.867226,
    "lng": 144.978801,
    "place_id": "ChIJx6z2i2Zo1moRQOmm0tjtPI8",
    "maps_url": "https://www.google.com/maps/place/?q=place_id:ChIJx6z2i2Zo1moRQOmm0tjtPI8"
  },
  {
    "name": "Echo Tone Guitars",
    "address": "19 Arthurton Rd, Northcote VIC 3070, Australia",
    "suburb": "Northcote VIC 3070",
    "state": "VIC",
    "rating": 4.8,
    "reviews": 477,
    "lat": -37.769233,
    "lng": 144.997472,
    "place_id": "ChIJcdmw44NE1moRwZ8ChMN8Blc",
    "maps_url": "https://www.google.com/maps/place/?q=place_id:ChIJcdmw44NE1moRwZ8ChMN8Blc"
  },
  {
    "name": "Southside Sounds",
    "address": "14a Simpson St, Moorabbin VIC 3189, Australia",
    "suburb": "Moorabbin VIC 3189",
    "state": "VIC",
    "rating": 4.9,
    "reviews": 40,
    "lat": -37.9480357,
    "lng": 145.0753648,
    "place_id": "ChIJZUi4Toxr1moRfsU1Bzd_UWA",
    "maps_url": "https://www.google.com/maps/place/?q=place_id:ChIJZUi4Toxr1moRfsU1Bzd_UWA"
  },
  {
    "name": "Roland Store Melbourne",
    "address": "93-95 Chapel St, Windsor VIC 3181, Australia",
    "suburb": "Windsor VIC 3181",
    "state": "VIC",
    "rating": 5,
    "reviews": 47,
    "lat": -37.85435,
    "lng": 144.992704,
    "place_id": "ChIJJdTpvk5p1moR32Ovinb8FXw",
    "maps_url": "https://www.google.com/maps/place/?q=place_id:ChIJJdTpvk5p1moR32Ovinb8FXw"
  },
  {
    "name": "Chakra",
    "address": "179 Acland St, St Kilda VIC 3182, Australia",
    "suburb": "St Kilda VIC 3182",
    "state": "VIC",
    "rating": 4.6,
    "reviews": 80,
    "lat": -37.8693696,
    "lng": 144.9802754,
    "place_id": "ChIJrQvO2WZo1moRvvizOvYxq78",
    "maps_url": "https://www.google.com/maps/place/?q=place_id:ChIJrQvO2WZo1moRvvizOvYxq78"
  },
  {
    "name": "Clingan Guitar Tone",
    "address": "Unit 1/155 Donald St, Brunswick East VIC 3057, Australia",
    "suburb": "Brunswick East VIC 3057",
    "state": "VIC",
    "rating": 4.9,
    "reviews": 281,
    "lat": -37.7588853,
    "lng": 144.9780322,
    "place_id": "ChIJ-x4elxxD1moRNWVcXooRsz0",
    "maps_url": "https://www.google.com/maps/place/?q=place_id:ChIJ-x4elxxD1moRNWVcXooRsz0"
  },
  {
    "name": "The Guitar Colonel",
    "address": "112 Auburn Rd, Hawthorn VIC 3122, Australia",
    "suburb": "Hawthorn VIC 3122",
    "state": "VIC",
    "rating": 5,
    "reviews": 122,
    "lat": -37.822074,
    "lng": 145.04493,
    "place_id": "ChIJsXnTvf9n1moR1IiErSWBcZ4",
    "maps_url": "https://www.google.com/maps/place/?q=place_id:ChIJsXnTvf9n1moR1IiErSWBcZ4"
  },
  {
    "name": "Drummers Paradise",
    "address": "398 Victoria St, Richmond VIC 3121, Australia",
    "suburb": "Richmond VIC 3121",
    "state": "VIC",
    "rating": 4.8,
    "reviews": 209,
    "lat": -37.8110652,
    "lng": 145.0047734,
    "place_id": "ChIJoeHgZP9C1moRWxGZOji3KzA",
    "maps_url": "https://www.google.com/maps/place/?q=place_id:ChIJoeHgZP9C1moRWxGZOji3KzA"
  },
  {
    "name": "DJ City Richmond Melbourne",
    "address": "14/2 Bromham Pl, Richmond VIC 3121, Australia",
    "suburb": "Richmond VIC 3121",
    "state": "VIC",
    "rating": 4.4,
    "reviews": 795,
    "lat": -37.8133741,
    "lng": 144.9977878,
    "place_id": "ChIJnQnaS_pC1moRZPUYlDZwOqM",
    "maps_url": "https://www.google.com/maps/place/?q=place_id:ChIJnQnaS_pC1moRZPUYlDZwOqM"
  },
  {
    "name": "Alexander Australia",
    "address": "22 Amsterdam St, Richmond VIC 3121, Australia",
    "suburb": "Richmond VIC 3121",
    "state": "VIC",
    "rating": 5,
    "reviews": 1,
    "lat": -37.8314323,
    "lng": 144.9991172,
    "place_id": "ChIJ8YrJq4huk2sRJK-gtFWfpk4",
    "maps_url": "https://www.google.com/maps/place/?q=place_id:ChIJ8YrJq4huk2sRJK-gtFWfpk4"
  },
  {
    "name": "SoundBay",
    "address": "1/394 Victoria St, Richmond VIC 3121, Australia",
    "suburb": "Richmond VIC 3121",
    "state": "VIC",
    "rating": 3.9,
    "reviews": 21,
    "lat": -37.8110509,
    "lng": 145.0046617,
    "place_id": "ChIJmZb8Zf9C1moR36rRc8Ighug",
    "maps_url": "https://www.google.com/maps/place/?q=place_id:ChIJmZb8Zf9C1moR36rRc8Ighug"
  },
  {
    "name": "Volaris Music Centre",
    "address": "374 Sydney Rd, Brunswick VIC 3056, Australia",
    "suburb": "Brunswick VIC 3056",
    "state": "VIC",
    "rating": 4.7,
    "reviews": 419,
    "lat": -37.7692162,
    "lng": 144.9619209,
    "place_id": "ChIJq7niuUxD1moRXzQbX790Jgs",
    "maps_url": "https://www.google.com/maps/place/?q=place_id:ChIJq7niuUxD1moRXzQbX790Jgs"
  },
  {
    "name": "Matheas Guitars Workshop",
    "address": "66 Westgarth St, Fitzroy VIC 3065, Australia",
    "suburb": "Fitzroy VIC 3065",
    "state": "VIC",
    "rating": 4.9,
    "reviews": 37,
    "lat": -37.7946929,
    "lng": 144.9778751,
    "place_id": "ChIJQxiITSFD1moR6jfHeb_JkBk",
    "maps_url": "https://www.google.com/maps/place/?q=place_id:ChIJQxiITSFD1moR6jfHeb_JkBk"
  },
  {
    "name": "The Music Shop Western Suburbs",
    "address": "2/281 Foleys Rd, Deer Park VIC 3023, Australia",
    "suburb": "Deer Park VIC 3023",
    "state": "VIC",
    "rating": 4.4,
    "reviews": 101,
    "lat": -37.782923,
    "lng": 144.775574,
    "place_id": "ChIJx784cdlf1moRFQZDr01xnAY",
    "maps_url": "https://www.google.com/maps/place/?q=place_id:ChIJx784cdlf1moRFQZDr01xnAY"
  },
  {
    "name": "Nguyen Ha Audio Entertainment",
    "address": "131 Hopkins St, Footscray VIC 3011, Australia",
    "suburb": "Footscray VIC 3011",
    "state": "VIC",
    "rating": 5,
    "reviews": 1,
    "lat": -37.800022,
    "lng": 144.900444,
    "place_id": "ChIJ72X8O5Jd1moR5C8z2oSMbtg",
    "maps_url": "https://www.google.com/maps/place/?q=place_id:ChIJ72X8O5Jd1moR5C8z2oSMbtg"
  },
  {
    "name": "Manic Music",
    "address": "44 Stelvio Cl, Lynbrook VIC 3975, Australia",
    "suburb": "Lynbrook VIC 3975",
    "state": "VIC",
    "rating": 4.9,
    "reviews": 478,
    "lat": -38.0448359,
    "lng": 145.2521755,
    "place_id": "ChIJH_EVgQUU1moRSsQIXTB8Wgs",
    "maps_url": "https://www.google.com/maps/place/?q=place_id:ChIJH_EVgQUU1moRSsQIXTB8Wgs"
  },
  {
    "name": "Evolution Music Lynbrook",
    "address": "6 Wally Pl, Lynbrook VIC 3975, Australia",
    "suburb": "Lynbrook VIC 3975",
    "state": "VIC",
    "rating": 4.8,
    "reviews": 89,
    "lat": -38.0451338,
    "lng": 145.2511942,
    "place_id": "ChIJM-3-0aMR1moRzFLFwR_k9bo",
    "maps_url": "https://www.google.com/maps/place/?q=place_id:ChIJM-3-0aMR1moRzFLFwR_k9bo"
  },
  {
    "name": "Pony Music",
    "address": "Unit 3/37-41 Hallam S Rd, Hallam VIC 3803, Australia",
    "suburb": "Hallam VIC 3803",
    "state": "VIC",
    "rating": 4.7,
    "reviews": 87,
    "lat": -38.0116004,
    "lng": 145.2700653,
    "place_id": "ChIJEfT6ZNUQ1moR1bn68oEsRek",
    "maps_url": "https://www.google.com/maps/place/?q=place_id:ChIJEfT6ZNUQ1moR1bn68oEsRek"
  },
  {
    "name": "DJ City",
    "address": "318 Hammond Rd, Dandenong South VIC 3175, Australia",
    "suburb": "Dandenong South VIC 3175",
    "state": "VIC",
    "rating": 4.5,
    "reviews": 1589,
    "lat": -38.0260874,
    "lng": 145.2029994,
    "place_id": "ChIJFy26kkoS1moRIqYdKo7ZR5k",
    "maps_url": "https://www.google.com/maps/place/?q=place_id:ChIJFy26kkoS1moRIqYdKo7ZR5k"
  },
  {
    "name": "Upwey Music",
    "address": "29 Main St, Upwey VIC 3158, Australia",
    "suburb": "Upwey VIC 3158",
    "state": "VIC",
    "rating": 4.8,
    "reviews": 76,
    "lat": -37.90340090000001,
    "lng": 145.3304777,
    "place_id": "ChIJGYwiUTkj1moRat13BjQol_M",
    "maps_url": "https://www.google.com/maps/place/?q=place_id:ChIJGYwiUTkj1moRat13BjQol_M"
  },
  {
    "name": "Australia Piano World",
    "address": "1/200 Princes Hwy, Dandenong VIC 3175, Australia",
    "suburb": "Dandenong VIC 3175",
    "state": "VIC",
    "rating": 4.8,
    "reviews": 153,
    "lat": -37.972123,
    "lng": 145.201278,
    "place_id": "ChIJ8-n7cmsU1moRac7Kx-B9oJA",
    "maps_url": "https://www.google.com/maps/place/?q=place_id:ChIJ8-n7cmsU1moRac7Kx-B9oJA"
  },
  {
    "name": "Pats Music",
    "address": "940/944 Centre Rd, Oakleigh South VIC 3167, Australia",
    "suburb": "Oakleigh South VIC 3167",
    "state": "VIC",
    "rating": 4.6,
    "reviews": 459,
    "lat": -37.9243012,
    "lng": 145.0827959,
    "place_id": "ChIJcZhNSKNr1moR2ZmOKdWtAw4",
    "maps_url": "https://www.google.com/maps/place/?q=place_id:ChIJcZhNSKNr1moR2ZmOKdWtAw4"
  },
  {
    "name": "Keyboard Corner & KC's Rockshop",
    "address": "137 Boronia Rd, Boronia VIC 3155, Australia",
    "suburb": "Boronia VIC 3155",
    "state": "VIC",
    "rating": 4.8,
    "reviews": 522,
    "lat": -37.8622363,
    "lng": 145.2839616,
    "place_id": "ChIJ1yEKqmM71moReOXLGSHQRKY",
    "maps_url": "https://www.google.com/maps/place/?q=place_id:ChIJ1yEKqmM71moReOXLGSHQRKY"
  },
  {
    "name": "Guitars & Things",
    "address": "3E Ross Smith Ave W, Frankston VIC 3199, Australia",
    "suburb": "Frankston VIC 3199",
    "state": "VIC",
    "rating": 4.8,
    "reviews": 210,
    "lat": -38.1411879,
    "lng": 145.122646,
    "place_id": "ChIJIQkiw9t01moRFSoTFqnPrKU",
    "maps_url": "https://www.google.com/maps/place/?q=place_id:ChIJIQkiw9t01moRFSoTFqnPrKU"
  },
  {
    "name": "Stagefront Music",
    "address": "2 Cain Ave, Keilor East VIC 3033, Australia",
    "suburb": "Keilor East VIC 3033",
    "state": "VIC",
    "rating": 4.9,
    "reviews": 192,
    "lat": -37.733705,
    "lng": 144.857604,
    "place_id": "ChIJmd8eGptf1moRarK_WukAI9s",
    "maps_url": "https://www.google.com/maps/place/?q=place_id:ChIJmd8eGptf1moRarK_WukAI9s"
  },
  {
    "name": "Gurus Warehouse",
    "address": "Factory 2/2 Colrado Ct, Hallam VIC 3803, Australia",
    "suburb": "Hallam VIC 3803",
    "state": "VIC",
    "rating": 4.7,
    "reviews": 13,
    "lat": -38.0157155,
    "lng": 145.2743312,
    "place_id": "ChIJ0-SFNNQW1moRQWEU5-fjMDc",
    "maps_url": "https://www.google.com/maps/place/?q=place_id:ChIJ0-SFNNQW1moRQWEU5-fjMDc"
  },
  {
    "name": "Eastgate Music",
    "address": "294 Darebin Rd, Fairfield VIC 3078, Australia",
    "suburb": "Fairfield VIC 3078",
    "state": "VIC",
    "rating": 4.5,
    "reviews": 117,
    "lat": -37.7662891,
    "lng": 145.02521,
    "place_id": "ChIJJ3CEAD1B1moRz3lZhoc5W5g",
    "maps_url": "https://www.google.com/maps/place/?q=place_id:ChIJJ3CEAD1B1moRz3lZhoc5W5g"
  },
  {
    "name": "High Street Music",
    "address": "442 High St, Preston VIC 3072, Australia",
    "suburb": "Preston VIC 3072",
    "state": "VIC",
    "rating": 4.7,
    "reviews": 228,
    "lat": -37.7366568,
    "lng": 145.0043834,
    "place_id": "ChIJCwzZaf9E1moR93OfUjMKooc",
    "maps_url": "https://www.google.com/maps/place/?q=place_id:ChIJCwzZaf9E1moR93OfUjMKooc"
  },
  {
    "name": "Guitar Village",
    "address": "12 Park Ln, Frankston VIC 3199, Australia",
    "suburb": "Frankston VIC 3199",
    "state": "VIC",
    "rating": 4.6,
    "reviews": 173,
    "lat": -38.144158,
    "lng": 145.123788,
    "place_id": "ChIJe6P8SNl01moRJ4-5g_AGlJI",
    "maps_url": "https://www.google.com/maps/place/?q=place_id:ChIJe6P8SNl01moRJ4-5g_AGlJI"
  },
  {
    "name": "Blue Note College of Music",
    "address": "13 Wells St, Frankston VIC 3199, Australia",
    "suburb": "Frankston VIC 3199",
    "state": "VIC",
    "rating": 4.9,
    "reviews": 16,
    "lat": -38.1439008,
    "lng": 145.1240576,
    "place_id": "ChIJkSN2pNl01moRcnaM71pMhUI",
    "maps_url": "https://www.google.com/maps/place/?q=place_id:ChIJkSN2pNl01moRcnaM71pMhUI"
  },
  {
    "name": "LVK Music",
    "address": "L 1/239A Beach St, Frankston VIC 3199, Australia",
    "suburb": "Frankston VIC 3199",
    "state": "VIC",
    "rating": 5,
    "reviews": 159,
    "lat": -38.14786429999999,
    "lng": 145.1456671,
    "place_id": "ChIJxUB6DNAN1moRSzpETT6stYw",
    "maps_url": "https://www.google.com/maps/place/?q=place_id:ChIJxUB6DNAN1moRSzpETT6stYw"
  },
  {
    "name": "Stix and Tonez",
    "address": "11 Kirkstall Cl, Frankston South VIC 3199, Australia",
    "suburb": "Frankston South VIC 3199",
    "state": "VIC",
    "rating": 4.9,
    "reviews": 13,
    "lat": -38.1893807,
    "lng": 145.121553,
    "place_id": "ChIJbw6CSWHf1WoRcZgWKqVdSio",
    "maps_url": "https://www.google.com/maps/place/?q=place_id:ChIJbw6CSWHf1WoRcZgWKqVdSio"
  },
  {
    "name": "Pakenham Music",
    "address": "Flat 1/14-17 Hogan Ct, Pakenham VIC 3810, Australia",
    "suburb": "Pakenham VIC 3810",
    "state": "VIC",
    "rating": 4.9,
    "reviews": 134,
    "lat": -38.0835366,
    "lng": 145.4974023,
    "place_id": "ChIJ16ldO_nhKWsRNVqPd1s-TcE",
    "maps_url": "https://www.google.com/maps/place/?q=place_id:ChIJ16ldO_nhKWsRNVqPd1s-TcE"
  },
  {
    "name": "Ron Leigh's Music Factory",
    "address": "625 Hampton St, Brighton VIC 3186, Australia",
    "suburb": "Brighton VIC 3186",
    "state": "VIC",
    "rating": 4.8,
    "reviews": 70,
    "lat": -37.9285082,
    "lng": 145.0039741,
    "place_id": "ChIJ9SqMEihv1moRMhPjuLelGTk",
    "maps_url": "https://www.google.com/maps/place/?q=place_id:ChIJ9SqMEihv1moRMhPjuLelGTk"
  },
  {
    "name": "Living Music Southland",
    "address": "Shop 3086, Level 3/1239 Nepean Hwy, Cheltenham VIC 3192, Australia",
    "suburb": "Level 3/1239 Nepean Hwy",
    "state": "VIC",
    "rating": 4.8,
    "reviews": 40,
    "lat": -37.9586107,
    "lng": 145.0538166,
    "place_id": "ChIJb8813O5t1moRZCI9D0dqFDM",
    "maps_url": "https://www.google.com/maps/place/?q=place_id:ChIJb8813O5t1moRZCI9D0dqFDM"
  },
  {
    "name": "Billy Hyde Music",
    "address": "242 Whitehorse Rd, Nunawading VIC 3131, Australia",
    "suburb": "Nunawading VIC 3131",
    "state": "VIC",
    "rating": 4.5,
    "reviews": 963,
    "lat": -37.8186162,
    "lng": 145.1660271,
    "place_id": "ChIJ9RVlC_M51moRpk79rOWSgZ0",
    "maps_url": "https://www.google.com/maps/place/?q=place_id:ChIJ9RVlC_M51moRpk79rOWSgZ0"
  },
  {
    "name": "Guitar Village School of Music",
    "address": "13 Davey St, Frankston VIC 3199, Australia",
    "suburb": "Frankston VIC 3199",
    "state": "VIC",
    "rating": 4.6,
    "reviews": 8,
    "lat": -38.1453557,
    "lng": 145.1210565,
    "place_id": "ChIJe6P8SNl01moRanGzlq36Q8g",
    "maps_url": "https://www.google.com/maps/place/?q=place_id:ChIJe6P8SNl01moRanGzlq36Q8g"
  },
  {
    "name": "Bayside Guitar Setups",
    "address": "5 Casuarina Dr, Frankston South VIC 3199, Australia",
    "suburb": "Frankston South VIC 3199",
    "state": "VIC",
    "rating": 5,
    "reviews": 38,
    "lat": -38.1770446,
    "lng": 145.1374325,
    "place_id": "ChIJ0XkYJxx11moRy7BHSKlDOFc",
    "maps_url": "https://www.google.com/maps/place/?q=place_id:ChIJ0XkYJxx11moRy7BHSKlDOFc"
  },
  {
    "name": "Jimmy's Guitar Workshop",
    "address": "46 Woolston Dr, Frankston South VIC 3199, Australia",
    "suburb": "Frankston South VIC 3199",
    "state": "VIC",
    "rating": 5,
    "reviews": 11,
    "lat": -38.1646775,
    "lng": 145.121866,
    "place_id": "ChIJMcNUfhJ11moRzXMIB0nQBKM",
    "maps_url": "https://www.google.com/maps/place/?q=place_id:ChIJMcNUfhJ11moRzXMIB0nQBKM"
  },
  {
    "name": "Living Music",
    "address": "175 Maroondah Hwy, Ringwood VIC 3134, Australia",
    "suburb": "Ringwood VIC 3134",
    "state": "VIC",
    "rating": 4.5,
    "reviews": 28,
    "lat": -37.8144356,
    "lng": 145.2289714,
    "place_id": "ChIJv8onSwA71moRBi20oilFM6Q",
    "maps_url": "https://www.google.com/maps/place/?q=place_id:ChIJv8onSwA71moRBi20oilFM6Q"
  },
  {
    "name": "Taylored Warez",
    "address": "49 Progress Dr, Carrum Downs VIC 3201, Australia",
    "suburb": "Carrum Downs VIC 3201",
    "state": "VIC",
    "rating": 4.7,
    "reviews": 29,
    "lat": -38.0873639,
    "lng": 145.1732277,
    "place_id": "ChIJjcPp_q4N1moR8SG29syUTjs",
    "maps_url": "https://www.google.com/maps/place/?q=place_id:ChIJjcPp_q4N1moR8SG29syUTjs"
  },
  {
    "name": "Five Star Music",
    "address": "102 Maroondah Hwy, Ringwood VIC 3134, Australia",
    "suburb": "Ringwood VIC 3134",
    "state": "VIC",
    "rating": 4.6,
    "reviews": 180,
    "lat": -37.816516,
    "lng": 145.226674,
    "place_id": "ChIJCY-R6Nc71moRd3PVztnpfPw",
    "maps_url": "https://www.google.com/maps/place/?q=place_id:ChIJCY-R6Nc71moRd3PVztnpfPw"
  },
  {
    "name": "Bernies Music Land",
    "address": "381 Canterbury Rd, Ringwood VIC 3134, Australia",
    "suburb": "Ringwood VIC 3134",
    "state": "VIC",
    "rating": 4.8,
    "reviews": 70,
    "lat": -37.8320333,
    "lng": 145.2152525,
    "place_id": "ChIJl9dMrlo51moRsuImY4-bIXo",
    "maps_url": "https://www.google.com/maps/place/?q=place_id:ChIJl9dMrlo51moRsuImY4-bIXo"
  },
  {
    "name": "DJ City Ringwood Melbourne",
    "address": "Unit 2/401 Maroondah Hwy, Ringwood VIC 3134, Australia",
    "suburb": "Ringwood VIC 3134",
    "state": "VIC",
    "rating": 4.8,
    "reviews": 665,
    "lat": -37.802356,
    "lng": 145.246583,
    "place_id": "ChIJl6S4jzg61moRemmDygDk9xU",
    "maps_url": "https://www.google.com/maps/place/?q=place_id:ChIJl6S4jzg61moRemmDygDk9xU"
  },
  {
    "name": "Music Junction Camberwell",
    "address": "204 Camberwell Rd, Hawthorn East VIC 3123, Australia",
    "suburb": "Hawthorn East VIC 3123",
    "state": "VIC",
    "rating": 4.9,
    "reviews": 972,
    "lat": -37.8308492,
    "lng": 145.0558311,
    "place_id": "ChIJ__HHE4RB1moRC9xjrDdhoG4",
    "maps_url": "https://www.google.com/maps/place/?q=place_id:ChIJ__HHE4RB1moRC9xjrDdhoG4"
  },
  {
    "name": "Bows for Strings",
    "address": "5/7 Glenwood Ave, Glen Waverley VIC 3150, Australia",
    "suburb": "Glen Waverley VIC 3150",
    "state": "VIC",
    "rating": 4.7,
    "reviews": 326,
    "lat": -37.888819,
    "lng": 145.157367,
    "place_id": "ChIJAyf7yec_1moRtSuXrjT9AkM",
    "maps_url": "https://www.google.com/maps/place/?q=place_id:ChIJAyf7yec_1moRtSuXrjT9AkM"
  },
  {
    "name": "Percy's Music Academy",
    "address": "143 Maroondah Hwy, Ringwood VIC 3134, Australia",
    "suburb": "Ringwood VIC 3134",
    "state": "VIC",
    "rating": 5,
    "reviews": 41,
    "lat": -37.815348,
    "lng": 145.2278412,
    "place_id": "ChIJ97qGJsc71moRzMJWIvIWJJs",
    "maps_url": "https://www.google.com/maps/place/?q=place_id:ChIJ97qGJsc71moRzMJWIvIWJJs"
  },
  {
    "name": "Box Hill Music",
    "address": "10A Ellingworth Parade, Box Hill VIC 3128, Australia",
    "suburb": "Box Hill VIC 3128",
    "state": "VIC",
    "rating": 4.6,
    "reviews": 8,
    "lat": -37.820729,
    "lng": 145.124593,
    "place_id": "ChIJLfDlnLpA1moRwPAtXkzQ0IY",
    "maps_url": "https://www.google.com/maps/place/?q=place_id:ChIJLfDlnLpA1moRwPAtXkzQ0IY"
  },
  {
    "name": "Music Junction",
    "address": "159 Whitehorse Rd, Blackburn VIC 3130, Australia",
    "suburb": "Blackburn VIC 3130",
    "state": "VIC",
    "rating": 4.6,
    "reviews": 640,
    "lat": -37.8173649,
    "lng": 145.1548143,
    "place_id": "ChIJpT0EELQ41moRn6q4EpKCkaY",
    "maps_url": "https://www.google.com/maps/place/?q=place_id:ChIJpT0EELQ41moRn6q4EpKCkaY"
  },
  {
    "name": "Ting Lo Music",
    "address": "70 Harvest Court, Doncaster VIC 3108, Australia",
    "suburb": "Doncaster VIC 3108",
    "state": "VIC",
    "rating": 4.5,
    "reviews": 17,
    "lat": -37.77473579999999,
    "lng": 145.128897,
    "place_id": "ChIJbR3jr4JH1moR03JF1LazJB8",
    "maps_url": "https://www.google.com/maps/place/?q=place_id:ChIJbR3jr4JH1moR03JF1LazJB8"
  },
  {
    "name": "Doncaster Music Centre",
    "address": "26 Jackson Ct, Doncaster East VIC 3109, Australia",
    "suburb": "Doncaster East VIC 3109",
    "state": "VIC",
    "rating": 4.9,
    "reviews": 48,
    "lat": -37.788576,
    "lng": 145.1501116,
    "place_id": "ChIJrSfnSBhH1moRmfwKsN9wy4I",
    "maps_url": "https://www.google.com/maps/place/?q=place_id:ChIJrSfnSBhH1moRmfwKsN9wy4I"
  },
  {
    "name": "Music De Galleria",
    "address": "3 Hislop St, Doncaster East VIC 3109, Australia",
    "suburb": "Doncaster East VIC 3109",
    "state": "VIC",
    "rating": 4.8,
    "reviews": 38,
    "lat": -37.7906217,
    "lng": 145.1447576,
    "place_id": "ChIJ2ylbJMQ51moRYKiiZd6CjOw",
    "maps_url": "https://www.google.com/maps/place/?q=place_id:ChIJ2ylbJMQ51moRYKiiZd6CjOw"
  },
  {
    "name": "Drum Palace",
    "address": "25 Brindy Cres, Doncaster East VIC 3109, Australia",
    "suburb": "Doncaster East VIC 3109",
    "state": "VIC",
    "rating": 4.6,
    "reviews": 46,
    "lat": -37.796164,
    "lng": 145.1436728,
    "place_id": "ChIJeb4dO5k41moR_Ct30WBclS0",
    "maps_url": "https://www.google.com/maps/place/?q=place_id:ChIJeb4dO5k41moR_Ct30WBclS0"
  },
  {
    "name": "Display/used digital piano showroom",
    "address": "8 Golf Links Ct, Doncaster VIC 3108, Australia",
    "suburb": "Doncaster VIC 3108",
    "state": "VIC",
    "rating": null,
    "reviews": 0,
    "lat": -37.7873504,
    "lng": 145.1071857,
    "place_id": "ChIJ12wYP2dH1moRpfBH9YMlvfY",
    "maps_url": "https://www.google.com/maps/place/?q=place_id:ChIJ12wYP2dH1moRpfBH9YMlvfY"
  },
  {
    "name": "Future Music Australia",
    "address": "159 Whitehorse Rd, Blackburn VIC 3130, Australia",
    "suburb": "Blackburn VIC 3130",
    "state": "VIC",
    "rating": 4.1,
    "reviews": 8,
    "lat": -37.8173135,
    "lng": 145.154855,
    "place_id": "ChIJH860I0lA1moRi__Z3cI1KJA",
    "maps_url": "https://www.google.com/maps/place/?q=place_id:ChIJH860I0lA1moRi__Z3cI1KJA"
  },
  {
    "name": "Westfield Doncaster",
    "address": "619 Doncaster Rd, Doncaster VIC 3108, Australia",
    "suburb": "Doncaster VIC 3108",
    "state": "VIC",
    "rating": 4.3,
    "reviews": 11998,
    "lat": -37.7868921,
    "lng": 145.125484,
    "place_id": "ChIJ33Bji29H1moRQNAyBXZWBA8",
    "maps_url": "https://www.google.com/maps/place/?q=place_id:ChIJ33Bji29H1moRQNAyBXZWBA8"
  },
  {
    "name": "JB Hi-Fi Doncaster",
    "address": "Westfield Shopping Centre, Store 111, Ground Level 619, Store 111/619 Doncaster Rd, Doncaster VIC 3108, Australia",
    "suburb": "Store 111",
    "state": "VIC",
    "rating": 4.2,
    "reviews": 2870,
    "lat": -37.7856225,
    "lng": 145.1266339,
    "place_id": "ChIJBScFeW9H1moRgCKKfLqShuo",
    "maps_url": "https://www.google.com/maps/place/?q=place_id:ChIJBScFeW9H1moRgCKKfLqShuo"
  },
  {
    "name": "Prestige Pianos & Organs",
    "address": "102 Bell St, Preston VIC 3072, Australia",
    "suburb": "Preston VIC 3072",
    "state": "VIC",
    "rating": 4.8,
    "reviews": 111,
    "lat": -37.7473404,
    "lng": 145.0246576,
    "place_id": "ChIJG5nBVUhE1moRFWzHLYMSLsU",
    "maps_url": "https://www.google.com/maps/place/?q=place_id:ChIJG5nBVUhE1moRFWzHLYMSLsU"
  },
  {
    "name": "Muso City",
    "address": "42-44 Sheehan Rd, Heidelberg West VIC 3081, Australia",
    "suburb": "Heidelberg West VIC 3081",
    "state": "VIC",
    "rating": 5,
    "reviews": 13,
    "lat": -37.7310667,
    "lng": 145.0417649,
    "place_id": "ChIJ3bg-eRZF1moRGscLjwKcDCc",
    "maps_url": "https://www.google.com/maps/place/?q=place_id:ChIJ3bg-eRZF1moRGscLjwKcDCc"
  },
  {
    "name": "CMI Music & Audio",
    "address": "33-65 King William St, Broadmeadows VIC 3047, Australia",
    "suburb": "Broadmeadows VIC 3047",
    "state": "VIC",
    "rating": 3.7,
    "reviews": 26,
    "lat": -37.6787576,
    "lng": 144.9247891,
    "place_id": "ChIJd5FGBcNg1moRdnBU_5hNLpM",
    "maps_url": "https://www.google.com/maps/place/?q=place_id:ChIJd5FGBcNg1moRdnBU_5hNLpM"
  },
  {
    "name": "Real Guitars",
    "address": "1535 High St, Glen Iris VIC 3146, Australia",
    "suburb": "Glen Iris VIC 3146",
    "state": "VIC",
    "rating": 4.7,
    "reviews": 84,
    "lat": -37.8599569,
    "lng": 145.0579157,
    "place_id": "ChIJX4il9PxB1moRTTmfb2ff2fo",
    "maps_url": "https://www.google.com/maps/place/?q=place_id:ChIJX4il9PxB1moRTTmfb2ff2fo"
  },
  {
    "name": "Innovative Music Australia Pty Ltd",
    "address": "33/65 King William St, Broadmeadows VIC 3047, Australia",
    "suburb": "Broadmeadows VIC 3047",
    "state": "VIC",
    "rating": 4.9,
    "reviews": 32,
    "lat": -37.6787576,
    "lng": 144.9247891,
    "place_id": "ChIJn5S1tUwV1moRs8uE9ZRjRVI",
    "maps_url": "https://www.google.com/maps/place/?q=place_id:ChIJn5S1tUwV1moRs8uE9ZRjRVI"
  },
  {
    "name": "Savini Guitars",
    "address": "134 Daley St, Glenroy VIC 3046, Australia",
    "suburb": "Glenroy VIC 3046",
    "state": "VIC",
    "rating": 5,
    "reviews": 6,
    "lat": -37.6962798,
    "lng": 144.9233526,
    "place_id": "ChIJl1QyXuhb1moRYC6qm19CnEQ",
    "maps_url": "https://www.google.com/maps/place/?q=place_id:ChIJl1QyXuhb1moRYC6qm19CnEQ"
  },
  {
    "name": "JB Hi-Fi Werribee",
    "address": "Store Mm04 , Cnr Derrimut Road &, Heaths Rd, Hoppers Crossing VIC 3030, Australia",
    "suburb": "Cnr Derrimut Road &",
    "state": "VIC",
    "rating": 4,
    "reviews": 2978,
    "lat": -37.8762068,
    "lng": 144.6819536,
    "place_id": "ChIJv9FY0FyP1moRsel44qNeu3k",
    "maps_url": "https://www.google.com/maps/place/?q=place_id:ChIJv9FY0FyP1moRsel44qNeu3k"
  },
  {
    "name": "Melton Music",
    "address": "150 Coburns Rd, Melton VIC 3337, Australia",
    "suburb": "Melton VIC 3337",
    "state": "VIC",
    "rating": 4.9,
    "reviews": 8,
    "lat": -37.685558,
    "lng": 144.568371,
    "place_id": "ChIJURVSQUft1moRTsEAVt7am40",
    "maps_url": "https://www.google.com/maps/place/?q=place_id:ChIJURVSQUft1moRTsEAVt7am40"
  },
  {
    "name": "The Music Hub Academy",
    "address": "46 Smith St, Melton VIC 3337, Australia",
    "suburb": "Melton VIC 3337",
    "state": "VIC",
    "rating": 4.6,
    "reviews": 11,
    "lat": -37.6820661,
    "lng": 144.5854198,
    "place_id": "ChIJhwhqruTt1moRnpJ7uyDtmOc",
    "maps_url": "https://www.google.com/maps/place/?q=place_id:ChIJhwhqruTt1moRnpJ7uyDtmOc"
  },
  {
    "name": "Bacchus Marsh Music Shop",
    "address": "5 Grant St, Bacchus Marsh VIC 3340, Australia",
    "suburb": "Bacchus Marsh VIC 3340",
    "state": "VIC",
    "rating": 4.5,
    "reviews": 4,
    "lat": -37.6758859,
    "lng": 144.435026,
    "place_id": "ChIJl_QS56iV1moR3blOp3bs8dw",
    "maps_url": "https://www.google.com/maps/place/?q=place_id:ChIJl_QS56iV1moR3blOp3bs8dw"
  },
  {
    "name": "Muso's Stuff",
    "address": "Opposite Bendigo Train and Bus Station, 115 Mitchell St, Bendigo VIC 3550, Australia",
    "suburb": "115 Mitchell St",
    "state": "VIC",
    "rating": 4.8,
    "reviews": 156,
    "lat": -36.7637201,
    "lng": 144.2834044,
    "place_id": "ChIJ49L_fY1Z12oRxDjb0xrf9r4",
    "maps_url": "https://www.google.com/maps/place/?q=place_id:ChIJ49L_fY1Z12oRxDjb0xrf9r4"
  },
  {
    "name": "JB Hi-Fi Melton",
    "address": "Store MM05/533-555 High St, Melton West VIC 3337, Australia",
    "suburb": "Melton West VIC 3337",
    "state": "VIC",
    "rating": 4.3,
    "reviews": 1599,
    "lat": -37.6856144,
    "lng": 144.5639963,
    "place_id": "ChIJ7TzrHtHs1moRrpbintDVJLg",
    "maps_url": "https://www.google.com/maps/place/?q=place_id:ChIJ7TzrHtHs1moRrpbintDVJLg"
  },
  {
    "name": "A.H.M. Music",
    "address": "50 Tulloch Ave, Kurunjang VIC 3337, Australia",
    "suburb": "Kurunjang VIC 3337",
    "state": "VIC",
    "rating": 5,
    "reviews": 17,
    "lat": -37.6735923,
    "lng": 144.5942769,
    "place_id": "ChIJHZVx1vjt1moRGM6RE66jHB0",
    "maps_url": "https://www.google.com/maps/place/?q=place_id:ChIJHZVx1vjt1moRGM6RE66jHB0"
  },
  {
    "name": "Oxygen Music",
    "address": "261 Moorabool St, Geelong VIC 3220, Australia",
    "suburb": "Geelong VIC 3220",
    "state": "VIC",
    "rating": 4.8,
    "reviews": 274,
    "lat": -38.152358,
    "lng": 144.358755,
    "place_id": "ChIJzYE_uRoU1GoR8t4PKQFjvFA",
    "maps_url": "https://www.google.com/maps/place/?q=place_id:ChIJzYE_uRoU1GoR8t4PKQFjvFA"
  },
  {
    "name": "Music Workshop",
    "address": "39 Fyans St, South Geelong VIC 3220, Australia",
    "suburb": "South Geelong VIC 3220",
    "state": "VIC",
    "rating": 4.9,
    "reviews": 200,
    "lat": -38.1612135,
    "lng": 144.3534835,
    "place_id": "ChIJE7YTSHMU1GoRINMtHWm65A4",
    "maps_url": "https://www.google.com/maps/place/?q=place_id:ChIJE7YTSHMU1GoRINMtHWm65A4"
  },
  {
    "name": "A & B Musical Instruments",
    "address": "12 Bellerine St, Geelong VIC 3220, Australia",
    "suburb": "Geelong VIC 3220",
    "state": "VIC",
    "rating": 4.9,
    "reviews": 232,
    "lat": -38.1480643,
    "lng": 144.3656552,
    "place_id": "ChIJjR1fVx4U1GoRBpZKQD4RkDs",
    "maps_url": "https://www.google.com/maps/place/?q=place_id:ChIJjR1fVx4U1GoRBpZKQD4RkDs"
  },
  {
    "name": "Albatross Backline",
    "address": "73 Roseneath St, North Geelong VIC 3215, Australia",
    "suburb": "North Geelong VIC 3215",
    "state": "VIC",
    "rating": 4.5,
    "reviews": 2,
    "lat": -38.1176424,
    "lng": 144.3495041,
    "place_id": "ChIJA-Uj3FYR1GoRE5zVgqaj4F0",
    "maps_url": "https://www.google.com/maps/place/?q=place_id:ChIJA-Uj3FYR1GoRE5zVgqaj4F0"
  },
  {
    "name": "Brookwood Guitars",
    "address": "18-20 Adella Ct, Moolap VIC 3224, Australia",
    "suburb": "Moolap VIC 3224",
    "state": "VIC",
    "rating": 5,
    "reviews": 2,
    "lat": -38.1740866,
    "lng": 144.417105,
    "place_id": "ChIJX6XwsegV1GoRYMbPXghMsEo",
    "maps_url": "https://www.google.com/maps/place/?q=place_id:ChIJX6XwsegV1GoRYMbPXghMsEo"
  },
  {
    "name": "Violin Place",
    "address": "geelong art center, creative engine, Level 2/81 Ryrie St, Geelong VIC 3220, Australia",
    "suburb": "creative engine",
    "state": "VIC",
    "rating": 4.7,
    "reviews": 7,
    "lat": -38.1481616,
    "lng": 144.3564437,
    "place_id": "ChIJnddXUWAV1GoRS-neKUe05y8",
    "maps_url": "https://www.google.com/maps/place/?q=place_id:ChIJnddXUWAV1GoRS-neKUe05y8"
  },
  {
    "name": "There & Back Again Records Geelong",
    "address": "171 Melbourne Rd, Rippleside VIC 3215, Australia",
    "suburb": "Rippleside VIC 3215",
    "state": "VIC",
    "rating": 4.9,
    "reviews": 59,
    "lat": -38.1230558,
    "lng": 144.3532094,
    "place_id": "ChIJEx_rrsIkmQkRg3LmQ0bbO6g",
    "maps_url": "https://www.google.com/maps/place/?q=place_id:ChIJEx_rrsIkmQkRg3LmQ0bbO6g"
  },
  {
    "name": "Isaac Wright Music",
    "address": "No Street Address, Geelong VIC 3220, Australia",
    "suburb": "Geelong VIC 3220",
    "state": "VIC",
    "rating": null,
    "reviews": 0,
    "lat": -38.1499493,
    "lng": 144.3616115,
    "place_id": "ChIJmdGQBYYV1GoRP_heFwmyXuI",
    "maps_url": "https://www.google.com/maps/place/?q=place_id:ChIJmdGQBYYV1GoRP_heFwmyXuI"
  },
  {
    "name": "Yamaha Music",
    "address": "39 Fyans St, Geelong VIC 3220, Australia",
    "suburb": "Geelong VIC 3220",
    "state": "VIC",
    "rating": null,
    "reviews": 0,
    "lat": -38.1611774,
    "lng": 144.3534835,
    "place_id": "ChIJ___LSXMU1GoR6yJON5iEhyw",
    "maps_url": "https://www.google.com/maps/place/?q=place_id:ChIJ___LSXMU1GoR6yJON5iEhyw"
  },
  {
    "name": "Crossroads Music",
    "address": "87 Bridge Mall, Bakery Hill VIC 3350, Australia",
    "suburb": "Bakery Hill VIC 3350",
    "state": "VIC",
    "rating": 4.8,
    "reviews": 215,
    "lat": -37.5625635,
    "lng": 143.864131,
    "place_id": "ChIJNXQmLPBE0WoRZdoeBX8CgB8",
    "maps_url": "https://www.google.com/maps/place/?q=place_id:ChIJNXQmLPBE0WoRZdoeBX8CgB8"
  },
  {
    "name": "Highlands Music",
    "address": "218a Skipton St, Ballarat Central VIC 3350, Australia",
    "suburb": "Ballarat Central VIC 3350",
    "state": "VIC",
    "rating": 5,
    "reviews": 4,
    "lat": -37.5695239,
    "lng": 143.8508421,
    "place_id": "ChIJOfmiDQBF0WoRBJwmaid6I1w",
    "maps_url": "https://www.google.com/maps/place/?q=place_id:ChIJOfmiDQBF0WoRBJwmaid6I1w"
  },
  {
    "name": "Tony Boadle Pianos Ballarat",
    "address": "By Appointment Only, Webster Dr, Sebastopol VIC 3356, Australia",
    "suburb": "Webster Dr",
    "state": "VIC",
    "rating": 5,
    "reviews": 14,
    "lat": -37.591351,
    "lng": 143.828538,
    "place_id": "ChIJSbwlBVRb0WoRFUvVay8McQY",
    "maps_url": "https://www.google.com/maps/place/?q=place_id:ChIJSbwlBVRb0WoRFUvVay8McQY"
  },
  {
    "name": "Bat City Music",
    "address": "33 View St, Bendigo VIC 3550, Australia",
    "suburb": "Bendigo VIC 3550",
    "state": "VIC",
    "rating": 4.7,
    "reviews": 97,
    "lat": -36.7588783,
    "lng": 144.2773865,
    "place_id": "ChIJO9bMSuxZ12oRW24rSK7spvY",
    "maps_url": "https://www.google.com/maps/place/?q=place_id:ChIJO9bMSuxZ12oRW24rSK7spvY"
  },
  {
    "name": "Mister Mozart’s Music Emporium",
    "address": "13 Killians Walk, Bendigo VIC 3550, Australia",
    "suburb": "Bendigo VIC 3550",
    "state": "VIC",
    "rating": 4.9,
    "reviews": 17,
    "lat": -36.7603763,
    "lng": 144.280885,
    "place_id": "ChIJ7_QEZDxZ12oRZLejd9vR75w",
    "maps_url": "https://www.google.com/maps/place/?q=place_id:ChIJ7_QEZDxZ12oRZLejd9vR75w"
  },
  {
    "name": "The Little Music Shop",
    "address": "83 Wyndham St, Shepparton VIC 3630, Australia",
    "suburb": "Shepparton VIC 3630",
    "state": "VIC",
    "rating": 4.8,
    "reviews": 135,
    "lat": -36.3737916,
    "lng": 145.4010603,
    "place_id": "ChIJCdOw8wqE2GoR1tT6MQSG_9M",
    "maps_url": "https://www.google.com/maps/place/?q=place_id:ChIJCdOw8wqE2GoR1tT6MQSG_9M"
  },
  {
    "name": "The Soundtrap",
    "address": "121 Langtree Ave, Mildura VIC 3500, Australia",
    "suburb": "Mildura VIC 3500",
    "state": "VIC",
    "rating": 4.6,
    "reviews": 52,
    "lat": -34.186652,
    "lng": 142.157923,
    "place_id": "ChIJv0BNH3IDw2oRTnWSahohX0k",
    "maps_url": "https://www.google.com/maps/place/?q=place_id:ChIJv0BNH3IDw2oRTnWSahohX0k"
  },
  {
    "name": "Whitehot Music",
    "address": "121 Langtree Ave, Mildura VIC 3500, Australia",
    "suburb": "Mildura VIC 3500",
    "state": "VIC",
    "rating": 5,
    "reviews": 4,
    "lat": -34.1866219,
    "lng": 142.1579517,
    "place_id": "ChIJQXvvviEDw2oRZp-ZWPNPGQU",
    "maps_url": "https://www.google.com/maps/place/?q=place_id:ChIJQXvvviEDw2oRZp-ZWPNPGQU"
  },
  {
    "name": "Thumbs Up Music Plus",
    "address": "178 Timor St, Warrnambool VIC 3280, Australia",
    "suburb": "Warrnambool VIC 3280",
    "state": "VIC",
    "rating": 4.5,
    "reviews": 46,
    "lat": -38.38481489999999,
    "lng": 142.4814058,
    "place_id": "ChIJB_ni0lBMzWoRF-rPjCDSUb4",
    "maps_url": "https://www.google.com/maps/place/?q=place_id:ChIJB_ni0lBMzWoRF-rPjCDSUb4"
  },
  {
    "name": "Fletcher Jones Market",
    "address": "61/77 Flaxman St, Warrnambool VIC 3280, Australia",
    "suburb": "Warrnambool VIC 3280",
    "state": "VIC",
    "rating": 4.2,
    "reviews": 875,
    "lat": -38.3872256,
    "lng": 142.4987473,
    "place_id": "ChIJSZiA9qhNzWoRqTbQbWyxn00",
    "maps_url": "https://www.google.com/maps/place/?q=place_id:ChIJSZiA9qhNzWoRqTbQbWyxn00"
  },
  {
    "name": "JB Hi-Fi Warrnambool",
    "address": "T2/65-69 Raglan Parade, Warrnambool VIC 3280, Australia",
    "suburb": "Warrnambool VIC 3280",
    "state": "VIC",
    "rating": 4.5,
    "reviews": 165,
    "lat": -38.3846278,
    "lng": 142.5270357,
    "place_id": "ChIJv6iMW-BNzWoR6XMHaHIZALQ",
    "maps_url": "https://www.google.com/maps/place/?q=place_id:ChIJv6iMW-BNzWoR6XMHaHIZALQ"
  },
  {
    "name": "rhythm street music",
    "address": "48 Hopetoun Rd, Warrnambool VIC 3280, Australia",
    "suburb": "Warrnambool VIC 3280",
    "state": "VIC",
    "rating": 5,
    "reviews": 2,
    "lat": -38.3665148,
    "lng": 142.4740945,
    "place_id": "ChIJy6Wp4iZNzWoR3XaqaW6SZ7Q",
    "maps_url": "https://www.google.com/maps/place/?q=place_id:ChIJy6Wp4iZNzWoR3XaqaW6SZ7Q"
  },
  {
    "name": "Vibe Audio Dj & Karaoke",
    "address": "1 Karen St, Warrnambool VIC 3280, Australia",
    "suburb": "Warrnambool VIC 3280",
    "state": "VIC",
    "rating": 5,
    "reviews": 4,
    "lat": -38.3786285,
    "lng": 142.5180442,
    "place_id": "ChIJQXV1i7BNzWoRlqKajMJc0Cs",
    "maps_url": "https://www.google.com/maps/place/?q=place_id:ChIJQXV1i7BNzWoRlqKajMJc0Cs"
  },
  {
    "name": "The Big R's Shed (Reduce, Recycle, Repurpose, Restore)",
    "address": "11 Albert St, Warrnambool VIC 3280, Australia",
    "suburb": "Warrnambool VIC 3280",
    "state": "VIC",
    "rating": 4.6,
    "reviews": 30,
    "lat": -38.3719991,
    "lng": 142.4600721,
    "place_id": "ChIJZde7T-xNzWoRmlSXyzAPV60",
    "maps_url": "https://www.google.com/maps/place/?q=place_id:ChIJZde7T-xNzWoRmlSXyzAPV60"
  },
  {
    "name": "Lifeline Shop Warrnambool",
    "address": "134 Lava St, Warrnambool VIC 3280, Australia",
    "suburb": "Warrnambool VIC 3280",
    "state": "VIC",
    "rating": 4.2,
    "reviews": 32,
    "lat": -38.3810158,
    "lng": 142.483755,
    "place_id": "ChIJ7eC5MVFMzWoR8fdWCht40PU",
    "maps_url": "https://www.google.com/maps/place/?q=place_id:ChIJ7eC5MVFMzWoR8fdWCht40PU"
  },
  {
    "name": "A & P Music",
    "address": "23 Kay St, Traralgon VIC 3844, Australia",
    "suburb": "Traralgon VIC 3844",
    "state": "VIC",
    "rating": 4.8,
    "reviews": 41,
    "lat": -38.1948013,
    "lng": 146.5358276,
    "place_id": "ChIJ71DoYiEYKWsRQ5y3xlW_lUg",
    "maps_url": "https://www.google.com/maps/place/?q=place_id:ChIJ71DoYiEYKWsRQ5y3xlW_lUg"
  },
  {
    "name": "Cranbourne Music School",
    "address": "Studio 1 Level 1, 19/21 High St, Cranbourne VIC 3977, Australia",
    "suburb": "19/21 High St",
    "state": "VIC",
    "rating": 4.6,
    "reviews": 23,
    "lat": -38.112557,
    "lng": 145.282475,
    "place_id": "ChIJQy7rF7oP1moR2WtdZVXa29k",
    "maps_url": "https://www.google.com/maps/place/?q=place_id:ChIJQy7rF7oP1moR2WtdZVXa29k"
  },