[
  {
    "name": "Joanne Kennedy Naturopath",
    "address": "Level 5/428 George St, Sydney NSW 2000, Australia",
    "suburb": "Sydney NSW 2000",
    "state": "NSW",
    "rating": 4.8,
    "reviews": 91,
    "lat": -33.869908,
    "lng": 151.2073361,
    "place_id": "ChIJJ5o7R0CuEmsR1yoBvkNRCAM",
    "maps_url": "https://www.google.com/maps/place/?q=place_id:ChIJJ5o7R0CuEmsR1yoBvkNRCAM"
  },
  {
    "name": "Darling Health | Sydney Naturopathy, Nutrition, Acupuncture, Psychology",
    "address": "133 Catherine St, Leichhardt NSW 2040, Australia",
    "suburb": "Leichhardt NSW 2040",
    "state": "NSW",
    "rating": 4.9,
    "reviews": 47,
    "lat": -33.8834215,
    "lng": 151.1629046,
    "place_id": "ChIJQTl1lbmvEmsRDEf_IJ3QpJs",
    "maps_url": "https://www.google.com/maps/place/?q=place_id:ChIJQTl1lbmvEmsRDEf_IJ3QpJs"
  },
  {
    "name": "Kathleen McFarlane - Naturopath Sydney",
    "address": "26 The Avenue, Randwick NSW 2031, Australia",
    "suburb": "Randwick NSW 2031",
    "state": "NSW",
    "rating": 5,
    "reviews": 38,
    "lat": -33.9120541,
    "lng": 151.241233,
    "place_id": "ChIJUctRv_GtEmsRVXcJOR0VD0g",
    "maps_url": "https://www.google.com/maps/place/?q=place_id:ChIJUctRv_GtEmsRVXcJOR0VD0g"
  },
  {
    "name": "Nourish Me Naturopathy",
    "address": "903/275 Alfred St N, North Sydney NSW 2060, Australia",
    "suburb": "North Sydney NSW 2060",
    "state": "NSW",
    "rating": 4.4,
    "reviews": 58,
    "lat": -33.8398244,
    "lng": 151.2115647,
    "place_id": "ChIJsaEYksOvEmsRGwYu5MQkxw4",
    "maps_url": "https://www.google.com/maps/place/?q=place_id:ChIJsaEYksOvEmsRGwYu5MQkxw4"
  },
  {
    "name": "Heidi Cummins Naturopath Sydney - Digestion - Anxiety - Hormones",
    "address": "LEVEL 1/457 Elizabeth St, Surry Hills NSW 2010, Australia",
    "suburb": "Surry Hills NSW 2010",
    "state": "NSW",
    "rating": 5,
    "reviews": 50,
    "lat": -33.8866468,
    "lng": 151.2080378,
    "place_id": "ChIJEzwkWQCvEmsRlT-27UjR54k",
    "maps_url": "https://www.google.com/maps/place/?q=place_id:ChIJEzwkWQCvEmsRlT-27UjR54k"
  },
  {
    "name": "Samantha Jane Naturopath",
    "address": "2 Cope St, Lane Cove NSW 2066, Australia",
    "suburb": "Lane Cove NSW 2066",
    "state": "NSW",
    "rating": 5,
    "reviews": 47,
    "lat": -33.8160136,
    "lng": 151.153724,
    "place_id": "ChIJ9UpzlVavEmsR7Oxnw2zXPzg",
    "maps_url": "https://www.google.com/maps/place/?q=place_id:ChIJ9UpzlVavEmsR7Oxnw2zXPzg"
  },
  {
    "name": "View to Health",
    "address": "5/2A Booth St, Balmain NSW 2041, Australia",
    "suburb": "Balmain NSW 2041",
    "state": "NSW",
    "rating": 4.8,
    "reviews": 49,
    "lat": -33.85974,
    "lng": 151.182346,
    "place_id": "ChIJbxRBybWvEmsRrp607YO9A_Q",
    "maps_url": "https://www.google.com/maps/place/?q=place_id:ChIJbxRBybWvEmsRrp607YO9A_Q"
  },
  {
    "name": "Brad Parkinson - Naturopath Sydney NSW",
    "address": "81-83 Campbell St, Surry Hills NSW 2010, Australia",
    "suburb": "Surry Hills NSW 2010",
    "state": "NSW",
    "rating": 5,
    "reviews": 26,
    "lat": -33.8803384,
    "lng": 151.2098101,
    "place_id": "ChIJJZV16bRC1moRdRC3a7gq6Oo",
    "maps_url": "https://www.google.com/maps/place/?q=place_id:ChIJJZV16bRC1moRdRC3a7gq6Oo"
  },
  {
    "name": "Mother Natura Holistic Health and Therapies",
    "address": "4A Waltham St, Coogee NSW 2034, Australia",
    "suburb": "Coogee NSW 2034",
    "state": "NSW",
    "rating": 5,
    "reviews": 139,
    "lat": -33.9229816,
    "lng": 151.2546805,
    "place_id": "ChIJU3iW1u6zEmsRupco1jJ3Z2U",
    "maps_url": "https://www.google.com/maps/place/?q=place_id:ChIJU3iW1u6zEmsRupco1jJ3Z2U"
  },
  {
    "name": "Steven Judge Clinical Naturopathy",
    "address": "17 Randle St, Surry Hills NSW 2010, Australia",
    "suburb": "Surry Hills NSW 2010",
    "state": "NSW",
    "rating": 5,
    "reviews": 53,
    "lat": -33.8853233,
    "lng": 151.207204,
    "place_id": "ChIJgQH6pt6xEmsRa2cZ9OaePtM",
    "maps_url": "https://www.google.com/maps/place/?q=place_id:ChIJgQH6pt6xEmsRa2cZ9OaePtM"
  },
  {
    "name": "Claire Grullemans",
    "address": "Unit 1/55 Regent St, Paddington NSW 2021, Australia",
    "suburb": "Paddington NSW 2021",
    "state": "NSW",
    "rating": 5,
    "reviews": 82,
    "lat": -33.8877456,
    "lng": 151.227788,
    "place_id": "ChIJu-7cjyGyEmsR9REm3bigqFc",
    "maps_url": "https://www.google.com/maps/place/?q=place_id:ChIJu-7cjyGyEmsR9REm3bigqFc"
  },
  {
    "name": "Naturopathic Health Solutions",
    "address": "414/14 Lexington Dr, Bella Vista NSW 2153, Australia",
    "suburb": "Bella Vista NSW 2153",
    "state": "NSW",
    "rating": 5,
    "reviews": 70,
    "lat": -33.7366604,
    "lng": 150.946319,
    "place_id": "ChIJ4TU3-1yfEmsRYswr8nkzZQU",
    "maps_url": "https://www.google.com/maps/place/?q=place_id:ChIJ4TU3-1yfEmsRYswr8nkzZQU"
  },
  {
    "name": "Integrated Health",
    "address": "129 Booth St, Annandale NSW 2038, Australia",
    "suburb": "Annandale NSW 2038",
    "state": "NSW",
    "rating": 4.9,
    "reviews": 48,
    "lat": -33.8808167,
    "lng": 151.169537,
    "place_id": "ChIJmdENqRCwEmsRKje4CGSokpI",
    "maps_url": "https://www.google.com/maps/place/?q=place_id:ChIJmdENqRCwEmsRKje4CGSokpI"
  },
  {
    "name": "Nutmeg Naturopathy",
    "address": "133 Catherine St, Leichhardt NSW 2040, Australia",
    "suburb": "Leichhardt NSW 2040",
    "state": "NSW",
    "rating": 5,
    "reviews": 51,
    "lat": -33.8834258,
    "lng": 151.1629985,
    "place_id": "ChIJbT22utCtEmsRl0NuItD749M",
    "maps_url": "https://www.google.com/maps/place/?q=place_id:ChIJbT22utCtEmsRl0NuItD749M"
  },
  {
    "name": "Botanical Abundance Naturopathy | Jessie-Anne El-Tannoury",
    "address": "Suite 403/88 Foveaux St, Surry Hills NSW 2010, Australia",
    "suburb": "Surry Hills NSW 2010",
    "state": "NSW",
    "rating": 5,
    "reviews": 50,
    "lat": -33.884645,
    "lng": 151.2122037,
    "place_id": "ChIJW41lUSyxEmsRjv_NdwtLshg",
    "maps_url": "https://www.google.com/maps/place/?q=place_id:ChIJW41lUSyxEmsRjv_NdwtLshg"
  },
  {
    "name": "Belinda Kirkpatrick Naturopath",
    "address": "5/442 New South Head Rd, Double Bay NSW 2028, Australia",
    "suburb": "Double Bay NSW 2028",
    "state": "NSW",
    "rating": 5,
    "reviews": 101,
    "lat": -33.8764931,
    "lng": 151.2452406,
    "place_id": "ChIJT1hkzAiuEmsRslRHr_33ttU",
    "maps_url": "https://www.google.com/maps/place/?q=place_id:ChIJT1hkzAiuEmsRslRHr_33ttU"
  },
  {
    "name": "Annmarie Cannone - Naturopath and Nutritionist",
    "address": "Five Dock Leisure Centre Queens Rd &, William St, Five Dock NSW 2046, Australia",
    "suburb": "William St",
    "state": "NSW",
    "rating": 5,
    "reviews": 27,
    "lat": -33.8683652,
    "lng": 151.1179974,
    "place_id": "ChIJ9VA8v3ClEmsRrI8A5S4n5xA",
    "maps_url": "https://www.google.com/maps/place/?q=place_id:ChIJ9VA8v3ClEmsRrI8A5S4n5xA"
  },
  {
    "name": "The Naturopath",
    "address": "205-209 Woodpark Rd, Smithfield NSW 2164, Australia",
    "suburb": "Smithfield NSW 2164",
    "state": "NSW",
    "rating": 5,
    "reviews": 13,
    "lat": -33.83794510000001,
    "lng": 150.9455801,
    "place_id": "ChIJOWbzl2OXEmsRa9jDzUf3q-M",
    "maps_url": "https://www.google.com/maps/place/?q=place_id:ChIJOWbzl2OXEmsRa9jDzUf3q-M"
  },
  {
    "name": "The Digestive Wellness Clinic",
    "address": "12 Junction St, Woollahra NSW 2025, Australia",
    "suburb": "Woollahra NSW 2025",
    "state": "NSW",
    "rating": 4.7,
    "reviews": 33,
    "lat": -33.8904112,
    "lng": 151.2503076,
    "place_id": "ChIJd3X_7fGtEmsRSv37LZXwXE8",
    "maps_url": "https://www.google.com/maps/place/?q=place_id:ChIJd3X_7fGtEmsRSv37LZXwXE8"
  },
  {
    "name": "Anthia Koullouros Naturopathic Clinic / Apotheca By Anthia Teas & Tisanes",
    "address": "346 Bourke St, Surry Hills NSW 2010, Australia",
    "suburb": "Surry Hills NSW 2010",
    "state": "NSW",
    "rating": 4.6,
    "reviews": 12,
    "lat": -33.882646,
    "lng": 151.2165208,
    "place_id": "ChIJZSjktwiuEmsRBc9WMR30t9o",
    "maps_url": "https://www.google.com/maps/place/?q=place_id:ChIJZSjktwiuEmsRBc9WMR30t9o"
  },
  {
    "name": "Mullen Natural Health Centre",
    "address": "16 Murray St, Hamilton NSW 2303, Australia",
    "suburb": "Hamilton NSW 2303",
    "state": "NSW",
    "rating": 4.9,
    "reviews": 213,
    "lat": -32.9245832,
    "lng": 151.7472378,
    "place_id": "ChIJvSWyKrMVc2sRjj-eLCQjmIw",
    "maps_url": "https://www.google.com/maps/place/?q=place_id:ChIJvSWyKrMVc2sRjj-eLCQjmIw"
  },
  {
    "name": "Wellness Vision Newcastle - Biomedical Naturopath & Functional Medicine Practitioner",
    "address": "Shop 1/61 Nelson St, Wallsend NSW 2287, Australia",
    "suburb": "Wallsend NSW 2287",
    "state": "NSW",
    "rating": 5,
    "reviews": 31,
    "lat": -32.9002838,
    "lng": 151.6680933,
    "place_id": "ChIJ07GsgPk8c2sRkV0KiuNjoBs",
    "maps_url": "https://www.google.com/maps/place/?q=place_id:ChIJ07GsgPk8c2sRkV0KiuNjoBs"
  },
  {
    "name": "Tonic Natural Health",
    "address": "618 Glebe Rd, Adamstown NSW 2289, Australia",
    "suburb": "Adamstown NSW 2289",
    "state": "NSW",
    "rating": 5,
    "reviews": 29,
    "lat": -32.9338849,
    "lng": 151.7245664,
    "place_id": "ChIJcSufesIVc2sRE1kGsXoqDe8",
    "maps_url": "https://www.google.com/maps/place/?q=place_id:ChIJcSufesIVc2sRE1kGsXoqDe8"
  },
  {
    "name": "CK Health",
    "address": "136 Glebe Rd, Merewether NSW 2291, Australia",
    "suburb": "Merewether NSW 2291",
    "state": "NSW",
    "rating": 5,
    "reviews": 139,
    "lat": -32.9383668,
    "lng": 151.7545985,
    "place_id": "ChIJIZzV6KwVc2sRjpiUSW8rJcs",
    "maps_url": "https://www.google.com/maps/place/?q=place_id:ChIJIZzV6KwVc2sRjpiUSW8rJcs"
  },
  {
    "name": "Ell Wynne Natural Health - Women’s Health & Hormones Naturopath",
    "address": "Vitality Junction, 179 Union St, The Junction NSW 2291, Australia",
    "suburb": "179 Union St",
    "state": "NSW",
    "rating": 5,
    "reviews": 24,
    "lat": -32.937535,
    "lng": 151.7599031,
    "place_id": "ChIJvdkbsh0z2gkReXZUnaR3xsg",
    "maps_url": "https://www.google.com/maps/place/?q=place_id:ChIJvdkbsh0z2gkReXZUnaR3xsg"
  },
  {
    "name": "The Gut Clinic - Naturopathic Solutions",
    "address": "7/478 The Esplanade, Warners Bay NSW 2282, Australia",
    "suburb": "Warners Bay NSW 2282",
    "state": "NSW",
    "rating": 5,
    "reviews": 31,
    "lat": -32.9748042,
    "lng": 151.6450691,
    "place_id": "ChIJ06Bh45IVc2sRtK84bd1B_sk",
    "maps_url": "https://www.google.com/maps/place/?q=place_id:ChIJ06Bh45IVc2sRtK84bd1B_sk"
  },
  {
    "name": "Sel and Stone",
    "address": "Level 2/16a Bolton St, Newcastle NSW 2300, Australia",
    "suburb": "Newcastle NSW 2300",
    "state": "NSW",
    "rating": 5,
    "reviews": 5,
    "lat": -32.9283341,
    "lng": 151.7829266,
    "place_id": "ChIJMX1kZ3sVc2sRsi3r5hifE2s",
    "maps_url": "https://www.google.com/maps/place/?q=place_id:ChIJMX1kZ3sVc2sRsi3r5hifE2s"
  },
  {
    "name": "Chloe Sheehan Naturopath",
    "address": "Level 1/178 Hunter St, Newcastle NSW 2300, Australia",
    "suburb": "Newcastle NSW 2300",
    "state": "NSW",
    "rating": 5,
    "reviews": 7,
    "lat": -32.926774,
    "lng": 151.7805335,
    "place_id": "ChIJq-HXQI6vEmsRuzVLjjyc5Hg",
    "maps_url": "https://www.google.com/maps/place/?q=place_id:ChIJq-HXQI6vEmsRuzVLjjyc5Hg"
  },
  {
    "name": "Sonia McNaughton Naturopath",
    "address": "55 Hanbury St, Mayfield NSW 2304, Australia",
    "suburb": "Mayfield NSW 2304",
    "state": "NSW",
    "rating": 5,
    "reviews": 30,
    "lat": -32.8989304,
    "lng": 151.7350267,
    "place_id": "ChIJ5ylJ8A8Vc2sRnWEWI29gqrE",
    "maps_url": "https://www.google.com/maps/place/?q=place_id:ChIJ5ylJ8A8Vc2sRnWEWI29gqrE"
  },
  {
    "name": "The Nature of Health",
    "address": "165 Darby St, Cooks Hill NSW 2300, Australia",
    "suburb": "Cooks Hill NSW 2300",
    "state": "NSW",
    "rating": 5,
    "reviews": 2,
    "lat": -32.9322966,
    "lng": 151.7711341,
    "place_id": "ChIJ1__yP3kVc2sR0aSvWOSMKGI",
    "maps_url": "https://www.google.com/maps/place/?q=place_id:ChIJ1__yP3kVc2sR0aSvWOSMKGI"
  },
  {
    "name": "Sharon Lindner | Herbalist | Naturopath | Bowen | Warners Bay",
    "address": "Health at the Crossing, 1/49 Warners Bay Rd, Warners Bay NSW 2282, Australia",
    "suburb": "1/49 Warners Bay Rd",
    "state": "NSW",
    "rating": 5,
    "reviews": 29,
    "lat": -32.9825549,
    "lng": 151.6511037,
    "place_id": "ChIJe5dIE_sVc2sROnVVHcwM7Fg",
    "maps_url": "https://www.google.com/maps/place/?q=place_id:ChIJe5dIE_sVc2sROnVVHcwM7Fg"
  },
  {
    "name": "Natural Health Newcastle",
    "address": "6A Elizabeth St, Tighes Hill NSW 2297, Australia",
    "suburb": "Tighes Hill NSW 2297",
    "state": "NSW",
    "rating": 5,
    "reviews": 3,
    "lat": -32.9072235,
    "lng": 151.7487744,
    "place_id": "ChIJr0nMDP4Uc2sR82JaPsbyCzk",
    "maps_url": "https://www.google.com/maps/place/?q=place_id:ChIJr0nMDP4Uc2sR82JaPsbyCzk"
  },
  {
    "name": "Kirsty Bednar",
    "address": "5/115 Elder St, Lambton NSW 2299, Australia",
    "suburb": "Lambton NSW 2299",
    "state": "NSW",
    "rating": 5,
    "reviews": 3,
    "lat": -32.9117029,
    "lng": 151.7077315,
    "place_id": "ChIJ78tQasoVc2sReVEcvBsyGY8",
    "maps_url": "https://www.google.com/maps/place/?q=place_id:ChIJ78tQasoVc2sReVEcvBsyGY8"
  },
  {
    "name": "Justine The Naturopath",
    "address": "10 William St, East Maitland NSW 2323, Australia",
    "suburb": "East Maitland NSW 2323",
    "state": "NSW",
    "rating": 5,
    "reviews": 8,
    "lat": -32.7478273,
    "lng": 151.5861737,
    "place_id": "ChIJueK8AHBHc2sRuMznWRilkNs",
    "maps_url": "https://www.google.com/maps/place/?q=place_id:ChIJueK8AHBHc2sRuMznWRilkNs"
  },
  {
    "name": "Lighthouse Health Hub",
    "address": "136 Beaumont St, Hamilton NSW 2303, Australia",
    "suburb": "Hamilton NSW 2303",
    "state": "NSW",
    "rating": 4.8,
    "reviews": 25,
    "lat": -32.9236202,
    "lng": 151.7467483,
    "place_id": "ChIJU2BxNpQVc2sRPFZ4gRt90ik",
    "maps_url": "https://www.google.com/maps/place/?q=place_id:ChIJU2BxNpQVc2sRPFZ4gRt90ik"
  },
  {
    "name": "Naturopath Sarah MacGurin",
    "address": "2/24 Brown Rd, Broadmeadow NSW 2292, Australia",
    "suburb": "Broadmeadow NSW 2292",
    "state": "NSW",
    "rating": 5,
    "reviews": 7,
    "lat": -32.9230774,
    "lng": 151.7334507,
    "place_id": "ChIJX6f4L7oVc2sRFwFLqPdOcFo",
    "maps_url": "https://www.google.com/maps/place/?q=place_id:ChIJX6f4L7oVc2sRFwFLqPdOcFo"
  },
  {
    "name": "Asha Holistic Health",
    "address": "80C Towradgi Rd, Towradgi NSW 2518, Australia",
    "suburb": "Towradgi NSW 2518",
    "state": "NSW",
    "rating": 5,
    "reviews": 107,
    "lat": -34.3833462,
    "lng": 150.9011909,
    "place_id": "ChIJLYdUCdEeE2sRLZK1TVlqD6k",
    "maps_url": "https://www.google.com/maps/place/?q=place_id:ChIJLYdUCdEeE2sRLZK1TVlqD6k"
  },
  {
    "name": "Core Naturopathics",
    "address": "Level 1/1 Young St, Wollongong NSW 2500, Australia",
    "suburb": "Wollongong NSW 2500",
    "state": "NSW",
    "rating": 4.8,
    "reviews": 31,
    "lat": -34.4235731,
    "lng": 150.8907945,
    "place_id": "ChIJ93J1GasfE2sRd7cAhLScdoY",
    "maps_url": "https://www.google.com/maps/place/?q=place_id:ChIJ93J1GasfE2sRd7cAhLScdoY"
  },
  {
    "name": "Tolle Totum Naturopathy",
    "address": "5/244 Princes Hwy, Corrimal NSW 2518, Australia",
    "suburb": "Corrimal NSW 2518",
    "state": "NSW",
    "rating": 5,
    "reviews": 78,
    "lat": -34.3726267,
    "lng": 150.8971975,
    "place_id": "ChIJQTnoYYEfE2sRDeB0f3SDozI",
    "maps_url": "https://www.google.com/maps/place/?q=place_id:ChIJQTnoYYEfE2sRDeB0f3SDozI"
  },
  {
    "name": "Doctor Verena - Nutrition, Kinesiology & Holistic Health (PhD Nutritional Sciences)",
    "address": "Suite 1, 24 Young Street, Wollongong Novello Building, Young Street Medical, Wollongong NSW 2500, Australia",
    "suburb": "24 Young Street",
    "state": "NSW",
    "rating": 5,
    "reviews": 39,
    "lat": -34.4225841,
    "lng": 150.8905039,
    "place_id": "ChIJ7a_2KOAfE2sRjKVYRcosDtU",
    "maps_url": "https://www.google.com/maps/place/?q=place_id:ChIJ7a_2KOAfE2sRjKVYRcosDtU"
  },
  {
    "name": "LYFE Naturopathics",
    "address": "77 N Kiama Dr, Kiama Downs NSW 2533, Australia",
    "suburb": "Kiama Downs NSW 2533",
    "state": "NSW",
    "rating": 5,
    "reviews": 96,
    "lat": -34.6431314,
    "lng": 150.8530991,
    "place_id": "ChIJbRmKT-BtE2sRXR4IzMpnsFY",
    "maps_url": "https://www.google.com/maps/place/?q=place_id:ChIJbRmKT-BtE2sRXR4IzMpnsFY"
  },
  {
    "name": "Shannon Rylands Naturopathy",
    "address": "Suite 3/73 Flinders St, Wollongong NSW 2500, Australia",
    "suburb": "Wollongong NSW 2500",
    "state": "NSW",
    "rating": 5,
    "reviews": 1,
    "lat": -34.420523,
    "lng": 150.8931206,
    "place_id": "ChIJ__-_jqQZE2sRNFyOb-37RAo",
    "maps_url": "https://www.google.com/maps/place/?q=place_id:ChIJ__-_jqQZE2sRNFyOb-37RAo"
  },
  {
    "name": "Claire Luckman Naturopath",
    "address": "One Love Health, 360 Lawrence Hargrave Dr, Thirroul NSW 2515, Australia",
    "suburb": "360 Lawrence Hargrave Dr",
    "state": "NSW",
    "rating": 5,
    "reviews": 56,
    "lat": -34.3171529,
    "lng": 150.9181674,
    "place_id": "ChIJ-3bmpBiwEmsR2md0QKwjIDg",
    "maps_url": "https://www.google.com/maps/place/?q=place_id:ChIJ-3bmpBiwEmsR2md0QKwjIDg"
  },
  {
    "name": "Emise Naturopathy by Emma Wiseman",
    "address": "755 Lawrence Hargrave Dr, Coledale NSW 2515, Australia",
    "suburb": "Coledale NSW 2515",
    "state": "NSW",
    "rating": 5,
    "reviews": 13,
    "lat": -34.2923316,
    "lng": 150.9445795,
    "place_id": "ChIJVVVV-ga4EmsRArlZ2brnTMg",
    "maps_url": "https://www.google.com/maps/place/?q=place_id:ChIJVVVV-ga4EmsRArlZ2brnTMg"
  },
  {
    "name": "Lotus Wellbeing",
    "address": "Keira St, Wollongong NSW 2500, Australia",
    "suburb": "Wollongong NSW 2500",
    "state": "NSW",
    "rating": 4.8,
    "reviews": 21,
    "lat": -34.4234844,
    "lng": 150.893322,
    "place_id": "ChIJWfyH06UZE2sRMZK7oIdlDtw",
    "maps_url": "https://www.google.com/maps/place/?q=place_id:ChIJWfyH06UZE2sRMZK7oIdlDtw"
  },
  {
    "name": "Melissa Poczwa Naturopath",
    "address": "60a Terralong St, Kiama NSW 2533, Australia",
    "suburb": "Kiama NSW 2533",
    "state": "NSW",
    "rating": 5,
    "reviews": 13,
    "lat": -34.67052760000001,
    "lng": 150.8542749,
    "place_id": "ChIJIYs3p0WvMioReAX721bCnsU",
    "maps_url": "https://www.google.com/maps/place/?q=place_id:ChIJIYs3p0WvMioReAX721bCnsU"
  },
  {
    "name": "Paulina Billett Clinical Herbalist",
    "address": "Medical Suite 1/24 Young St, Wollongong NSW 2500, Australia",
    "suburb": "Wollongong NSW 2500",
    "state": "NSW",
    "rating": 5,
    "reviews": 3,
    "lat": -34.4225425,
    "lng": 150.8903107,
    "place_id": "ChIJPY92FeAZE2sRYP-5EHAvRLM",
    "maps_url": "https://www.google.com/maps/place/?q=place_id:ChIJPY92FeAZE2sRYP-5EHAvRLM"
  },
  {
    "name": "Evolve Health Illawarra",
    "address": "38 Swan St, Wollongong NSW 2500, Australia",
    "suburb": "Wollongong NSW 2500",
    "state": "NSW",
    "rating": 4.8,
    "reviews": 23,
    "lat": -34.4354017,
    "lng": 150.893877,
    "place_id": "ChIJB_musfcZE2sRKD7T8e0rc08",
    "maps_url": "https://www.google.com/maps/place/?q=place_id:ChIJB_musfcZE2sRKD7T8e0rc08"
  },
  {
    "name": "Melanie Olde Naturopath",
    "address": "67 Excelsior Dr, Austinmer NSW 2515, Australia",
    "suburb": "Austinmer NSW 2515",
    "state": "NSW",
    "rating": 5,
    "reviews": 1,
    "lat": -34.3947462,
    "lng": 150.8935929,
    "place_id": "ChIJAVj_2QzgEmsRzSlo7PTt7_4",
    "maps_url": "https://www.google.com/maps/place/?q=place_id:ChIJAVj_2QzgEmsRzSlo7PTt7_4"
  },
  {
    "name": "Inner Knowing Homeopathy",
    "address": "Corrimal St, Wollongong NSW 2500, Australia",
    "suburb": "Wollongong NSW 2500",
    "state": "NSW",
    "rating": 5,
    "reviews": 1,
    "lat": -34.4200069,
    "lng": 150.9010808,
    "place_id": "ChIJadTO4uUZE2sRAZRuSbaUPHI",
    "maps_url": "https://www.google.com/maps/place/?q=place_id:ChIJadTO4uUZE2sRAZRuSbaUPHI"
  },
  {
    "name": "Meridian Health Centre",
    "address": "153 Kembla St, Wollongong NSW 2500, Australia",
    "suburb": "Wollongong NSW 2500",
    "state": "NSW",
    "rating": 5,
    "reviews": 3,
    "lat": -34.4349987,
    "lng": 150.8956745,
    "place_id": "ChIJofZdB7oZE2sRqNp66YfTptg",
    "maps_url": "https://www.google.com/maps/place/?q=place_id:ChIJofZdB7oZE2sRqNp66YfTptg"
  },
  {
    "name": "Rebecca Cook Naturopathy - Wholistic Wellness",
    "address": "55 Moore St, Austinmer NSW 2515, Australia",
    "suburb": "Austinmer NSW 2515",
    "state": "NSW",
    "rating": 5,
    "reviews": 1,
    "lat": -34.3067495,
    "lng": 150.9306091,
    "place_id": "ChIJ43evPlPhEmsRFpscjDjxvA0",
    "maps_url": "https://www.google.com/maps/place/?q=place_id:ChIJ43evPlPhEmsRFpscjDjxvA0"
  },
  {
    "name": "Natalie Cross - Naturopath",
    "address": "160 Corrimal St, Wollongong NSW 2500, Australia",
    "suburb": "Wollongong NSW 2500",
    "state": "NSW",
    "rating": null,
    "reviews": 0,
    "lat": -34.429911,
    "lng": 150.898694,
    "place_id": "ChIJTab1mt8ZE2sRMl78tx5PutU",
    "maps_url": "https://www.google.com/maps/place/?q=place_id:ChIJTab1mt8ZE2sRMl78tx5PutU"
  },
  {
    "name": "Ness the Naturopath",
    "address": "2/21 George St, Warilla NSW 2528, Australia",
    "suburb": "Warilla NSW 2528",
    "state": "NSW",
    "rating": 5,
    "reviews": 7,
    "lat": -34.5524458,
    "lng": 150.861958,
    "place_id": "ChIJsVP-jB0TE2sRLCnN9omRtM4",
    "maps_url": "https://www.google.com/maps/place/?q=place_id:ChIJsVP-jB0TE2sRLCnN9omRtM4"
  },
  {
    "name": "Lesley Nicholson - Teal Flame",
    "address": "Shop 2 292/296 Gipps Rd, Keiraville NSW 2500, Australia",
    "suburb": "Keiraville NSW 2500",
    "state": "NSW",
    "rating": 4.8,
    "reviews": 33,
    "lat": -34.4143212,
    "lng": 150.8720129,
    "place_id": "ChIJh0cur4IZE2sRTO0RCFTR1Ok",
    "maps_url": "https://www.google.com/maps/place/?q=place_id:ChIJh0cur4IZE2sRTO0RCFTR1Ok"
  },
  {
    "name": "Osteopathic & Healthcare Clinic",
    "address": "Parq on Flinders, Suite 3/73 Flinders St, Wollongong NSW 2500, Australia",
    "suburb": "Suite 3/73 Flinders St",
    "state": "NSW",
    "rating": 4.8,
    "reviews": 29,
    "lat": -34.420523,
    "lng": 150.8931206,
    "place_id": "ChIJC-oYjqQZE2sRHKdNqAj9DCA",
    "maps_url": "https://www.google.com/maps/place/?q=place_id:ChIJC-oYjqQZE2sRHKdNqAj9DCA"
  },
  {
    "name": "Avoca Naturopath and Nutritionist",
    "address": "229 Hillside Rd, Avoca Beach NSW 2251, Australia",
    "suburb": "Avoca Beach NSW 2251",
    "state": "NSW",
    "rating": 5,
    "reviews": 91,
    "lat": -33.4736309,
    "lng": 151.419518,
    "place_id": "ChIJi80767u1cmsRCNCaEwUBwiE",
    "maps_url": "https://www.google.com/maps/place/?q=place_id:ChIJi80767u1cmsRCNCaEwUBwiE"
  },
  {
    "name": "The Local Nat",
    "address": "14 Francis Rd, North Avoca NSW 2260, Australia",
    "suburb": "North Avoca NSW 2260",
    "state": "NSW",
    "rating": 5,
    "reviews": 13,
    "lat": -33.4509104,
    "lng": 151.4358624,
    "place_id": "ChIJ61Uq67u1cmsRiSF_mKBz0wo",
    "maps_url": "https://www.google.com/maps/place/?q=place_id:ChIJ61Uq67u1cmsRiSF_mKBz0wo"
  },
  {
    "name": "Lucy Frew Naturopath",
    "address": "Also in Avoca Beach, Go Vita, ERINA FAIR, Shop T332, Erina NSW 2250, Australia",
    "suburb": "Go Vita",
    "state": "NSW",
    "rating": 5,
    "reviews": 13,
    "lat": -33.4379136,
    "lng": 151.3935775,
    "place_id": "ChIJbbnl_lzLcmsRKWuITbhEk1Y",
    "maps_url": "https://www.google.com/maps/place/?q=place_id:ChIJbbnl_lzLcmsRKWuITbhEk1Y"
  },
  {
    "name": "James Marr Naturopathy",
    "address": "1 Bonnal Rd, Erina NSW 2250, Australia",
    "suburb": "Erina NSW 2250",
    "state": "NSW",
    "rating": 5,
    "reviews": 18,
    "lat": -33.4351488,
    "lng": 151.3849383,
    "place_id": "ChIJN5UlCHzzzaIR1Karhd4iB-8",
    "maps_url": "https://www.google.com/maps/place/?q=place_id:ChIJN5UlCHzzzaIR1Karhd4iB-8"
  },
  {
    "name": "Naturopath Gosford Clinic",
    "address": "8/31 Dwyer St, North Gosford NSW 2250, Australia",
    "suburb": "North Gosford NSW 2250",
    "state": "NSW",
    "rating": 5,
    "reviews": 16,
    "lat": -33.4158782,
    "lng": 151.3430175,
    "place_id": "ChIJj7sH6XjLcmsRlBp-caGysxw",
    "maps_url": "https://www.google.com/maps/place/?q=place_id:ChIJj7sH6XjLcmsRlBp-caGysxw"
  },
  {
    "name": "Fugen Health",
    "address": "Platinum Building West Wing, Suite 3.29/4 Ilya Ave, Erina NSW 2250, Australia",
    "suburb": "Suite 3.29/4 Ilya Ave",
    "state": "NSW",
    "rating": 5,
    "reviews": 28,
    "lat": -33.4395234,
    "lng": 151.3838711,
    "place_id": "ChIJ6wCYO9HLcmsRwSDoTZLOuZk",
    "maps_url": "https://www.google.com/maps/place/?q=place_id:ChIJ6wCYO9HLcmsRwSDoTZLOuZk"
  },
  {
    "name": "Total Health Clinic",
    "address": "37 Treelands Dr, Jilliby NSW 2259, Australia",
    "suburb": "Jilliby NSW 2259",
    "state": "NSW",
    "rating": 4.8,
    "reviews": 12,
    "lat": -33.249865,
    "lng": 151.39682,
    "place_id": "ChIJd4zLdDjScmsRY_vM4p8rGqY",
    "maps_url": "https://www.google.com/maps/place/?q=place_id:ChIJd4zLdDjScmsRY_vM4p8rGqY"
  },
  {
    "name": "Vivienne Ambrose Naturopath",
    "address": "Coast to Coast Medical Centre, 8/36 Alison Rd, Wyong NSW 2259, Australia",
    "suburb": "8/36 Alison Rd",
    "state": "NSW",
    "rating": 5,
    "reviews": 11,
    "lat": -33.2830714,
    "lng": 151.4220712,
    "place_id": "ChIJyQIj2xnLcmsREfAg7MD2Fmw",
    "maps_url": "https://www.google.com/maps/place/?q=place_id:ChIJyQIj2xnLcmsREfAg7MD2Fmw"
  },
  {
    "name": "Melissa McDonald Naturopath",
    "address": "G1/69 Central Coast Hwy, West Gosford NSW 2250, Australia",
    "suburb": "West Gosford NSW 2250",
    "state": "NSW",
    "rating": 5,
    "reviews": 21,
    "lat": -33.4267223,
    "lng": 151.3219513,
    "place_id": "ChIJP40miZhLDWsRfEuYlvlPtW0",
    "maps_url": "https://www.google.com/maps/place/?q=place_id:ChIJP40miZhLDWsRfEuYlvlPtW0"
  },
  {
    "name": "Naturopath Health",
    "address": "27 Cheryl Ave, Terrigal NSW 2260, Australia",
    "suburb": "Terrigal NSW 2260",
    "state": "NSW",
    "rating": 5,
    "reviews": 3,
    "lat": -33.433003,
    "lng": 151.4313887,
    "place_id": "ChIJ1fJ-B3rKcmsRdIugT_cPXhQ",
    "maps_url": "https://www.google.com/maps/place/?q=place_id:ChIJ1fJ-B3rKcmsRdIugT_cPXhQ"
  },
  {
    "name": "Chris Cardia Naturopath",
    "address": "819 The Entrance Rd, Wamberal NSW 2260, Australia",
    "suburb": "Wamberal NSW 2260",
    "state": "NSW",
    "rating": 5,
    "reviews": 13,
    "lat": -33.4179721,
    "lng": 151.4461077,
    "place_id": "ChIJxWKbDUvJcmsR6Y5SOySK1eE",
    "maps_url": "https://www.google.com/maps/place/?q=place_id:ChIJxWKbDUvJcmsR6Y5SOySK1eE"
  },
  {
    "name": "Perri Church Naturopathy",
    "address": "93 Toowoon Bay Rd, Toowoon Bay NSW 2261, Australia",
    "suburb": "Toowoon Bay NSW 2261",
    "state": "NSW",
    "rating": 5,
    "reviews": 13,
    "lat": -33.3582993,
    "lng": 151.4972014,
    "place_id": "ChIJ_f_AtEW1cmsResNVq1iSbTE",
    "maps_url": "https://www.google.com/maps/place/?q=place_id:ChIJ_f_AtEW1cmsResNVq1iSbTE"
  },
  {
    "name": "Naturally with Leah",
    "address": "8/31 Dwyer St, North Gosford NSW 2250, Australia",
    "suburb": "North Gosford NSW 2250",
    "state": "NSW",
    "rating": 4.9,
    "reviews": 9,
    "lat": -33.4158782,
    "lng": 151.3430175,
    "place_id": "ChIJQ7doIxjLcmsRYD8Ux_R2BiY",
    "maps_url": "https://www.google.com/maps/place/?q=place_id:ChIJQ7doIxjLcmsRYD8Ux_R2BiY"
  },
  {
    "name": "Lotus Naturopathy & Massage",
    "address": "4/53 Pacific Hwy, Ourimbah NSW 2258, Australia",
    "suburb": "Ourimbah NSW 2258",
    "state": "NSW",
    "rating": 5,
    "reviews": 62,
    "lat": -33.3601348,
    "lng": 151.3694784,
    "place_id": "ChIJfaHMQHnLcmsRC18HYfPUyJY",
    "maps_url": "https://www.google.com/maps/place/?q=place_id:ChIJfaHMQHnLcmsRC18HYfPUyJY"
  },
  {
    "name": "Sarah Fehlberg",
    "address": "Unit 1/5 Sacha Terrace, Terrigal NSW 2260, Australia",
    "suburb": "Terrigal NSW 2260",
    "state": "NSW",
    "rating": 5,
    "reviews": 42,
    "lat": -33.4448192,
    "lng": 151.4204071,
    "place_id": "ChIJt30tSye7EmsRzIvNLvEaWGY",
    "maps_url": "https://www.google.com/maps/place/?q=place_id:ChIJt30tSye7EmsRzIvNLvEaWGY"
  },
  {
    "name": "Natural Apothecary",
    "address": "Unit 6/243-247 Burge Rd, Woy Woy NSW 2256, Australia",
    "suburb": "Woy Woy NSW 2256",
    "state": "NSW",
    "rating": 5,
    "reviews": 10,
    "lat": -33.4943155,
    "lng": 151.3292785,
    "place_id": "ChIJ6dUDWga1cmsRjQY5wV6yPpI",
    "maps_url": "https://www.google.com/maps/place/?q=place_id:ChIJ6dUDWga1cmsRjQY5wV6yPpI"
  },
  {
    "name": "Nourish Me Well",
    "address": "16/172 The Entrance Rd, Erina NSW 2260, Australia",
    "suburb": "Erina NSW 2260",
    "state": "NSW",
    "rating": 5,
    "reviews": 2,
    "lat": -33.4368858,
    "lng": 151.3853729,
    "place_id": "ChIJycs4m9q3cmsRnT5r8fUb_ns",
    "maps_url": "https://www.google.com/maps/place/?q=place_id:ChIJycs4m9q3cmsRnT5r8fUb_ns"
  },
  {
    "name": "Balance Holistic Health",
    "address": "70 Bellevue Rd, Tumbi Umbi NSW 2261, Australia",
    "suburb": "Tumbi Umbi NSW 2261",
    "state": "NSW",
    "rating": 5,
    "reviews": 14,
    "lat": -33.3991531,
    "lng": 151.4598045,
    "place_id": "ChIJyQQZmyfJcmsRKVSaBtpQUUk",
    "maps_url": "https://www.google.com/maps/place/?q=place_id:ChIJyQQZmyfJcmsRKVSaBtpQUUk"
  },
  {
    "name": "BHealth.FIT - Kathryn Beacroft",
    "address": "19 Chetwynd Rd, Erina NSW 2250, Australia",
    "suburb": "Erina NSW 2250",
    "state": "NSW",
    "rating": 5,
    "reviews": 14,
    "lat": -33.4337438,
    "lng": 151.3963607,
    "place_id": "ChIJrW2V53DKcmsRRiWciH1Dl28",
    "maps_url": "https://www.google.com/maps/place/?q=place_id:ChIJrW2V53DKcmsRRiWciH1Dl28"
  },
  {
    "name": "Pinnacle Health Clinic",
    "address": "417-421 Church St, North Parramatta NSW 2151, Australia",
    "suburb": "North Parramatta NSW 2151",
    "state": "NSW",
    "rating": 3.6,
    "reviews": 172,
    "lat": -33.8060226,
    "lng": 151.0055541,
    "place_id": "ChIJwTrPTwOjEmsRn14QhkzgsT8",
    "maps_url": "https://www.google.com/maps/place/?q=place_id:ChIJwTrPTwOjEmsRn14QhkzgsT8"
  },
  {
    "name": "Will Shannon - Naturopath",
    "address": "417-421 Church St, North Parramatta NSW 2151, Australia",
    "suburb": "North Parramatta NSW 2151",
    "state": "NSW",
    "rating": 4.6,
    "reviews": 9,
    "lat": -33.8046084,
    "lng": 151.0059019,
    "place_id": "ChIJeUnVbwGjEmsR99mI4fnUo64",
    "maps_url": "https://www.google.com/maps/place/?q=place_id:ChIJeUnVbwGjEmsR99mI4fnUo64"
  },
  {
    "name": "🥇Ayur Healthcare Ayurveda (Panchakarma Centre) - Parramatta, Sydney",
    "address": "169 George St, Parramatta NSW 2150, Australia",
    "suburb": "Parramatta NSW 2150",
    "state": "NSW",
    "rating": 4.9,
    "reviews": 757,
    "lat": -33.8173634,
    "lng": 151.0153048,
    "place_id": "ChIJ7cT_clGjEmsRzbYOMb6Cz4I",
    "maps_url": "https://www.google.com/maps/place/?q=place_id:ChIJ7cT_clGjEmsRzbYOMb6Cz4I"
  },
  {
    "name": "Anisha's Ayurveda - Consultation & Panchakarma Clinic in Parramatta Since 2012",
    "address": "Shop 1/4 Lansdowne St, Parramatta NSW 2150, Australia",
    "suburb": "Parramatta NSW 2150",
    "state": "NSW",
    "rating": 4.9,
    "reviews": 46,
    "lat": -33.822119,
    "lng": 150.9999139,
    "place_id": "ChIJ95A4s_SjEmsRzsto63dbMpk",
    "maps_url": "https://www.google.com/maps/place/?q=place_id:ChIJ95A4s_SjEmsRzsto63dbMpk"
  },
  {
    "name": "Rafeena's Liv Ayurveda - Ayurveda Centre in Parramatta, Sydney",
    "address": "13 Marion St, Parramatta NSW 2150, Australia",
    "suburb": "Parramatta NSW 2150",
    "state": "NSW",
    "rating": 4.9,
    "reviews": 333,
    "lat": -33.8224843,
    "lng": 151.0058585,
    "place_id": "ChIJk2YwiR2wEmsRtOqi2fNQzdU",
    "maps_url": "https://www.google.com/maps/place/?q=place_id:ChIJk2YwiR2wEmsRtOqi2fNQzdU"
  },
  {
    "name": "Naturopath Parramatta, Nutritionist Parramatta, Naturopathic Clinic Parramatta",
    "address": "Unit 16/421 Church St, Parramatta NSW 2151, Australia",
    "suburb": "Parramatta NSW 2151",
    "state": "NSW",
    "rating": 5,
    "reviews": 1,
    "lat": -33.805945,
    "lng": 151.0055892,
    "place_id": "ChIJs1_6TwOjEmsRSeFoXkX6JBw",
    "maps_url": "https://www.google.com/maps/place/?q=place_id:ChIJs1_6TwOjEmsRSeFoXkX6JBw"
  },
  {
    "name": "Parramatta Natural Therapies Centre",
    "address": "25 Fennell St, Parramatta NSW 2150, Australia",
    "suburb": "Parramatta NSW 2150",
    "state": "NSW",
    "rating": 5,
    "reviews": 2,
    "lat": -33.8056364,
    "lng": 151.0040676,
    "place_id": "ChIJFdIiWxujEmsRzPdnumAM1OQ",
    "maps_url": "https://www.google.com/maps/place/?q=place_id:ChIJFdIiWxujEmsRzPdnumAM1OQ"
  },
  {
    "name": "Simone Davis Naturopath",
    "address": "10 Patriot Pl, Rouse Hill NSW 2155, Australia",
    "suburb": "Rouse Hill NSW 2155",
    "state": "NSW",
    "rating": 5,
    "reviews": 25,
    "lat": -33.6791923,
    "lng": 150.9290194,
    "place_id": "ChIJARBWAlGfEmsRl9IfPK3iqdw",
    "maps_url": "https://www.google.com/maps/place/?q=place_id:ChIJARBWAlGfEmsRl9IfPK3iqdw"
  },
  {
    "name": "Naturopath Shweta Pandey",
    "address": "Shop No 5/15-17 Toongabbie Rd, Toongabbie NSW 2146, Australia",
    "suburb": "Toongabbie NSW 2146",
    "state": "NSW",
    "rating": 5,
    "reviews": 16,
    "lat": -33.7890716,
    "lng": 150.9500751,
    "place_id": "ChIJBa7HvYCoEmsRhB4D_c7kGaY",
    "maps_url": "https://www.google.com/maps/place/?q=place_id:ChIJBa7HvYCoEmsRhB4D_c7kGaY"
  },
  {
    "name": "Jennifer Harrington",
    "address": "5/37-39 Smith St, Parramatta NSW 2150, Australia",
    "suburb": "Parramatta NSW 2150",
    "state": "NSW",
    "rating": 5,
    "reviews": 2,
    "lat": -33.8134761,
    "lng": 151.0064007,
    "place_id": "ChIJi9OKzB6jEmsR32qEqv7LE14",
    "maps_url": "https://www.google.com/maps/place/?q=place_id:ChIJi9OKzB6jEmsR32qEqv7LE14"
  },
  {
    "name": "Next Practice Parramatta",
    "address": "14/16 Fennell St, Parramatta NSW 2150, Australia",
    "suburb": "Parramatta NSW 2150",
    "state": "NSW",
    "rating": 5,
    "reviews": 18,
    "lat": -33.8051072,
    "lng": 151.0039183,
    "place_id": "ChIJn4uPHiGjEmsRPWKLMTuK4og",
    "maps_url": "https://www.google.com/maps/place/?q=place_id:ChIJn4uPHiGjEmsRPWKLMTuK4og"
  },
  {
    "name": "Naturecareayurveda - Nature Care Ayurveda yoga detox and rejuvenation",
    "address": "23 Albion St, Harris Park NSW 2150, Australia",
    "suburb": "Harris Park NSW 2150",
    "state": "NSW",
    "rating": 4.8,
    "reviews": 104,
    "lat": -33.8210308,
    "lng": 151.0099093,
    "place_id": "ChIJN0doLeqiEmsRE3X_oWjZp3A",
    "maps_url": "https://www.google.com/maps/place/?q=place_id:ChIJN0doLeqiEmsRE3X_oWjZp3A"
  },
  {
    "name": "Laser Therapy & Natural Medicine - Meikin Li Rees",
    "address": "30 Sorrell St, Parramatta NSW 2150, Australia",
    "suburb": "Parramatta NSW 2150",
    "state": "NSW",
    "rating": 5,
    "reviews": 2,
    "lat": -33.8077952,
    "lng": 151.0074471,
    "place_id": "ChIJ49rvRRujEmsRrkF-8E8RTJ8",
    "maps_url": "https://www.google.com/maps/place/?q=place_id:ChIJ49rvRRujEmsRrkF-8E8RTJ8"
  },
  {
    "name": "Melbourne Natural Medicine Clinic",
    "address": "225 Park St, South Melbourne VIC 3205, Australia",
    "suburb": "South Melbourne VIC 3205",
    "state": "VIC",
    "rating": 4.8,
    "reviews": 203,
    "lat": -37.835696,
    "lng": 144.960735,
    "place_id": "ChIJIzUpOzdd1moRpIRsSpa-0c0",
    "maps_url": "https://www.google.com/maps/place/?q=place_id:ChIJIzUpOzdd1moRpIRsSpa-0c0"
  },
  {
    "name": "Melbourne Naturopathy",
    "address": "352 St Georges Rd, Thornbury VIC 3071, Australia",
    "suburb": "Thornbury VIC 3071",
    "state": "VIC",
    "rating": 5,
    "reviews": 109,
    "lat": -37.7585609,
    "lng": 144.99394,
    "place_id": "ChIJPY4twYtE1moR2iZ25ou1UQ8",
    "maps_url": "https://www.google.com/maps/place/?q=place_id:ChIJPY4twYtE1moR2iZ25ou1UQ8"
  },
  {
    "name": "Melbourne Functional Medicine",
    "address": "186 Buckhurst St, South Melbourne VIC 3205, Australia",
    "suburb": "South Melbourne VIC 3205",
    "state": "VIC",
    "rating": 5,
    "reviews": 154,
    "lat": -37.8322589,
    "lng": 144.9479291,
    "place_id": "ChIJR5Ah2QNo1moRMOAJk_3cgDc",
    "maps_url": "https://www.google.com/maps/place/?q=place_id:ChIJR5Ah2QNo1moRMOAJk_3cgDc"
  },
  {
    "name": "The Naturopathic Co.: Naturopath + Nutritionist",
    "address": "54 Davis Ave, South Yarra VIC 3141, Australia",
    "suburb": "South Yarra VIC 3141",
    "state": "VIC",
    "rating": 4.9,
    "reviews": 173,
    "lat": -37.8392003,
    "lng": 144.9908252,
    "place_id": "ChIJczuSqlFD1moRCu8bDnh2fqo",
    "maps_url": "https://www.google.com/maps/place/?q=place_id:ChIJczuSqlFD1moRCu8bDnh2fqo"
  },
  {
    "name": "Melbourne Wellness",
    "address": "8/677 Victoria St, Abbotsford VIC 3067, Australia",
    "suburb": "Abbotsford VIC 3067",
    "state": "VIC",
    "rating": 5,
    "reviews": 67,
    "lat": -37.8115425,
    "lng": 145.0136,
    "place_id": "ChIJSfqAkrBA1moRH6MgPc5rc0U",
    "maps_url": "https://www.google.com/maps/place/?q=place_id:ChIJSfqAkrBA1moRH6MgPc5rc0U"
  },
  {
    "name": "Melbourne Naturopathic Wellness",
    "address": "66 Stevedore St, Williamstown VIC 3016, Australia",
    "suburb": "Williamstown VIC 3016",
    "state": "VIC",
    "rating": 4.9,
    "reviews": 26,
    "lat": -37.856838,
    "lng": 144.898073,
    "place_id": "ChIJA0xS8dhm1moRIJAF1UiIUGM",
    "maps_url": "https://www.google.com/maps/place/?q=place_id:ChIJA0xS8dhm1moRIJAF1UiIUGM"
  },
  {
    "name": "Melbourne Naturopath",
    "address": "F4/20 Collins St, Melbourne VIC 3000, Australia",
    "suburb": "Melbourne VIC 3000",
    "state": "VIC",
    "rating": 5,
    "reviews": 5,
    "lat": -37.813328,
    "lng": 144.972917,
    "place_id": "ChIJz4YFMsZC1moRlmN2CBDaBlo",
    "maps_url": "https://www.google.com/maps/place/?q=place_id:ChIJz4YFMsZC1moRlmN2CBDaBlo"
  },
  {
    "name": "The Gut Guy",
    "address": "Unit 2715/570 Lygon St, Carlton VIC 3053, Australia",
    "suburb": "Carlton VIC 3053",
    "state": "VIC",
    "rating": 5,
    "reviews": 84,
    "lat": -37.7926806,
    "lng": 144.9692131,
    "place_id": "ChIJp6hOhV-PLowRYstGWmeTblk",
    "maps_url": "https://www.google.com/maps/place/?q=place_id:ChIJp6hOhV-PLowRYstGWmeTblk"
  },
  {
    "name": "All Degrees of Health - Now trading as Melbourne Natural Medicine Clinic",
    "address": "225 Park St, South Melbourne VIC 3205, Australia",
    "suburb": "South Melbourne VIC 3205",
    "state": "VIC",
    "rating": 4.9,
    "reviews": 16,
    "lat": -37.835696,
    "lng": 144.960735,
    "place_id": "ChIJH_do7UFc1moRrcNI8UovRZs",
    "maps_url": "https://www.google.com/maps/place/?q=place_id:ChIJH_do7UFc1moRrcNI8UovRZs"
  },
  {
    "name": "Enhanced Vitality - Naturopaths & Gut Health Experts",
    "address": "360 Bourke St, Melbourne VIC 3000, Australia",
    "suburb": "Melbourne VIC 3000",
    "state": "VIC",
    "rating": 4.8,
    "reviews": 57,
    "lat": -37.8141894,
    "lng": 144.9627509,
    "place_id": "ChIJ3y3IF7VC1moRZ6HP-2JKLuw",
    "maps_url": "https://www.google.com/maps/place/?q=place_id:ChIJ3y3IF7VC1moRZ6HP-2JKLuw"
  },
  {
    "name": "AYURCLINIC - Melbourne",
    "address": "807/530 Little Collins St, Melbourne VIC 3000, Australia",
    "suburb": "Melbourne VIC 3000",
    "state": "VIC",
    "rating": 4.9,
    "reviews": 191,
    "lat": -37.816844,
    "lng": 144.957338,
    "place_id": "ChIJ6c0kLvT11moRKr-doZUUNhg",
    "maps_url": "https://www.google.com/maps/place/?q=place_id:ChIJ6c0kLvT11moRKr-doZUUNhg"
  },
  {
    "name": "Essendon Natural Health",
    "address": "187 Buckley St, Essendon VIC 3040, Australia",
    "suburb": "Essendon VIC 3040",
    "state": "VIC",
    "rating": 5,
    "reviews": 75,
    "lat": -37.756416,
    "lng": 144.909681,
    "place_id": "ChIJvwKTb2dc1moR943BrJZw_yM",
    "maps_url": "https://www.google.com/maps/place/?q=place_id:ChIJvwKTb2dc1moR943BrJZw_yM"
  },
  {
    "name": "Vital Health And Natural Medicine - Naturopath Melbourne",
    "address": "195A Sunshine Ave, Kealba VIC 3021, Australia",
    "suburb": "Kealba VIC 3021",
    "state": "VIC",
    "rating": 4.8,
    "reviews": 81,
    "lat": -37.7362779,
    "lng": 144.8202773,
    "place_id": "ChIJv-K0LwVf1moRo0nvrsD530E",
    "maps_url": "https://www.google.com/maps/place/?q=place_id:ChIJv-K0LwVf1moRo0nvrsD530E"
  },
  {
    "name": "Luke Clarke - Functional Medicine, Naturopath, Gut Clinic - Melbourne",
    "address": "1 Ward St, Ashburton VIC 3147, Australia",
    "suburb": "Ashburton VIC 3147",
    "state": "VIC",
    "rating": 4.8,
    "reviews": 17,
    "lat": -37.863992,
    "lng": 145.0799074,
    "place_id": "ChIJkTTEVdpB1moRpsUOOUP3EnM",
    "maps_url": "https://www.google.com/maps/place/?q=place_id:ChIJkTTEVdpB1moRpsUOOUP3EnM"
  },
  {
    "name": "Elissa Roy - Naturopathic Skin Specialist",
    "address": "Unit 41/9 Miller St, Fitzroy North VIC 3068, Australia",
    "suburb": "Fitzroy North VIC 3068",
    "state": "VIC",
    "rating": 5,
    "reviews": 16,
    "lat": -37.7761793,
    "lng": 144.9796469,
    "place_id": "ChIJpS2b8BhD1moRhEORF6hRjm4",
    "maps_url": "https://www.google.com/maps/place/?q=place_id:ChIJpS2b8BhD1moRhEORF6hRjm4"
  },
  {
    "name": "Melbourne Natural Wellness",
    "address": "225 Park St, South Melbourne VIC 3205, Australia",
    "suburb": "South Melbourne VIC 3205",
    "state": "VIC",
    "rating": 3.9,
    "reviews": 7,
    "lat": -37.835696,
    "lng": 144.960735,
    "place_id": "ChIJm4-VE7ZC1moRVjX0uiel8cw",
    "maps_url": "https://www.google.com/maps/place/?q=place_id:ChIJm4-VE7ZC1moRVjX0uiel8cw"
  },
  {
    "name": "National Institute of Integrative Medicine",
    "address": "11 Burwood Rd, Hawthorn VIC 3122, Australia",
    "suburb": "Hawthorn VIC 3122",
    "state": "VIC",
    "rating": 4.7,
    "reviews": 646,
    "lat": -37.8209367,
    "lng": 145.0228676,
    "place_id": "ChIJzxXcGYBB1moRq7TcwIIkDHg",
    "maps_url": "https://www.google.com/maps/place/?q=place_id:ChIJzxXcGYBB1moRq7TcwIIkDHg"
  },
  {
    "name": "Ayurherbs Ayurveda Clinic (Panchakarma centre)",
    "address": "12 Wellington Parade, East Melbourne VIC 3002, Australia",
    "suburb": "East Melbourne VIC 3002",
    "state": "VIC",
    "rating": 5,
    "reviews": 151,
    "lat": -37.8166604,
    "lng": 144.9894861,
    "place_id": "ChIJq0MIAA5D1moRphj_oqh7n44",
    "maps_url": "https://www.google.com/maps/place/?q=place_id:ChIJq0MIAA5D1moRphj_oqh7n44"
  },
  {
    "name": "Pure Herbal Ayurved Clinic- Ayurveda Doctor Melbourne",
    "address": "19/19-23 Hoddle St, Richmond VIC 3121, Australia",
    "suburb": "Richmond VIC 3121",
    "state": "VIC",
    "rating": 4.9,
    "reviews": 227,
    "lat": -37.8104011,
    "lng": 144.9916224,
    "place_id": "ChIJg1fGlQvqKqgRguciIcXpO3E",
    "maps_url": "https://www.google.com/maps/place/?q=place_id:ChIJg1fGlQvqKqgRguciIcXpO3E"
  },
  {
    "name": "The Melbourne Apothecary",
    "address": "299 Bourke St, Melbourne VIC 3000, Australia",
    "suburb": "Melbourne VIC 3000",
    "state": "VIC",
    "rating": 5,
    "reviews": 28,
    "lat": -37.813591,
    "lng": 144.964679,
    "place_id": "ChIJ90f1TT1D1moRkUH3u5H_HGU",
    "maps_url": "https://www.google.com/maps/place/?q=place_id:ChIJ90f1TT1D1moRkUH3u5H_HGU"
  },
  {
    "name": "Claridge Naturopathics",
    "address": "114 W Fyans St, Geelong VIC 3220, Australia",
    "suburb": "Geelong VIC 3220",
    "state": "VIC",
    "rating": 4.8,
    "reviews": 35,
    "lat": -38.158952,
    "lng": 144.3415486,
    "place_id": "ChIJEUpbfowT1GoRRMru3kMz7LQ",
    "maps_url": "https://www.google.com/maps/place/?q=place_id:ChIJEUpbfowT1GoRRMru3kMz7LQ"
  },
  {
    "name": "The Sana Co - Naturopathic Clinic",
    "address": "246 Ryrie St, Geelong VIC 3220, Australia",
    "suburb": "Geelong VIC 3220",
    "state": "VIC",
    "rating": 5,
    "reviews": 69,
    "lat": -38.1505458,
    "lng": 144.3633254,
    "place_id": "ChIJtcwrTYAT1GoRts-z79r0gUE",
    "maps_url": "https://www.google.com/maps/place/?q=place_id:ChIJtcwrTYAT1GoRts-z79r0gUE"
  },
  {
    "name": "Living Holistic Health - Geelong",
    "address": "275 Ryrie St, Geelong VIC 3220, Australia",
    "suburb": "Geelong VIC 3220",
    "state": "VIC",
    "rating": 5,
    "reviews": 65,
    "lat": -38.1506379,
    "lng": 144.3652067,
    "place_id": "ChIJqWIjNVVd1moRuhPzIqitY18",
    "maps_url": "https://www.google.com/maps/place/?q=place_id:ChIJqWIjNVVd1moRuhPzIqitY18"
  },
  {
    "name": "Maree Noonan Naturopathy",
    "address": "215A McKillop St, East Geelong VIC 3219, Australia",
    "suburb": "East Geelong VIC 3219",
    "state": "VIC",
    "rating": 5,
    "reviews": 19,
    "lat": -38.1579364,
    "lng": 144.3750841,
    "place_id": "ChIJvavVl35D1moRuHJ1ZOlzcoQ",
    "maps_url": "https://www.google.com/maps/place/?q=place_id:ChIJvavVl35D1moRuHJ1ZOlzcoQ"
  },
  {
    "name": "Christine Howell Naturopathy",
    "address": "Located within Geelong Wellbeing Centre, 204 Myers St, Geelong VIC 3220, Australia",
    "suburb": "204 Myers St",
    "state": "VIC",
    "rating": 5,
    "reviews": 2,
    "lat": -38.1538318,
    "lng": 144.366488,
    "place_id": "ChIJyVAbpLQV1GoRO48PFwqf-7w",
    "maps_url": "https://www.google.com/maps/place/?q=place_id:ChIJyVAbpLQV1GoRO48PFwqf-7w"
  },
  {
    "name": "Geelong Functional Medicine",
    "address": "155 Melbourne Rd, Rippleside VIC 3215, Australia",
    "suburb": "Rippleside VIC 3215",
    "state": "VIC",
    "rating": 5,
    "reviews": 1,
    "lat": -38.1239734,
    "lng": 144.3529138,
    "place_id": "ChIJr79XWygX1GoR4bVXZGHHNJw",
    "maps_url": "https://www.google.com/maps/place/?q=place_id:ChIJr79XWygX1GoR4bVXZGHHNJw"
  },
  {
    "name": "Jarrod Carter Naturopath",
    "address": "12 Ormond Rd, East Geelong VIC 3219, Australia",
    "suburb": "East Geelong VIC 3219",
    "state": "VIC",
    "rating": 5,
    "reviews": 13,
    "lat": -38.155886,
    "lng": 144.372008,
    "place_id": "ChIJ1R2nCCMU1GoRJuQr0Cwh3P8",
    "maps_url": "https://www.google.com/maps/place/?q=place_id:ChIJ1R2nCCMU1GoRJuQr0Cwh3P8"
  },
  {
    "name": "Carmoora Clinic - Natural Therapies",
    "address": "343 Moorabool St, Geelong VIC 3220, Australia",
    "suburb": "Geelong VIC 3220",
    "state": "VIC",
    "rating": 4.8,
    "reviews": 12,
    "lat": -38.1564522,
    "lng": 144.3568808,
    "place_id": "ChIJvVG1EA4U1GoRl-tf55qMH5Y",
    "maps_url": "https://www.google.com/maps/place/?q=place_id:ChIJvVG1EA4U1GoRl-tf55qMH5Y"
  },
  {
    "name": "Alice Nature",
    "address": "407 Yarra St, South Geelong VIC 3220, Australia",
    "suburb": "South Geelong VIC 3220",
    "state": "VIC",
    "rating": 5,
    "reviews": 4,
    "lat": -38.1629917,
    "lng": 144.3566921,
    "place_id": "ChIJabQfRRAU1GoRteS2wRxNZh8",
    "maps_url": "https://www.google.com/maps/place/?q=place_id:ChIJabQfRRAU1GoRteS2wRxNZh8"
  },
  {
    "name": "Robert Claridge - B.H.Sc.ND",
    "address": "114 W Fyans St, Newtown VIC 3220, Australia",
    "suburb": "Newtown VIC 3220",
    "state": "VIC",
    "rating": 4.3,
    "reviews": 4,
    "lat": -38.1589226,
    "lng": 144.3415703,
    "place_id": "ChIJJ4UtRG0U1GoRTrdUkgz7eZ8",
    "maps_url": "https://www.google.com/maps/place/?q=place_id:ChIJJ4UtRG0U1GoRTrdUkgz7eZ8"
  },
  {
    "name": "Well By Nature",
    "address": "181 Melbourne Rd Service Rd, Rippleside VIC 3215, Australia",
    "suburb": "Rippleside VIC 3215",
    "state": "VIC",
    "rating": 5,
    "reviews": 8,
    "lat": -38.1227712,
    "lng": 144.3533554,
    "place_id": "ChIJI1HlOysX1GoRQTN1woFtoQU",
    "maps_url": "https://www.google.com/maps/place/?q=place_id:ChIJI1HlOysX1GoRQTN1woFtoQU"
  },
  {
    "name": "Remedy Lane by Good Folk",
    "address": "138 Myers St, Geelong VIC 3220, Australia",
    "suburb": "Geelong VIC 3220",
    "state": "VIC",
    "rating": 5,
    "reviews": 113,
    "lat": -38.15169290000001,
    "lng": 144.3593029,
    "place_id": "ChIJx12m7nAT1GoRmmFtEDDJXyM",
    "maps_url": "https://www.google.com/maps/place/?q=place_id:ChIJx12m7nAT1GoRmmFtEDDJXyM"
  },
  {
    "name": "Revive Your Health Naturopathic and Remedial Massage",
    "address": "Suite 3/228-236 Pakington St, Geelong West VIC 3218, Australia",
    "suburb": "Geelong West VIC 3218",
    "state": "VIC",
    "rating": 5,
    "reviews": 6,
    "lat": -38.1435144,
    "lng": 144.3482105,
    "place_id": "ChIJsQYdzh4U1GoRGfAAggX4qn4",
    "maps_url": "https://www.google.com/maps/place/?q=place_id:ChIJsQYdzh4U1GoRGfAAggX4qn4"
  },
  {
    "name": "The Bright Side Holistic Skin Clinic",
    "address": "138 Myers St, Geelong VIC 3220, Australia",
    "suburb": "Geelong VIC 3220",
    "state": "VIC",
    "rating": 5,
    "reviews": 5,
    "lat": -38.15169290000001,
    "lng": 144.3593029,
    "place_id": "ChIJzcoYOFIV1GoRf-BuoETSuXw",
    "maps_url": "https://www.google.com/maps/place/?q=place_id:ChIJzcoYOFIV1GoRf-BuoETSuXw"
  },
  {
    "name": "Natural Fertility Geelong",
    "address": "1st Floor/293 Latrobe Terrace, Geelong VIC 3220, Australia",
    "suburb": "Geelong VIC 3220",
    "state": "VIC",
    "rating": 5,
    "reviews": 18,
    "lat": -38.1513685,
    "lng": 144.3522024,
    "place_id": "ChIJ37JDYCMU1GoR9bA58ezA-WA",
    "maps_url": "https://www.google.com/maps/place/?q=place_id:ChIJ37JDYCMU1GoR9bA58ezA-WA"
  },
  {
    "name": "Geelong Myotherapy and Wellness Centre",
    "address": "6-8 Tanner St, Breakwater VIC 3219, Australia",
    "suburb": "Breakwater VIC 3219",
    "state": "VIC",
    "rating": 5,
    "reviews": 43,
    "lat": -38.176964,
    "lng": 144.36926,
    "place_id": "ChIJD0Q3NlcU1GoR8iM_nMkLLWQ",
    "maps_url": "https://www.google.com/maps/place/?q=place_id:ChIJD0Q3NlcU1GoR8iM_nMkLLWQ"
  },
  {
    "name": "Myotherapy and Allied Health Geelong",
    "address": "11 Fenwick St, Geelong VIC 3220, Australia",
    "suburb": "Geelong VIC 3220",
    "state": "VIC",
    "rating": 4.9,
    "reviews": 61,
    "lat": -38.1486781,
    "lng": 144.3548937,
    "place_id": "ChIJkU5iXwQU1GoRT5l-vR9ZK2E",
    "maps_url": "https://www.google.com/maps/place/?q=place_id:ChIJkU5iXwQU1GoRT5l-vR9ZK2E"
  },
  {
    "name": "Green Oaks Natural Medicine @Myotherapy and allied health Geelong",
    "address": "11 Fenwick St, Geelong VIC 3220, Australia",
    "suburb": "Geelong VIC 3220",
    "state": "VIC",
    "rating": null,
    "reviews": 0,
    "lat": -38.1486812,
    "lng": 144.3547923,
    "place_id": "ChIJx98NXwQU1GoRHtnjQj5d4yo",
    "maps_url": "https://www.google.com/maps/place/?q=place_id:ChIJx98NXwQU1GoRHtnjQj5d4yo"
  },
  {
    "name": "Acorn and Oak Apothecary",
    "address": "46 Armstrong St N, Ballarat Central VIC 3350, Australia",
    "suburb": "Ballarat Central VIC 3350",
    "state": "VIC",
    "rating": 5,
    "reviews": 16,
    "lat": -37.55987,
    "lng": 143.8568995,
    "place_id": "ChIJqR3JiT1F0WoR3k641hyoio8",
    "maps_url": "https://www.google.com/maps/place/?q=place_id:ChIJqR3JiT1F0WoR3k641hyoio8"
  },
  {
    "name": "The Healthy Hub Wellness Centre",
    "address": "25 Sturt St, Ballarat Central VIC 3350, Australia",
    "suburb": "Ballarat Central VIC 3350",
    "state": "VIC",
    "rating": 4.7,
    "reviews": 84,
    "lat": -37.5626368,
    "lng": 143.8597386,
    "place_id": "ChIJ3TE1ef9E0WoRzthB0_SNTFk",
    "maps_url": "https://www.google.com/maps/place/?q=place_id:ChIJ3TE1ef9E0WoRzthB0_SNTFk"
  },
  {
    "name": "Karina Farmers - Naturopath",
    "address": "Intrinsic Healthcare, 107 Skipton St, Ballarat Central VIC 3350, Australia",
    "suburb": "107 Skipton St",
    "state": "VIC",
    "rating": 5,
    "reviews": 10,
    "lat": -37.5690676,
    "lng": 143.852864,
    "place_id": "ChIJyydwQR9D1moRV2MdHoIWSfU",
    "maps_url": "https://www.google.com/maps/place/?q=place_id:ChIJyydwQR9D1moRV2MdHoIWSfU"
  },
  {
    "name": "Jacqui Fernandez (Naturopath, Psychotherapist & Counsellor) Ballarat",
    "address": "706 Sturt St, Ballarat Central VIC 3350, Australia",
    "suburb": "Ballarat Central VIC 3350",
    "state": "VIC",
    "rating": 5,
    "reviews": 1,
    "lat": -37.560567,
    "lng": 143.8499149,
    "place_id": "ChIJF-FNn_lE0WoRj8vuHJZ0Tjw",
    "maps_url": "https://www.google.com/maps/place/?q=place_id:ChIJF-FNn_lE0WoRj8vuHJZ0Tjw"
  },
  {
    "name": "Functional Medicine Centre",
    "address": "520 Mair St, Ballarat Central VIC 3350, Australia",
    "suburb": "Ballarat Central VIC 3350",
    "state": "VIC",
    "rating": 5,
    "reviews": 2,
    "lat": -37.558845,
    "lng": 143.852823,
    "place_id": "ChIJT9FzJvZE0WoRwpeQigklLfM",
    "maps_url": "https://www.google.com/maps/place/?q=place_id:ChIJT9FzJvZE0WoRwpeQigklLfM"
  },
  {
    "name": "Blossom Wellbeing",
    "address": "Gregory St, Black Hill VIC 3350, Australia",
    "suburb": "Black Hill VIC 3350",
    "state": "VIC",
    "rating": 5,
    "reviews": 1,
    "lat": -37.5437865,
    "lng": 143.8458884,
    "place_id": "ChIJvfH4NfRE0WoRWcSpFTolNBQ",
    "maps_url": "https://www.google.com/maps/place/?q=place_id:ChIJvfH4NfRE0WoRWcSpFTolNBQ"
  },
  {
    "name": "Intrinsic Healthcare",
    "address": "107 Skipton St, Ballarat Central VIC 3350, Australia",
    "suburb": "Ballarat Central VIC 3350",
    "state": "VIC",
    "rating": 5,
    "reviews": 80,
    "lat": -37.5690676,
    "lng": 143.852864,
    "place_id": "ChIJuSLOKfdE0WoRB9L4LHOxbko",
    "maps_url": "https://www.google.com/maps/place/?q=place_id:ChIJuSLOKfdE0WoRB9L4LHOxbko"
  },
  {
    "name": "Spring Health - Ballarat Acupuncture & Herbal Medicine",
    "address": "1 Raglan St N, Ballarat Central VIC 3350, Australia",
    "suburb": "Ballarat Central VIC 3350",
    "state": "VIC",
    "rating": 4.9,
    "reviews": 81,
    "lat": -37.56067609999999,
    "lng": 143.8502755,
    "place_id": "ChIJg43WK1ZE0WoRlf5II51EBkA",
    "maps_url": "https://www.google.com/maps/place/?q=place_id:ChIJg43WK1ZE0WoRlf5II51EBkA"
  },
  {
    "name": "Building Health Naturopathy",
    "address": "108 Lyons St S, Ballarat Central VIC 3350, Australia",
    "suburb": "Ballarat Central VIC 3350",
    "state": "VIC",
    "rating": 3,
    "reviews": 4,
    "lat": -37.564177,
    "lng": 143.8510736,
    "place_id": "ChIJp_jyQvBE0WoRqb4PPzh7FAo",
    "maps_url": "https://www.google.com/maps/place/?q=place_id:ChIJp_jyQvBE0WoRqb4PPzh7FAo"
  },
  {
    "name": "Alternative Health Care",
    "address": "622 Drummond St S, Redan VIC 3350, Australia",
    "suburb": "Redan VIC 3350",
    "state": "VIC",
    "rating": 5,
    "reviews": 12,
    "lat": -37.5750447,
    "lng": 143.8445049,
    "place_id": "ChIJl1ck509E0WoReQMORY_MDt8",
    "maps_url": "https://www.google.com/maps/place/?q=place_id:ChIJl1ck509E0WoReQMORY_MDt8"
  },
  {
    "name": "Katherine Knott Naturopath",
    "address": "46 Armstrong St N, Ballarat Central VIC 3350, Australia",
    "suburb": "Ballarat Central VIC 3350",
    "state": "VIC",
    "rating": null,
    "reviews": 0,
    "lat": -37.55987,
    "lng": 143.8568995,
    "place_id": "ChIJ0yJmKatF0WoRhWt5qS_ihsA",
    "maps_url": "https://www.google.com/maps/place/?q=place_id:ChIJ0yJmKatF0WoRhWt5qS_ihsA"
  },
  {
    "name": "Go Vita Ballarat",
    "address": "23/27 Sturt St, Ballarat Central VIC 3350, Australia",
    "suburb": "Ballarat Central VIC 3350",
    "state": "VIC",
    "rating": 4.7,
    "reviews": 50,
    "lat": -37.5626477,
    "lng": 143.8598206,
    "place_id": "ChIJ2zdc6vhE0WoRC51rQ0kSNq8",
    "maps_url": "https://www.google.com/maps/place/?q=place_id:ChIJ2zdc6vhE0WoRC51rQ0kSNq8"
  },
  {
    "name": "Ballarat Massage & Naturopathy",
    "address": "3/34A Doveton St N, Ballarat Central VIC 3350, Australia",
    "suburb": "Ballarat Central VIC 3350",
    "state": "VIC",
    "rating": 5,
    "reviews": 1,
    "lat": -37.560068,
    "lng": 143.8553718,
    "place_id": "ChIJJ8cH2epE0WoRXF_pn5vCPlw",
    "maps_url": "https://www.google.com/maps/place/?q=place_id:ChIJJ8cH2epE0WoRXF_pn5vCPlw"
  },
  {
    "name": "Heather Nijhof",
    "address": "131 Moola St, Ballarat North VIC 3350, Australia",
    "suburb": "Ballarat North VIC 3350",
    "state": "VIC",
    "rating": null,
    "reviews": 0,
    "lat": -37.5405125,
    "lng": 143.8775997,
    "place_id": "ChIJF5OiKPZE0WoRe9JvBMiT9GY",
    "maps_url": "https://www.google.com/maps/place/?q=place_id:ChIJF5OiKPZE0WoRe9JvBMiT9GY"
  },
  {
    "name": "HEAL & GLOW HOLISTIC WELLNESS CENTRE",
    "address": "624 Drummond St S, Redan VIC 3350, Australia",
    "suburb": "Redan VIC 3350",
    "state": "VIC",
    "rating": 5,
    "reviews": 8,
    "lat": -37.5752692,
    "lng": 143.8445408,
    "place_id": "ChIJaQ94Zw5F0WoRvtsMo02eoTI",
    "maps_url": "https://www.google.com/maps/place/?q=place_id:ChIJaQ94Zw5F0WoRvtsMo02eoTI"
  },
  {
    "name": "Pathway to Wellness Clinic",
    "address": "25 Sturt St, Ballarat Central VIC 3350, Australia",
    "suburb": "Ballarat Central VIC 3350",
    "state": "VIC",
    "rating": null,
    "reviews": 0,
    "lat": -37.5626368,
    "lng": 143.8597386,
    "place_id": "ChIJXwUX1vZE0WoR_zFLjdKz7IM",
    "maps_url": "https://www.google.com/maps/place/?q=place_id:ChIJXwUX1vZE0WoR_zFLjdKz7IM"
  },
  {
    "name": "Healing Haus Farmacy",
    "address": "18 Dermot St, Wendouree VIC 3355, Australia",
    "suburb": "Wendouree VIC 3355",
    "state": "VIC",
    "rating": 5,
    "reviews": 25,
    "lat": -37.5281665,
    "lng": 143.8304818,
    "place_id": "ChIJZU8TFgxE0WoRxEjMw3NdCZg",
    "maps_url": "https://www.google.com/maps/place/?q=place_id:ChIJZU8TFgxE0WoRxEjMw3NdCZg"
  },
  {
    "name": "Ballarat Acupuncture & Herbal Medicine",
    "address": "Ninety HQ - 90 Bridge Mall, Rear entrance, Little Bridge St, Ballarat Central VIC 3350, Australia",
    "suburb": "Rear entrance",
    "state": "VIC",
    "rating": 5,
    "reviews": 26,
    "lat": -37.5629105,
    "lng": 143.8636005,
    "place_id": "ChIJSWKu2TVE0WoR_ELA8wEgOsY",
    "maps_url": "https://www.google.com/maps/place/?q=place_id:ChIJSWKu2TVE0WoR_ELA8wEgOsY"
  },
  {
    "name": "Nordic Natural Health Centre ( Jacqui Fernandez)",
    "address": "706 Sturt St, Ballarat Central VIC 3350, Australia",
    "suburb": "Ballarat Central VIC 3350",
    "state": "VIC",
    "rating": null,
    "reviews": 0,
    "lat": -37.560567,
    "lng": 143.8499149,
    "place_id": "ChIJb2eZZPZE0WoREuEWrTx3hqs",
    "maps_url": "https://www.google.com/maps/place/?q=place_id:ChIJb2eZZPZE0WoREuEWrTx3hqs"
  },
  {
    "name": "Phoenix Alternative Body & Soul",
    "address": "73 Bridge Mall, Ballarat Central VIC 3350, Australia",
    "suburb": "Ballarat Central VIC 3350",
    "state": "VIC",
    "rating": 4.9,
    "reviews": 142,
    "lat": -37.5624751,
    "lng": 143.863442,
    "place_id": "ChIJSWi6WfhE0WoRPUqQHjbE2pU",
    "maps_url": "https://www.google.com/maps/place/?q=place_id:ChIJSWi6WfhE0WoRPUqQHjbE2pU"
  },
  {
    "name": "Amy Simpson Naturopath",
    "address": "151 Queen St, Bendigo VIC 3550, Australia",
    "suburb": "Bendigo VIC 3550",
    "state": "VIC",
    "rating": 5,
    "reviews": 9,
    "lat": -36.7654746,
    "lng": 144.2750869,
    "place_id": "ChIJq42qbYRb12oRwqy-7VaiJqc",
    "maps_url": "https://www.google.com/maps/place/?q=place_id:ChIJq42qbYRb12oRwqy-7VaiJqc"
  },
  {
    "name": "Bloom Natural Health Co.",
    "address": "151 Queen St, Bendigo VIC 3550, Australia",
    "suburb": "Bendigo VIC 3550",
    "state": "VIC",
    "rating": 5,
    "reviews": 8,
    "lat": -36.7654746,
    "lng": 144.2750869,
    "place_id": "ChIJS4JgPTRR12oRliXOmrMg2y8",
    "maps_url": "https://www.google.com/maps/place/?q=place_id:ChIJS4JgPTRR12oRliXOmrMg2y8"
  },
  {
    "name": "Dione Simmons Naturopath - Longevita Wellness",
    "address": "20 Murphy St, Kennington VIC 3550, Australia",
    "suburb": "Kennington VIC 3550",
    "state": "VIC",
    "rating": 5,
    "reviews": 14,
    "lat": -36.7606757,
    "lng": 144.2974511,
    "place_id": "ChIJn8JMEOxZ12oRhsXJzuAe3KA",
    "maps_url": "https://www.google.com/maps/place/?q=place_id:ChIJn8JMEOxZ12oRhsXJzuAe3KA"
  },
  {
    "name": "Naturopathic Connections, Louise Gerry",
    "address": "58 Lucan St, North Bendigo VIC 3550, Australia",
    "suburb": "North Bendigo VIC 3550",
    "state": "VIC",
    "rating": 4.9,
    "reviews": 16,
    "lat": -36.7482852,
    "lng": 144.2851683,
    "place_id": "ChIJuV2Jb_FZ12oRcrqEEYIo5y0",
    "maps_url": "https://www.google.com/maps/place/?q=place_id:ChIJuV2Jb_FZ12oRcrqEEYIo5y0"
  },
  {
    "name": "Bendigo Natural Health Clinic",
    "address": "88 McIvor Hwy, Bendigo VIC 3550, Australia",
    "suburb": "Bendigo VIC 3550",
    "state": "VIC",
    "rating": 5,
    "reviews": 17,
    "lat": -36.758632,
    "lng": 144.29773,
    "place_id": "ChIJiZS78KFZ12oRTjqpZin-zJE",
    "maps_url": "https://www.google.com/maps/place/?q=place_id:ChIJiZS78KFZ12oRTjqpZin-zJE"
  },
  {
    "name": "Alysia Chick Naturopath",
    "address": "Shop 2 & 3/113-133 Mollison St, Bendigo VIC 3550, Australia",
    "suburb": "Bendigo VIC 3550",
    "state": "VIC",
    "rating": 5,
    "reviews": 4,
    "lat": -36.7629704,
    "lng": 144.2838333,
    "place_id": "ChIJBQ-Dy-5Z12oRI2OgCQ04Gm4",
    "maps_url": "https://www.google.com/maps/place/?q=place_id:ChIJBQ-Dy-5Z12oRI2OgCQ04Gm4"
  },
  {
    "name": "Nicola Pilon Naturopath",
    "address": "7 Victoria Ln, Bendigo VIC 3550, Australia",
    "suburb": "Bendigo VIC 3550",
    "state": "VIC",
    "rating": 5,
    "reviews": 6,
    "lat": -36.7595261,
    "lng": 144.2798515,
    "place_id": "ChIJu9oDBPVZ12oRTd1uB01Esjo",
    "maps_url": "https://www.google.com/maps/place/?q=place_id:ChIJu9oDBPVZ12oRTd1uB01Esjo"
  },
  {
    "name": "Greta Faulkner Naturopath",
    "address": "9 Sunshine Beach Rd, Noosa Heads QLD 4567, Australia",
    "suburb": "Noosa Heads QLD 4567",
    "state": "VIC",
    "rating": 5,
    "reviews": 26,
    "lat": -26.396517,
    "lng": 153.0903095,
    "place_id": "ChIJKeI9R6VZ12oR8CPVsij4aak",
    "maps_url": "https://www.google.com/maps/place/?q=place_id:ChIJKeI9R6VZ12oR8CPVsij4aak"
  },
  {
    "name": "Earth Goddess Healing - Naturopath",
    "address": "1 Halford St, Castlemaine VIC 3450, Australia",
    "suburb": "Castlemaine VIC 3450",
    "state": "VIC",
    "rating": 5,
    "reviews": 6,
    "lat": -37.0515202,
    "lng": 144.2213915,
    "place_id": "ChIJe1sqL24x12oRKZPi83mQaWI",
    "maps_url": "https://www.google.com/maps/place/?q=place_id:ChIJe1sqL24x12oRKZPi83mQaWI"
  },
  {
    "name": "McFarlane Robyn N.D",
    "address": "100 Sailors Gully Rd, Eaglehawk VIC 3556, Australia",
    "suburb": "Eaglehawk VIC 3556",
    "state": "VIC",
    "rating": 5,
    "reviews": 1,
    "lat": -36.7089809,
    "lng": 144.2471732,
    "place_id": "ChIJZUM2jZFX12oRz10aImSw1VE",
    "maps_url": "https://www.google.com/maps/place/?q=place_id:ChIJZUM2jZFX12oRz10aImSw1VE"
  },
  {
    "name": "Debra Rechter - Psychic Medium - In Bendigo",
    "address": "Evergreen Blvd, Jackass Flat VIC 3556, Australia",
    "suburb": "Jackass Flat VIC 3556",
    "state": "VIC",
    "rating": 5,
    "reviews": 35,
    "lat": -36.7048753,
    "lng": 144.2852184,
    "place_id": "ChIJoc-jx3NY12oRxMWjXiBNXqM",
    "maps_url": "https://www.google.com/maps/place/?q=place_id:ChIJoc-jx3NY12oRxMWjXiBNXqM"
  },
  {
    "name": "Ayurasa, Vicki Boucher",
    "address": "189 Hamilton Way, Lockwood South VIC 3551, Australia",
    "suburb": "Lockwood South VIC 3551",
    "state": "VIC",
    "rating": 5,
    "reviews": 8,
    "lat": -36.8832708,
    "lng": 144.133021,
    "place_id": "ChIJq3NXhO1Z12oRbGgjq4ve570",
    "maps_url": "https://www.google.com/maps/place/?q=place_id:ChIJq3NXhO1Z12oRbGgjq4ve570"
  },
  {
    "name": "Sandra Field",
    "address": "54 Stanley St, Tarnagulla VIC 3551, Australia",
    "suburb": "Tarnagulla VIC 3551",
    "state": "VIC",
    "rating": 4.9,
    "reviews": 11,
    "lat": -36.7717076,
    "lng": 143.8299344,
    "place_id": "ChIJc2hfwlO50GoRl9hDgBfWUjQ",
    "maps_url": "https://www.google.com/maps/place/?q=place_id:ChIJc2hfwlO50GoRl9hDgBfWUjQ"
  },
  {
    "name": "Susan Lintott Naturopath",
    "address": "35 Etty St, Castlemaine VIC 3450, Australia",
    "suburb": "Castlemaine VIC 3450",
    "state": "VIC",
    "rating": 5,
    "reviews": 10,
    "lat": -37.0762411,
    "lng": 144.2152637,
    "place_id": "ChIJ-_mslNgw12oR6r9oOKSZmIQ",
    "maps_url": "https://www.google.com/maps/place/?q=place_id:ChIJ-_mslNgw12oR6r9oOKSZmIQ"
  },
  {
    "name": "Bendigo Bowen Therapy",
    "address": "391 Hargreaves St, Bendigo VIC 3550, Australia",
    "suburb": "Bendigo VIC 3550",
    "state": "VIC",
    "rating": 5,
    "reviews": 1,
    "lat": -36.7618439,
    "lng": 144.2782098,
    "place_id": "ChIJkScV-1xZ12oRVAfADJ_1ils",
    "maps_url": "https://www.google.com/maps/place/?q=place_id:ChIJkScV-1xZ12oRVAfADJ_1ils"
  },
  {
    "name": "The Back Man - Massage Specialist",
    "address": "Thrive Fit Complex, 28 Abel St, Golden Square VIC 3555, Australia",
    "suburb": "28 Abel St",
    "state": "VIC",
    "rating": 4.8,
    "reviews": 50,
    "lat": -36.7718857,
    "lng": 144.2714692,
    "place_id": "ChIJ6X21SRVa12oRZKk-xYqjJtE",
    "maps_url": "https://www.google.com/maps/place/?q=place_id:ChIJ6X21SRVa12oRZKk-xYqjJtE"
  },
  {
    "name": "Bendigo Natural Therapies Apothecary & Herbal Dispensary",
    "address": "7 Victoria Ln, Bendigo VIC 3550, Australia",
    "suburb": "Bendigo VIC 3550",
    "state": "VIC",
    "rating": null,
    "reviews": 0,
    "lat": -36.7595261,
    "lng": 144.2798515,
    "place_id": "ChIJX6fFo2lZ12oRIu5xNXDiXF8",
    "maps_url": "https://www.google.com/maps/place/?q=place_id:ChIJX6fFo2lZ12oRIu5xNXDiXF8"
  },
  {
    "name": "Nature Cure Clinic",
    "address": "High St, Bendigo VIC 3550, Australia",
    "suburb": "Bendigo VIC 3550",
    "state": "VIC",
    "rating": null,
    "reviews": 0,
    "lat": -36.7671408,
    "lng": 144.2665214,
    "place_id": "ChIJo1Dm0wZa12oRONieYsRgdho",
    "maps_url": "https://www.google.com/maps/place/?q=place_id:ChIJo1Dm0wZa12oRONieYsRgdho"
  },
  {
    "name": "House of Healing Chiropractic",
    "address": "Shop 2 & 3/113-133 Mollison St, Bendigo VIC 3550, Australia",
    "suburb": "Bendigo VIC 3550",
    "state": "VIC",
    "rating": 5,
    "reviews": 43,
    "lat": -36.7630564,
    "lng": 144.2835906,
    "place_id": "ChIJbfoVkJRZ12oRHvNr8Xc8-TE",
    "maps_url": "https://www.google.com/maps/place/?q=place_id:ChIJbfoVkJRZ12oRHvNr8Xc8-TE"
  },
  {
    "name": "Bendigo Wellness Centre",
    "address": "37 Langston St, Bendigo VIC 3550, Australia",
    "suburb": "Bendigo VIC 3550",
    "state": "VIC",
    "rating": 4.2,
    "reviews": 24,
    "lat": -36.7518567,
    "lng": 144.2706723,
    "place_id": "ChIJgy3ZV1BZ12oRxgK-PyvnorE",
    "maps_url": "https://www.google.com/maps/place/?q=place_id:ChIJgy3ZV1BZ12oRxgK-PyvnorE"
  },
  {
    "name": "Brisbane Naturopath",
    "address": "148 Arthur Ter, Red Hill QLD 4059, Australia",
    "suburb": "Red Hill QLD 4059",
    "state": "QLD",
    "rating": 5,
    "reviews": 31,
    "lat": -27.4506817,
    "lng": 152.9940514,
    "place_id": "ChIJAaotX1xXkWsR-p8uImtS7q0",
    "maps_url": "https://www.google.com/maps/place/?q=place_id:ChIJAaotX1xXkWsR-p8uImtS7q0"
  },
  {
    "name": "Brisbane Livewell Clinic",
    "address": "1/52 Jeffcott St, Wavell Heights QLD 4012, Australia",
    "suburb": "Wavell Heights QLD 4012",
    "state": "QLD",
    "rating": 4.9,
    "reviews": 221,
    "lat": -27.3928303,
    "lng": 153.0560362,
    "place_id": "ChIJo4FAi2xYkWsRNc65wOa5i4A",
    "maps_url": "https://www.google.com/maps/place/?q=place_id:ChIJo4FAi2xYkWsRNc65wOa5i4A"
  },
  {
    "name": "The Shift Clinic - Naturopath Brisbane",
    "address": "17/46 Douglas St, Milton QLD 4064, Australia",
    "suburb": "Milton QLD 4064",
    "state": "QLD",
    "rating": 4.9,
    "reviews": 142,
    "lat": -27.4725391,
    "lng": 153.0024291,
    "place_id": "ChIJWUOTArBQkWsRmoLHK_VmRH4",
    "maps_url": "https://www.google.com/maps/place/?q=place_id:ChIJWUOTArBQkWsRmoLHK_VmRH4"
  },
  {
    "name": "Elixir Naturopathy",
    "address": "130 Commercial Rd, Teneriffe QLD 4005, Australia",
    "suburb": "Teneriffe QLD 4005",
    "state": "QLD",
    "rating": 5,
    "reviews": 31,
    "lat": -27.4533031,
    "lng": 153.0472291,
    "place_id": "ChIJfdHI7RhakWsRsEeNDobPs0Q",
    "maps_url": "https://www.google.com/maps/place/?q=place_id:ChIJfdHI7RhakWsRsEeNDobPs0Q"
  },
  {
    "name": "Morkare Natural Clinic",
    "address": "789 Logan Rd, Holland Park West QLD 4121, Australia",
    "suburb": "Holland Park West QLD 4121",
    "state": "QLD",
    "rating": 5,
    "reviews": 191,
    "lat": -27.5146807,
    "lng": 153.0552442,
    "place_id": "ChIJdd2Kt_hakWsRVTRUXKMBJL8",
    "maps_url": "https://www.google.com/maps/place/?q=place_id:ChIJdd2Kt_hakWsRVTRUXKMBJL8"
  },
  {
    "name": "Brisbane Livewell Clinic",
    "address": "Shop 1/18 Pickwick St, Cannon Hill QLD 4170, Australia",
    "suburb": "Cannon Hill QLD 4170",
    "state": "QLD",
    "rating": 5,
    "reviews": 63,
    "lat": -27.4711622,
    "lng": 153.0947799,
    "place_id": "ChIJjWtFuplZkWsRKu033JLpBA8",
    "maps_url": "https://www.google.com/maps/place/?q=place_id:ChIJjWtFuplZkWsRKu033JLpBA8"
  },
  {
    "name": "NXTLVL Health - Naturopath",
    "address": "Suite 2/665 Brunswick St, New Farm QLD 4005, Australia",
    "suburb": "New Farm QLD 4005",
    "state": "QLD",
    "rating": 5,
    "reviews": 54,
    "lat": -27.4641856,
    "lng": 153.0417884,
    "place_id": "ChIJ06O66rJZkWsRSN_fzRl4n8U",
    "maps_url": "https://www.google.com/maps/place/?q=place_id:ChIJ06O66rJZkWsRSN_fzRl4n8U"
  },
  {
    "name": "MK Natural Health",
    "address": "Suite 2/737 Logan Rd, Greenslopes QLD 4120, Australia",
    "suburb": "Greenslopes QLD 4120",
    "state": "QLD",
    "rating": 5,
    "reviews": 44,
    "lat": -27.5127885,
    "lng": 153.053194,
    "place_id": "ChIJEeNUQFdakWsRmKVaKrRfyKQ",
    "maps_url": "https://www.google.com/maps/place/?q=place_id:ChIJEeNUQFdakWsRmKVaKrRfyKQ"
  },
  {
    "name": "Lesley O'Connor Naturopath",
    "address": "6 Broadway St, Woolloongabba QLD 4102, Australia",
    "suburb": "Woolloongabba QLD 4102",
    "state": "QLD",
    "rating": 5,
    "reviews": 26,
    "lat": -27.490652,
    "lng": 153.0361671,
    "place_id": "ChIJl19-3nZXkWsRwzgXtA6GsNw",
    "maps_url": "https://www.google.com/maps/place/?q=place_id:ChIJl19-3nZXkWsRwzgXtA6GsNw"
  },
  {
    "name": "Guided by Tradition Naturopathy Brisbane",
    "address": "65a/69-71 Wilgarning St, Stafford Heights QLD 4053, Australia",
    "suburb": "Stafford Heights QLD 4053",
    "state": "QLD",
    "rating": 5,
    "reviews": 31,
    "lat": -27.4014205,
    "lng": 153.0146917,
    "place_id": "ChIJNa5GZsZRkWsRSlDaEFODhmo",
    "maps_url": "https://www.google.com/maps/place/?q=place_id:ChIJNa5GZsZRkWsRSlDaEFODhmo"
  },
  {
    "name": "Brisbane Naturopathy & Iridology Clinic",
    "address": "29 Barton St, Bardon QLD 4065, Australia",
    "suburb": "Bardon QLD 4065",
    "state": "QLD",
    "rating": 5,
    "reviews": 5,
    "lat": -27.4676601,
    "lng": 152.9898395,
    "place_id": "ChIJF2cV58dQkWsRi5xSzbL_NoY",
    "maps_url": "https://www.google.com/maps/place/?q=place_id:ChIJF2cV58dQkWsRi5xSzbL_NoY"
  },
  {
    "name": "Balance By Bell Naturopathy",
    "address": "137/145 Racecourse Rd, Ascot QLD 4007, Australia",
    "suburb": "Ascot QLD 4007",
    "state": "QLD",
    "rating": 5,
    "reviews": 21,
    "lat": -27.4322443,
    "lng": 153.0658494,
    "place_id": "ChIJ3Vinew9f3KMRBs7augHWuDw",
    "maps_url": "https://www.google.com/maps/place/?q=place_id:ChIJ3Vinew9f3KMRBs7augHWuDw"
  },
  {
    "name": "Naturopath To You",
    "address": "Unit 2/75-81 Jardine Dr, Redland Bay QLD 4165, Australia",
    "suburb": "Redland Bay QLD 4165",
    "state": "QLD",
    "rating": 5,
    "reviews": 22,
    "lat": -27.6236134,
    "lng": 153.2810172,
    "place_id": "ChIJTTfm6spDkWsR6tGJcgrVat4",
    "maps_url": "https://www.google.com/maps/place/?q=place_id:ChIJTTfm6spDkWsR6tGJcgrVat4"
  },
  {
    "name": "Brisbane Naturopaths & Wellness Centre",
    "address": "Shop 6/27 Cunningham St, Newstead QLD 4006, Australia",
    "suburb": "Newstead QLD 4006",
    "state": "QLD",
    "rating": 5,
    "reviews": 6,
    "lat": -27.4487388,
    "lng": 153.0442393,
    "place_id": "ChIJV4vc7RhakWsRi7ljYq5i5Zg",
    "maps_url": "https://www.google.com/maps/place/?q=place_id:ChIJV4vc7RhakWsRi7ljYq5i5Zg"
  },
  {
    "name": "Perpetual Wellbeing",
    "address": "level 22/127 Creek St, Brisbane City QLD 4000, Australia",
    "suburb": "Brisbane City QLD 4000",
    "state": "QLD",
    "rating": 5,
    "reviews": 22,
    "lat": -27.4656572,
    "lng": 153.0277733,
    "place_id": "ChIJS243OR1akWsREGJ6rXXeW6U",
    "maps_url": "https://www.google.com/maps/place/?q=place_id:ChIJS243OR1akWsREGJ6rXXeW6U"
  },
  {
    "name": "The Eczema Naturopath",
    "address": "3B/438 Samford Rd, Gaythorne QLD 4051, Australia",
    "suburb": "Gaythorne QLD 4051",
    "state": "QLD",
    "rating": 5,
    "reviews": 38,
    "lat": -27.4181183,
    "lng": 152.9830309,
    "place_id": "ChIJT5T53l9XkWsRnGkrteavTtE",
    "maps_url": "https://www.google.com/maps/place/?q=place_id:ChIJT5T53l9XkWsRnGkrteavTtE"
  },
  {
    "name": "The Healthy Hormone Naturopath",
    "address": "The Evergreen Centre, Shop 4/12 Discovery Dr, North Lakes QLD 4509, Australia",
    "suburb": "Shop 4/12 Discovery Dr",
    "state": "QLD",
    "rating": 5,
    "reviews": 42,
    "lat": -27.2395861,
    "lng": 153.0240003,
    "place_id": "ChIJ__-LXWxYkWsRn2hgJp0FiMM",
    "maps_url": "https://www.google.com/maps/place/?q=place_id:ChIJ__-LXWxYkWsRn2hgJp0FiMM"
  },
  {
    "name": "NATOLOGY - Functional Medicine",
    "address": "Level 2/130 Commercial Rd, Teneriffe QLD 4005, Australia",
    "suburb": "Teneriffe QLD 4005",
    "state": "QLD",
    "rating": 5,
    "reviews": 19,
    "lat": -27.4533031,
    "lng": 153.0472291,
    "place_id": "ChIJZZolbpFZkWsRbKpo326Ww4A",
    "maps_url": "https://www.google.com/maps/place/?q=place_id:ChIJZZolbpFZkWsRbKpo326Ww4A"
  },
  {
    "name": "Integrated Wellness Clinic Brisbane Naturopath & Psychology",
    "address": "15 Latrobe Ter, Paddington QLD 4064, Australia",
    "suburb": "Paddington QLD 4064",
    "state": "QLD",
    "rating": 4.6,
    "reviews": 11,
    "lat": -27.4598574,
    "lng": 153.0020287,
    "place_id": "ChIJWeIg0ZJok2sRi6EyJkdranU",
    "maps_url": "https://www.google.com/maps/place/?q=place_id:ChIJWeIg0ZJok2sRi6EyJkdranU"
  },
  {
    "name": "Southern Health & Wellbeing - Naturopath, Herbalist & Clinical Nutritionist",
    "address": "40 Lochinvar Ln, The Gap QLD 4061, Australia",
    "suburb": "The Gap QLD 4061",
    "state": "QLD",
    "rating": 5,
    "reviews": 16,
    "lat": -27.4415624,
    "lng": 152.9557376,
    "place_id": "ChIJ5wqmKc5WkWsRCtAevUYOV2M",
    "maps_url": "https://www.google.com/maps/place/?q=place_id:ChIJ5wqmKc5WkWsRCtAevUYOV2M"
  },
  {
    "name": "The Wellness Emporium - Naturopath & Psychologist Gold Coast",
    "address": "2/19 James St, Burleigh Heads QLD 4220, Australia",
    "suburb": "Burleigh Heads QLD 4220",
    "state": "QLD",
    "rating": 4.8,
    "reviews": 86,
    "lat": -28.089133,
    "lng": 153.45103,
    "place_id": "ChIJMa_k7YQDkWsRdI0mC-oO5ws",
    "maps_url": "https://www.google.com/maps/place/?q=place_id:ChIJMa_k7YQDkWsRdI0mC-oO5ws"
  },
  {
    "name": "Inner Bloom Naturopathics",
    "address": "Unit 401/2763 Gold Coast Hwy, Broadbeach QLD 4218, Australia",
    "suburb": "Broadbeach QLD 4218",
    "state": "QLD",
    "rating": 5,
    "reviews": 17,
    "lat": -28.0235449,
    "lng": 153.4291076,
    "place_id": "ChIJxV0qDEIFkWsRFzCtAeeFMfw",
    "maps_url": "https://www.google.com/maps/place/?q=place_id:ChIJxV0qDEIFkWsRFzCtAeeFMfw"
  },
  {
    "name": "Teressa Todd - My Naturopath Gold Coast",
    "address": "90 Treeview Dr, Burleigh Waters QLD 4220, Australia",
    "suburb": "Burleigh Waters QLD 4220",
    "state": "QLD",
    "rating": 5,
    "reviews": 14,
    "lat": -28.0904069,
    "lng": 153.4240163,
    "place_id": "ChIJ2Qip6rcckWsRTSrtXgIgFPg",
    "maps_url": "https://www.google.com/maps/place/?q=place_id:ChIJ2Qip6rcckWsRTSrtXgIgFPg"
  },
  {
    "name": "Her Earth Medicine",
    "address": "Chillagoe Pl, Worongary QLD 4213, Australia",
    "suburb": "Worongary QLD 4213",
    "state": "QLD",
    "rating": 5,
    "reviews": 50,
    "lat": -28.0214651,
    "lng": 153.3490402,
    "place_id": "ChIJobIfTigbkWsRyQVo7hYZQ3E",
    "maps_url": "https://www.google.com/maps/place/?q=place_id:ChIJobIfTigbkWsRyQVo7hYZQ3E"
  },
  {
    "name": "Zoe Turner Naturopath & Nutritionist",
    "address": "5 Burleigh Glen Ct, Burleigh Heads QLD 4220, Australia",
    "suburb": "Burleigh Heads QLD 4220",
    "state": "QLD",
    "rating": 5,
    "reviews": 30,
    "lat": -28.1085335,
    "lng": 153.4401433,
    "place_id": "ChIJy00Q7dQDkWsR-ezY3QrmzhM",
    "maps_url": "https://www.google.com/maps/place/?q=place_id:ChIJy00Q7dQDkWsR-ezY3QrmzhM"
  },
  {
    "name": "Naturopath Gold Coast - Integrated Wellness Clinic",
    "address": "6a/55 Upton St, Bundall QLD 4217, Australia",
    "suburb": "Bundall QLD 4217",
    "state": "QLD",
    "rating": 4.1,
    "reviews": 11,
    "lat": -28.006138,
    "lng": 153.4117835,
    "place_id": "ChIJIUhaA_MPkWsRApJCIyy18ZQ",
    "maps_url": "https://www.google.com/maps/place/?q=place_id:ChIJIUhaA_MPkWsRApJCIyy18ZQ"
  },
  {
    "name": "Wellness Sanctuary - Gold Coast",
    "address": "SHOP 2/130 Scarborough St, Southport QLD 4215, Australia",
    "suburb": "Southport QLD 4215",
    "state": "QLD",
    "rating": 4.8,
    "reviews": 57,
    "lat": -27.9648724,
    "lng": 153.4119631,
    "place_id": "ChIJ5Spr_L8ckWsRbOsbedDOjTs",
    "maps_url": "https://www.google.com/maps/place/?q=place_id:ChIJ5Spr_L8ckWsRbOsbedDOjTs"
  },
  {
    "name": "Sage Naturopathics",
    "address": "112 W Burleigh Rd, Burleigh Heads QLD 4220, Australia",
    "suburb": "Burleigh Heads QLD 4220",
    "state": "QLD",
    "rating": 5,
    "reviews": 23,
    "lat": -28.0947247,
    "lng": 153.4436839,
    "place_id": "ChIJZVVRvxUDkWsRiOhWf2-zohw",
    "maps_url": "https://www.google.com/maps/place/?q=place_id:ChIJZVVRvxUDkWsRiOhWf2-zohw"
  },
  {
    "name": "Sarah Franklin - Balanced Health Naturopathy",
    "address": "6/32-34 Musgrave St, Coolangatta QLD 4225, Australia",
    "suburb": "Coolangatta QLD 4225",
    "state": "QLD",
    "rating": 5,
    "reviews": 61,
    "lat": -28.167753,
    "lng": 153.527205,
    "place_id": "ChIJJVoWf9EBkWsRu8p-fk8fLB4",
    "maps_url": "https://www.google.com/maps/place/?q=place_id:ChIJJVoWf9EBkWsRu8p-fk8fLB4"
  },
  {
    "name": "Naturopath Australia",
    "address": "3 Dolphin Ave, Mermaid Beach QLD 4218, Australia",
    "suburb": "Mermaid Beach QLD 4218",
    "state": "QLD",
    "rating": 4.8,
    "reviews": 18,
    "lat": -28.0588654,
    "lng": 153.4376898,
    "place_id": "ChIJx8PvDIgEkWsRgqMBeiv--xg",
    "maps_url": "https://www.google.com/maps/place/?q=place_id:ChIJx8PvDIgEkWsRgqMBeiv--xg"
  },
  {
    "name": "James Maloney's Mind and Body Connection",
    "address": "7/91 W Burleigh Rd, Burleigh Heads QLD 4220, Australia",
    "suburb": "Burleigh Heads QLD 4220",
    "state": "QLD",
    "rating": 5,
    "reviews": 58,
    "lat": -28.0928393,
    "lng": 153.4432447,
    "place_id": "ChIJnyQUOfwEkWsR7rdDEVW_NnI",
    "maps_url": "https://www.google.com/maps/place/?q=place_id:ChIJnyQUOfwEkWsR7rdDEVW_NnI"
  },
  {
    "name": "Gold Coast Digestive Health",
    "address": "13 Kurrambee Ave, Ashmore QLD 4214, Australia",
    "suburb": "Ashmore QLD 4214",
    "state": "QLD",
    "rating": 4.9,
    "reviews": 36,
    "lat": -27.9840779,
    "lng": 153.3781374,
    "place_id": "ChIJmYGe8boakWsRgXPWvlnNKp4",
    "maps_url": "https://www.google.com/maps/place/?q=place_id:ChIJmYGe8boakWsRgXPWvlnNKp4"
  },
  {
    "name": "Harvesting Health",
    "address": "3B/149 Old Pacific Hwy, Oxenford QLD 4210, Australia",
    "suburb": "Oxenford QLD 4210",
    "state": "QLD",
    "rating": 5,
    "reviews": 86,
    "lat": -27.8877694,
    "lng": 153.3140337,
    "place_id": "ChIJpyiDMr0RkWsRziCEULTfuoY",
    "maps_url": "https://www.google.com/maps/place/?q=place_id:ChIJpyiDMr0RkWsRziCEULTfuoY"
  },
  {
    "name": "The Feel Good Society",
    "address": "Unit 46/314 Burleigh Connection Rd, Burleigh Heads QLD 4220, Australia",
    "suburb": "Burleigh Heads QLD 4220",
    "state": "QLD",
    "rating": 5,
    "reviews": 20,
    "lat": -28.1024766,
    "lng": 153.4210059,
    "place_id": "ChIJy1kCnpUPkWsR_q7EbRGOebc",
    "maps_url": "https://www.google.com/maps/place/?q=place_id:ChIJy1kCnpUPkWsR_q7EbRGOebc"
  },
  {
    "name": "Abbie Louw Naturopath",
    "address": "1/7-9 De Barnett St, Coomera QLD 4209, Australia",
    "suburb": "Coomera QLD 4209",
    "state": "QLD",
    "rating": 5,
    "reviews": 26,
    "lat": -27.8748833,
    "lng": 153.3151094,
    "place_id": "ChIJubqwfzgRkWsRbbyFqpQTIUk",
    "maps_url": "https://www.google.com/maps/place/?q=place_id:ChIJubqwfzgRkWsRbbyFqpQTIUk"
  },
  {
    "name": "In A Day Naturopathy- Annabel Murray",
    "address": "155 Nineteenth Ave, Palm Beach QLD 4220, Australia",
    "suburb": "Palm Beach QLD 4220",
    "state": "QLD",
    "rating": 5,
    "reviews": 27,
    "lat": -28.1203484,
    "lng": 153.4532069,
    "place_id": "ChIJMwZMyoADkWsRkdqUXlqnTWA",
    "maps_url": "https://www.google.com/maps/place/?q=place_id:ChIJMwZMyoADkWsRkdqUXlqnTWA"
  },
  {
    "name": "Haelan Naturopathy",
    "address": "1 Koala St, Parkwood QLD 4214, Australia",
    "suburb": "Parkwood QLD 4214",
    "state": "QLD",
    "rating": 4.9,
    "reviews": 38,
    "lat": -27.9542023,
    "lng": 153.3641719,
    "place_id": "ChIJXYL2CVYRkWsRmnMkEv1Duj0",
    "maps_url": "https://www.google.com/maps/place/?q=place_id:ChIJXYL2CVYRkWsRmnMkEv1Duj0"
  },
  {
    "name": "Linda Cairns - Gold Coast Naturopath / Integrative Holistic Health Practitioner / Nutritionist / Homeopath",
    "address": "Shop 25/221 Christine Ave, Burleigh Waters QLD 4220, Australia",
    "suburb": "Burleigh Waters QLD 4220",
    "state": "QLD",
    "rating": 4.5,
    "reviews": 22,
    "lat": -28.0856868,
    "lng": 153.423878,
    "place_id": "ChIJ-88kxlACkWsRY7Fsf57VJCU",
    "maps_url": "https://www.google.com/maps/place/?q=place_id:ChIJ-88kxlACkWsRY7Fsf57VJCU"
  },
  {
    "name": "AJ Naturopathic Care",
    "address": "5 Millennium Cct, Helensvale QLD 4212, Australia",
    "suburb": "Helensvale QLD 4212",
    "state": "QLD",
    "rating": 5,
    "reviews": 4,
    "lat": -27.9296961,
    "lng": 153.3338989,
    "place_id": "ChIJQTTRSG8RkWsRgTT0wuTtq5g",
    "maps_url": "https://www.google.com/maps/place/?q=place_id:ChIJQTTRSG8RkWsRgTT0wuTtq5g"
  },
  {
    "name": "Natural Health by Meah - Fem21 & Man21",
    "address": "1 Koala St, Parkwood QLD 4214, Australia",
    "suburb": "Parkwood QLD 4214",
    "state": "QLD",
    "rating": 4.9,
    "reviews": 373,
    "lat": -27.9541509,
    "lng": 153.3641558,
    "place_id": "ChIJpb84zvwPkWsRZhpNcduWwBU",
    "maps_url": "https://www.google.com/maps/place/?q=place_id:ChIJpb84zvwPkWsRZhpNcduWwBU"
  },
  {
    "name": "Sunshine Coast Naturopath Kerri Abbott",
    "address": "3/146-148 Alexandra Parade, Alexandra Headland QLD 4572, Australia",
    "suburb": "Alexandra Headland QLD 4572",
    "state": "QLD",
    "rating": 4.9,
    "reviews": 163,
    "lat": -26.6675697,
    "lng": 153.1061696,
    "place_id": "ChIJDa3Wumedk2sRTIghGYjjzwE",
    "maps_url": "https://www.google.com/maps/place/?q=place_id:ChIJDa3Wumedk2sRTIghGYjjzwE"
  },
  {
    "name": "Naturopath Sunshine Coast - Integrated Wellness Clinic - Caloundra",
    "address": "Suite 5 Office 5/51-55 Bulcock St, Caloundra QLD 4551, Australia",
    "suburb": "Caloundra QLD 4551",
    "state": "QLD",
    "rating": 5,
    "reviews": 10,
    "lat": -26.804447,
    "lng": 153.132296,
    "place_id": "ChIJ8SgCY0eZk2sRQGTsCpB3PtU",
    "maps_url": "https://www.google.com/maps/place/?q=place_id:ChIJ8SgCY0eZk2sRQGTsCpB3PtU"
  },
  {
    "name": "Vanessa Lamaro",
    "address": "Shop 13/76 Wises Rd, Buderim QLD 4556, Australia",
    "suburb": "Buderim QLD 4556",
    "state": "QLD",
    "rating": 5,
    "reviews": 76,
    "lat": -26.6721534,
    "lng": 153.0874829,
    "place_id": "ChIJFzZ34nt2k2sRfjLxgizPbQ8",
    "maps_url": "https://www.google.com/maps/place/?q=place_id:ChIJFzZ34nt2k2sRfjLxgizPbQ8"
  },
  {
    "name": "Integrated Wellness Clinic - Sunshine Coast - Mooloolaba",
    "address": "level 5/45 Brisbane Rd, Mooloolaba QLD 4557, Australia",
    "suburb": "Mooloolaba QLD 4557",
    "state": "QLD",
    "rating": 4.6,
    "reviews": 49,
    "lat": -26.6827794,
    "lng": 153.1187662,
    "place_id": "ChIJvQIylud1k2sROd207TcSPkw",
    "maps_url": "https://www.google.com/maps/place/?q=place_id:ChIJvQIylud1k2sROd207TcSPkw"
  },
  {
    "name": "Hannah Moore Naturopathy",
    "address": "71 Pittards Rd, Buderim QLD 4556, Australia",
    "suburb": "Buderim QLD 4556",
    "state": "QLD",
    "rating": 4.9,
    "reviews": 42,
    "lat": -26.6643056,
    "lng": 153.0607296,
    "place_id": "ChIJz5-Pa5V2k2sRdDZrWrYBx7g",
    "maps_url": "https://www.google.com/maps/place/?q=place_id:ChIJz5-Pa5V2k2sRdDZrWrYBx7g"
  },
  {
    "name": "Unique Health and Wellness - Sunshine Coast Naturopath",
    "address": "Villa 15/87 Toolga St, Mount Coolum QLD 4573, Australia",
    "suburb": "Mount Coolum QLD 4573",
    "state": "QLD",
    "rating": 5,
    "reviews": 11,
    "lat": -26.5552548,
    "lng": 153.0897158,
    "place_id": "ChIJcwu7KRxpk2sR11aE8L52g0g",
    "maps_url": "https://www.google.com/maps/place/?q=place_id:ChIJcwu7KRxpk2sR11aE8L52g0g"
  },
  {
    "name": "Dr Brad Leech: Nutrition + Wellness",
    "address": "SHOP 1/25 Duporth Ave, Maroochydore QLD 4558, Australia",
    "suburb": "Maroochydore QLD 4558",
    "state": "QLD",
    "rating": 5,
    "reviews": 82,
    "lat": -26.6520629,
    "lng": 153.0923702,
    "place_id": "ChIJp-XwEbJ3k2sRVkzqi50iGDM",
    "maps_url": "https://www.google.com/maps/place/?q=place_id:ChIJp-XwEbJ3k2sRVkzqi50iGDM"
  },
  {
    "name": "Natural Palate Health Clinic - Sunshine Coast Naturopath",
    "address": "4.2/10 Capital Pl, Birtinya QLD 4575, Australia",
    "suburb": "Birtinya QLD 4575",
    "state": "QLD",
    "rating": 5,
    "reviews": 13,
    "lat": -26.7362459,
    "lng": 153.1211571,
    "place_id": "ChIJa2GFsWJfJWsRPyl8ItkigpI",
    "maps_url": "https://www.google.com/maps/place/?q=place_id:ChIJa2GFsWJfJWsRPyl8ItkigpI"
  },
  {
    "name": "Sunshine Coast Natural Health",
    "address": "Unit 6 A/35 Seaside Blvd, Marcoola QLD 4564, Australia",
    "suburb": "Marcoola QLD 4564",
    "state": "QLD",
    "rating": 5,
    "reviews": 20,
    "lat": -26.5741146,
    "lng": 153.0932679,
    "place_id": "ChIJQUJyKk5xk2sRekkUPRuuWm4",
    "maps_url": "https://www.google.com/maps/place/?q=place_id:ChIJQUJyKk5xk2sRekkUPRuuWm4"
  },
  {
    "name": "Lotus Holistic Medicine",
    "address": "5/13 Norval Ct, Maroochydore QLD 4558, Australia",
    "suburb": "Maroochydore QLD 4558",
    "state": "QLD",
    "rating": 4.9,
    "reviews": 118,
    "lat": -26.6644262,
    "lng": 153.0952667,
    "place_id": "ChIJRw4DXmR2k2sR-AnyHlBk2xk",
    "maps_url": "https://www.google.com/maps/place/?q=place_id:ChIJRw4DXmR2k2sR-AnyHlBk2xk"
  },
  {
    "name": "Awakened Women's Wellness | Julie Noble Naturopath",
    "address": "54 Piringa St, Wurtulla QLD 4575, Australia",
    "suburb": "Wurtulla QLD 4575",
    "state": "QLD",
    "rating": 5,
    "reviews": 13,
    "lat": -26.7588212,
    "lng": 153.1194449,
    "place_id": "ChIJI1po0pSfk2sRdNPXCdMV0Wo",
    "maps_url": "https://www.google.com/maps/place/?q=place_id:ChIJI1po0pSfk2sRdNPXCdMV0Wo"
  },
  {
    "name": "Sara Judd Naturopathy",
    "address": "19 Timana La, Maroochydore QLD 4558, Australia",
    "suburb": "Maroochydore QLD 4558",
    "state": "QLD",
    "rating": 5,
    "reviews": 6,
    "lat": -26.6650035,
    "lng": 153.0761152,
    "place_id": "ChIJzSWbEPyDk2sRgMIZo9iSP_Q",
    "maps_url": "https://www.google.com/maps/place/?q=place_id:ChIJzSWbEPyDk2sRgMIZo9iSP_Q"
  },
  {
    "name": "Wellness From Within Naturopathy",
    "address": "50 Aerodrome Rd, Maroochydore QLD 4558, Australia",
    "suburb": "Maroochydore QLD 4558",
    "state": "QLD",
    "rating": 5,
    "reviews": 30,
    "lat": -26.6606369,
    "lng": 153.1002701,
    "place_id": "ChIJgWCjJ6xlk2sRdMD6BKWvWe4",
    "maps_url": "https://www.google.com/maps/place/?q=place_id:ChIJgWCjJ6xlk2sRdMD6BKWvWe4"
  },
  {
    "name": "Joel Coughlan Naturopathic",
    "address": "Unit 13/5 Innovation Pkwy, Birtinya QLD 4575, Australia",
    "suburb": "Birtinya QLD 4575",
    "state": "QLD",
    "rating": 4.9,
    "reviews": 16,
    "lat": -26.7337798,
    "lng": 153.1222819,
    "place_id": "ChIJyfpkW2Wek2sREgWL6G601lM",
    "maps_url": "https://www.google.com/maps/place/?q=place_id:ChIJyfpkW2Wek2sREgWL6G601lM"
  },
  {
    "name": "Peace of Eden Holistic Health | Naturopath | Bioresonance | Sunshine Coast",
    "address": "1 Merimist Way, Kiels Mountain QLD 4559, Australia",
    "suburb": "Kiels Mountain QLD 4559",
    "state": "QLD",
    "rating": 5,
    "reviews": 25,
    "lat": -26.648962,
    "lng": 153.0099477,
    "place_id": "ChIJHZNFI41dkWsRQO15A6JGS6w",
    "maps_url": "https://www.google.com/maps/place/?q=place_id:ChIJHZNFI41dkWsRQO15A6JGS6w"
  },
  {
    "name": "Naturally Into Health Buderim",
    "address": "1/9 Pittards Rd, Buderim QLD 4556, Australia",
    "suburb": "Buderim QLD 4556",
    "state": "QLD",
    "rating": 5,
    "reviews": 1,
    "lat": -26.6636199,
    "lng": 153.0523578,
    "place_id": "ChIJAQAcyLd3k2sRlMpdBfTyD10",
    "maps_url": "https://www.google.com/maps/place/?q=place_id:ChIJAQAcyLd3k2sRlMpdBfTyD10"
  },
  {
    "name": "Nature's Temple",
    "address": "49 Schirrmann Dr, Maroochydore QLD 4558, Australia",
    "suburb": "Maroochydore QLD 4558",
    "state": "QLD",
    "rating": 4.9,
    "reviews": 10,
    "lat": -26.6489586,
    "lng": 153.080546,
    "place_id": "ChIJf2waq2eCk2sRiG7N6F-X_JA",
    "maps_url": "https://www.google.com/maps/place/?q=place_id:ChIJf2waq2eCk2sRiG7N6F-X_JA"
  },
  {
    "name": "Buderim Natural Health, Naturopath, Massage and Pregnancy Massage",
    "address": "11 Toral Dr, Buderim QLD 4556, Australia",
    "suburb": "Buderim QLD 4556",
    "state": "QLD",
    "rating": 5,
    "reviews": 32,
    "lat": -26.7099299,
    "lng": 153.0556697,
    "place_id": "ChIJywXOUQudk2sRKPPDPfB8ErY",
    "maps_url": "https://www.google.com/maps/place/?q=place_id:ChIJywXOUQudk2sRKPPDPfB8ErY"
  },
  {
    "name": "Sunshine Holistic Health",
    "address": "Shop 2/1 California Blvd, Peregian Beach QLD 4573, Australia",
    "suburb": "Peregian Beach QLD 4573",
    "state": "QLD",
    "rating": 5,
    "reviews": 66,
    "lat": -26.4859607,
    "lng": 153.0791714,
    "place_id": "ChIJX8FYOZpvk2sRvJQpJFNW-og",
    "maps_url": "https://www.google.com/maps/place/?q=place_id:ChIJX8FYOZpvk2sRvJQpJFNW-og"
  },
  {
    "name": "Lucy Holland Naturopath - Remedial Massage, Digestive Health & Naturopath Townsville",
    "address": "34 Kent St, Gulliver QLD 4812, Australia",
    "suburb": "Gulliver QLD 4812",
    "state": "QLD",
    "rating": 4.6,
    "reviews": 10,
    "lat": -19.2835987,
    "lng": 146.7754164,
    "place_id": "ChIJ_2tMLpH51WsRZZZiNqIiPwE",
    "maps_url": "https://www.google.com/maps/place/?q=place_id:ChIJ_2tMLpH51WsRZZZiNqIiPwE"
  },
  {
    "name": "All Body Holistic Health",
    "address": "209 Thuringowa Dr, Thuringowa Central QLD 4817, Australia",
    "suburb": "Thuringowa Central QLD 4817",
    "state": "QLD",
    "rating": 5,
    "reviews": 7,
    "lat": -19.2937501,
    "lng": 146.7379046,
    "place_id": "ChIJ9ashJDn31WsRh_ZICszSrFQ",
    "maps_url": "https://www.google.com/maps/place/?q=place_id:ChIJ9ashJDn31WsRh_ZICszSrFQ"
  },
  {
    "name": "Envision Health Naturopathic clinic",
    "address": "182 Fulham Rd, Gulliver QLD 4812, Australia",
    "suburb": "Gulliver QLD 4812",
    "state": "QLD",
    "rating": 5,
    "reviews": 4,
    "lat": -19.288992,
    "lng": 146.770059,
    "place_id": "ChIJa8jOEY751WsR0anvOBaRZJY",
    "maps_url": "https://www.google.com/maps/place/?q=place_id:ChIJa8jOEY751WsR0anvOBaRZJY"
  },
  {
    "name": "Health Matters Nq",
    "address": "Shop 2a/57 Stagpole St, West End QLD 4812, Australia",
    "suburb": "West End QLD 4812",
    "state": "QLD",
    "rating": 5,
    "reviews": 8,
    "lat": -19.259792,
    "lng": 146.7919799,
    "place_id": "ChIJIyzOMcT51WsRs3x22jKjjYc",
    "maps_url": "https://www.google.com/maps/place/?q=place_id:ChIJIyzOMcT51WsRs3x22jKjjYc"
  },
  {
    "name": "Rosemary Anne Jacobs",
    "address": "3 Leslie St, Oonoonba QLD 4811, Australia",
    "suburb": "Oonoonba QLD 4811",
    "state": "QLD",
    "rating": 5,
    "reviews": 7,
    "lat": -19.300897,
    "lng": 146.8226514,
    "place_id": "ChIJc_IirVH51WsRfzjWbGrJJe4",
    "maps_url": "https://www.google.com/maps/place/?q=place_id:ChIJc_IirVH51WsRfzjWbGrJJe4"
  },
  {
    "name": "Love Your Guts Naturopathy",
    "address": "4 Fleming St, Aitkenvale QLD 4814, Australia",
    "suburb": "Aitkenvale QLD 4814",
    "state": "QLD",
    "rating": 5,
    "reviews": 2,
    "lat": -19.2933864,
    "lng": 146.7671966,
    "place_id": "ChIJu0b015X51WsRUpK7R2kHKzs",
    "maps_url": "https://www.google.com/maps/place/?q=place_id:ChIJu0b015X51WsRUpK7R2kHKzs"
  },
  {
    "name": "Sonia Ellery Naturopathic Practitioner",
    "address": "67 McLennan Rd, Paluma QLD 4816, Australia",
    "suburb": "Paluma QLD 4816",
    "state": "QLD",
    "rating": 5,
    "reviews": 28,
    "lat": -18.977531,
    "lng": 146.0377365,
    "place_id": "ChIJoT8vHYfxEmsR0yt3hPNMobw",
    "maps_url": "https://www.google.com/maps/place/?q=place_id:ChIJoT8vHYfxEmsR0yt3hPNMobw"
  },
  {
    "name": "Ihealthilife: Debra Carter - Colonics, Remedial Massage Townsville",
    "address": "3 Lawson St, Mysterton QLD 4812, Australia",
    "suburb": "Mysterton QLD 4812",
    "state": "QLD",
    "rating": 5,
    "reviews": 31,
    "lat": -19.286899,
    "lng": 146.791791,
    "place_id": "ChIJJf0Hh3L51WsRQY62XL-Wr4I",
    "maps_url": "https://www.google.com/maps/place/?q=place_id:ChIJJf0Hh3L51WsRQY62XL-Wr4I"
  },
  {
    "name": "Robynn Morro's Alternative Health Specialists",
    "address": "590 Ross River Rd, Cranbrook QLD 4815, Australia",
    "suburb": "Cranbrook QLD 4815",
    "state": "QLD",
    "rating": 5,
    "reviews": 3,
    "lat": -19.3136648,
    "lng": 146.7402238,
    "place_id": "ChIJ5UeqqqLw1WsRobO4dM18x9s",
    "maps_url": "https://www.google.com/maps/place/?q=place_id:ChIJ5UeqqqLw1WsRobO4dM18x9s"
  },
  {
    "name": "The Hot Mess Studio",
    "address": "42A First St, Railway Estate QLD 4810, Australia",
    "suburb": "Railway Estate QLD 4810",
    "state": "QLD",
    "rating": 5,
    "reviews": 1,
    "lat": -19.2752273,
    "lng": 146.8095279,
    "place_id": "ChIJQ5Vje8P41WsRBwruitmfORs",
    "maps_url": "https://www.google.com/maps/place/?q=place_id:ChIJQ5Vje8P41WsRBwruitmfORs"
  },
  {
    "name": "Natural Medicine Family Practice",
    "address": "98 Bundock St, Belgian Gardens QLD 4810, Australia",
    "suburb": "Belgian Gardens QLD 4810",
    "state": "QLD",
    "rating": null,
    "reviews": 0,
    "lat": -19.2491897,
    "lng": 146.7918999,
    "place_id": "ChIJcX7oU-r51WsRWKptzpsMR4U",
    "maps_url": "https://www.google.com/maps/place/?q=place_id:ChIJcX7oU-r51WsRWKptzpsMR4U"
  },
  {
    "name": "Health Naturally Cairns",
    "address": "4/192 Mulgrave Rd, Westcourt QLD 4870, Australia",
    "suburb": "Westcourt QLD 4870",
    "state": "QLD",
    "rating": 5,
    "reviews": 73,
    "lat": -16.9292166,
    "lng": 145.7581442,
    "place_id": "ChIJbddT8E9ueGkRKZhSSA_mXH0",
    "maps_url": "https://www.google.com/maps/place/?q=place_id:ChIJbddT8E9ueGkRKZhSSA_mXH0"
  },
  {
    "name": "Innate Natural Health Clinic",
    "address": "351 Sheridan St, Cairns North QLD 4870, Australia",
    "suburb": "Cairns North QLD 4870",
    "state": "QLD",
    "rating": 4.6,
    "reviews": 97,
    "lat": -16.9049261,
    "lng": 145.7583396,
    "place_id": "ChIJJ3dkhX9meGkRoFuNoKFZxK8",
    "maps_url": "https://www.google.com/maps/place/?q=place_id:ChIJJ3dkhX9meGkRoFuNoKFZxK8"
  },
  {
    "name": "Kylie Cloney Health Science & Wellness",
    "address": "F3/77 Woodward St, Edge Hill QLD 4870, Australia",
    "suburb": "Edge Hill QLD 4870",
    "state": "QLD",
    "rating": 5,
    "reviews": 41,
    "lat": -16.9015107,
    "lng": 145.7428405,
    "place_id": "ChIJh4WMS8xleGkRk0l4JxDYp0U",
    "maps_url": "https://www.google.com/maps/place/?q=place_id:ChIJh4WMS8xleGkRk0l4JxDYp0U"
  },
  {
    "name": "Cairns Wellness",
    "address": "2 Wheeler Ct, Brinsmead QLD 4870, Australia",
    "suburb": "Brinsmead QLD 4870",
    "state": "QLD",
    "rating": 5,
    "reviews": 58,
    "lat": -16.909467,
    "lng": 145.7179112,
    "place_id": "ChIJU6sTOTpkeGkRrv8kK5gBayQ",
    "maps_url": "https://www.google.com/maps/place/?q=place_id:ChIJU6sTOTpkeGkRrv8kK5gBayQ"
  },
  {
    "name": "David Peirce Naturopath",
    "address": "15/146 Anderson St, Manunda QLD 4870, Australia",
    "suburb": "Manunda QLD 4870",
    "state": "QLD",
    "rating": 5,
    "reviews": 8,
    "lat": -16.9164245,
    "lng": 145.7425198,
    "place_id": "ChIJXSg8MTpkeGkR58l8bALk3EM",
    "maps_url": "https://www.google.com/maps/place/?q=place_id:ChIJXSg8MTpkeGkR58l8bALk3EM"
  },
  {
    "name": "Pure Joy Naturopathy",
    "address": "9 Travolta Cl, White Rock QLD 4868, Australia",
    "suburb": "White Rock QLD 4868",
    "state": "QLD",
    "rating": 5,
    "reviews": 34,
    "lat": -16.975017,
    "lng": 145.7524349,
    "place_id": "ChIJxdUjZ9BjeGkRPKI-q3EhyDk",
    "maps_url": "https://www.google.com/maps/place/?q=place_id:ChIJxdUjZ9BjeGkRPKI-q3EhyDk"
  },
  {
    "name": "Cairns Naturopath - Edge Hill",
    "address": "132 Collins Ave, Edge Hill QLD 4870, Australia",
    "suburb": "Edge Hill QLD 4870",
    "state": "QLD",
    "rating": 5,
    "reviews": 1,
    "lat": -16.900381,
    "lng": 145.7428416,
    "place_id": "ChIJyYaiRsxleGkR0kwgVWF-Slc",
    "maps_url": "https://www.google.com/maps/place/?q=place_id:ChIJyYaiRsxleGkR0kwgVWF-Slc"
  },
  {
    "name": "Elevada Wellness",
    "address": "504 Varley St, Yorkeys Knob QLD 4878, Australia",
    "suburb": "Yorkeys Knob QLD 4878",
    "state": "QLD",
    "rating": 5,
    "reviews": 6,
    "lat": -16.8100609,
    "lng": 145.7214541,
    "place_id": "ChIJfclBs5FveGkRzWMolY8VqXM",
    "maps_url": "https://www.google.com/maps/place/?q=place_id:ChIJfclBs5FveGkRzWMolY8VqXM"
  },
  {
    "name": "Nurtured by Life",
    "address": "44 Timberlea Dr, Bentley Park QLD 4869, Australia",
    "suburb": "Bentley Park QLD 4869",
    "state": "QLD",
    "rating": 5,
    "reviews": 15,
    "lat": -17.003047,
    "lng": 145.7219622,
    "place_id": "ChIJy9w8ittjeGkRenwSxnpFE8A",
    "maps_url": "https://www.google.com/maps/place/?q=place_id:ChIJy9w8ittjeGkRenwSxnpFE8A"
  },
  {
    "name": "Mim Beim",
    "address": "54A Stanton Rd, Smithfield QLD 4878, Australia",
    "suburb": "Smithfield QLD 4878",
    "state": "QLD",
    "rating": 4.9,
    "reviews": 27,
    "lat": -16.8314074,
    "lng": 145.6867709,
    "place_id": "ChIJuSY4Ab-iE2sRnJ8zb3-bQWA",
    "maps_url": "https://www.google.com/maps/place/?q=place_id:ChIJuSY4Ab-iE2sRnJ8zb3-bQWA"
  },