[
  {
    "name": "Budget Petrol - Lewisham",
    "address": "204/208 New Canterbury Rd, Lewisham",
    "suburb": "Sydney CBD",
    "state": "NSW",
    "lat": -33.8970494,
    "lng": 151.1490576,
    "place_id": "ChIJsXp__3KwEmsRHMGIElEkng4",
    "maps_url": "https://www.google.com/maps/place/?q=place_id:ChIJsXp__3KwEmsRHMGIElEkng4",
    "rating": 4,
    "total_ratings": 169
  },
  {
    "name": "bp",
    "address": "33-37 Carrington Rd, Randwick",
    "suburb": "Sydney CBD",
    "state": "NSW",
    "lat": -33.9065762,
    "lng": 151.252389,
    "place_id": "ChIJ88PF4ECzEmsRx8rbr1PTt2E",
    "maps_url": "https://www.google.com/maps/place/?q=place_id:ChIJ88PF4ECzEmsRx8rbr1PTt2E",
    "rating": 3.4,
    "total_ratings": 60
  },
  {
    "name": "Ultra Petroleum Randwick",
    "address": "345 Avoca St, Randwick",
    "suburb": "Sydney CBD",
    "state": "NSW",
    "lat": -33.9254743,
    "lng": 151.2395936,
    "place_id": "ChIJ_at91iWyEmsRA6YFCCYEK2A",
    "maps_url": "https://www.google.com/maps/place/?q=place_id:ChIJ_at91iWyEmsRA6YFCCYEK2A",
    "rating": 4.3,
    "total_ratings": 97
  },
  {
    "name": "Budget Petrol",
    "address": "37 Crystal St, Petersham",
    "suburb": "Sydney CBD",
    "state": "NSW",
    "lat": -33.8905108,
    "lng": 151.1586346,
    "place_id": "ChIJGwj_uRawEmsRroBH6Zovsbc",
    "maps_url": "https://www.google.com/maps/place/?q=place_id:ChIJGwj_uRawEmsRroBH6Zovsbc",
    "rating": 4.3,
    "total_ratings": 99
  },
  {
    "name": "Metro Petroleum",
    "address": "395 Gardeners Rd, Rosebery",
    "suburb": "Sydney CBD",
    "state": "NSW",
    "lat": -33.9224292,
    "lng": 151.2025143,
    "place_id": "ChIJQyleoKWxEmsR43rvC5cpLjs",
    "maps_url": "https://www.google.com/maps/place/?q=place_id:ChIJQyleoKWxEmsR43rvC5cpLjs",
    "rating": 4.3,
    "total_ratings": 89
  },
  {
    "name": "Speedway Arncliffe",
    "address": "32 Princes Hwy, Arncliffe",
    "suburb": "Sydney CBD",
    "state": "NSW",
    "lat": -33.9345985,
    "lng": 151.1520991,
    "place_id": "ChIJKZqLiZewEmsRZkw9NcUK4xc",
    "maps_url": "https://www.google.com/maps/place/?q=place_id:ChIJKZqLiZewEmsRZkw9NcUK4xc",
    "rating": 4,
    "total_ratings": 159
  },
  {
    "name": "Metro Petroleum",
    "address": "531 Princes Hwy, Tempe",
    "suburb": "Sydney CBD",
    "state": "NSW",
    "lat": -33.9203321,
    "lng": 151.1674544,
    "place_id": "ChIJgyiWkfWwEmsRW4hU6mavswg",
    "maps_url": "https://www.google.com/maps/place/?q=place_id:ChIJgyiWkfWwEmsRW4hU6mavswg",
    "rating": 4.2,
    "total_ratings": 182
  },
  {
    "name": "Prime Petroleum",
    "address": "33 Wardell Rd, Earlwood",
    "suburb": "Sydney CBD",
    "state": "NSW",
    "lat": -33.91601929999999,
    "lng": 151.1336571,
    "place_id": "ChIJvQTW93u6EmsR3ZMDdtsyGfk",
    "maps_url": "https://www.google.com/maps/place/?q=place_id:ChIJvQTW93u6EmsR3ZMDdtsyGfk",
    "rating": 4.2,
    "total_ratings": 35
  },
  {
    "name": "bp",
    "address": "62 Epping Rd, Lane Cove",
    "suburb": "Sydney CBD",
    "state": "NSW",
    "lat": -33.811011,
    "lng": 151.1642,
    "place_id": "ChIJ_e-7rTivEmsRnZLPs1xlpDI",
    "maps_url": "https://www.google.com/maps/place/?q=place_id:ChIJ_e-7rTivEmsRnZLPs1xlpDI",
    "rating": 3.9,
    "total_ratings": 99
  },
  {
    "name": "Budget Petrol",
    "address": "22 Charlotte St, Ashfield",
    "suburb": "Sydney CBD",
    "state": "NSW",
    "lat": -33.886498,
    "lng": 151.1256466,
    "place_id": "ChIJ3U51qL26EmsRUAK98bqfdqk",
    "maps_url": "https://www.google.com/maps/place/?q=place_id:ChIJ3U51qL26EmsRUAK98bqfdqk",
    "rating": 3.6,
    "total_ratings": 75
  },
  {
    "name": "Metro Petroleum Enmore Road",
    "address": "379 Enmore Rd, Enmore",
    "suburb": "Sydney CBD",
    "state": "NSW",
    "lat": -33.9044646,
    "lng": 151.1680184,
    "place_id": "ChIJyTc03kOwEmsRjoQdZMCCXZg",
    "maps_url": "https://www.google.com/maps/place/?q=place_id:ChIJyTc03kOwEmsRjoQdZMCCXZg",
    "rating": 3.8,
    "total_ratings": 44
  },
  {
    "name": "Metro Petroleum Haberfield",
    "address": "163-165 Parramatta Rd, Haberfield",
    "suburb": "Sydney CBD",
    "state": "NSW",
    "lat": -33.8836129,
    "lng": 151.1344847,
    "place_id": "ChIJLXsAKKS6EmsRC4xaH0nh8Lk",
    "maps_url": "https://www.google.com/maps/place/?q=place_id:ChIJLXsAKKS6EmsRC4xaH0nh8Lk",
    "rating": 4,
    "total_ratings": 94
  },
  {
    "name": "Budget Petrol",
    "address": "303 Wardell Rd, Dulwich Hill",
    "suburb": "Sydney CBD",
    "state": "NSW",
    "lat": -33.9129295,
    "lng": 151.1383695,
    "place_id": "ChIJLxHqxH-6EmsRvBplnI_Pyds",
    "maps_url": "https://www.google.com/maps/place/?q=place_id:ChIJLxHqxH-6EmsRvBplnI_Pyds",
    "rating": 4.4,
    "total_ratings": 38
  },
  {
    "name": "bp",
    "address": "Victoria Rd, Rozelle",
    "suburb": "Sydney CBD",
    "state": "NSW",
    "lat": -33.8653,
    "lng": 151.1716,
    "place_id": "ChIJn9SgM8SvEmsRO7nAOkIYOZ8",
    "maps_url": "https://www.google.com/maps/place/?q=place_id:ChIJn9SgM8SvEmsRO7nAOkIYOZ8",
    "rating": 3.4,
    "total_ratings": 148
  },
  {
    "name": "7-Eleven",
    "address": "28 Princes Hwy, Arncliffe",
    "suburb": "Sydney CBD",
    "state": "NSW",
    "lat": -33.9342631,
    "lng": 151.1525753,
    "place_id": "ChIJA1QciZewEmsRig41xiVdkhU",
    "maps_url": "https://www.google.com/maps/place/?q=place_id:ChIJA1QciZewEmsRig41xiVdkhU",
    "rating": 3.4,
    "total_ratings": 109
  },
  {
    "name": "bp",
    "address": "67 New South Head Rd, Edgecliff",
    "suburb": "Sydney CBD",
    "state": "NSW",
    "lat": -33.87691,
    "lng": 151.2312,
    "place_id": "ChIJcWuYWAquEmsRFeOFLD-wCsM",
    "maps_url": "https://www.google.com/maps/place/?q=place_id:ChIJcWuYWAquEmsRFeOFLD-wCsM",
    "rating": 2,
    "total_ratings": 131
  },
  {
    "name": "bp",
    "address": "580-586 Parramatta Rd, Croydon",
    "suburb": "Sydney CBD",
    "state": "NSW",
    "lat": -33.8739086,
    "lng": 151.1268269,
    "place_id": "ChIJscNoorG6EmsRfiSyjOZLuuU",
    "maps_url": "https://www.google.com/maps/place/?q=place_id:ChIJscNoorG6EmsRfiSyjOZLuuU",
    "rating": 2.9,
    "total_ratings": 80
  },
  {
    "name": "Metro Petroleum Addison Road",
    "address": "99 Addison Rd, Marrickville",
    "suburb": "Sydney CBD",
    "state": "NSW",
    "lat": -33.9024427,
    "lng": 151.1644236,
    "place_id": "ChIJyUmP5UGwEmsR8yw52iP9EM4",
    "maps_url": "https://www.google.com/maps/place/?q=place_id:ChIJyUmP5UGwEmsR8yw52iP9EM4",
    "rating": 4.1,
    "total_ratings": 86
  },
  {
    "name": "BP Randwick",
    "address": "8 Perouse Rd, Randwick",
    "suburb": "Sydney CBD",
    "state": "NSW",
    "lat": -33.9190082,
    "lng": 151.2422489,
    "place_id": "ChIJ749AOHqzEmsRrTdqDemtVFI",
    "maps_url": "https://www.google.com/maps/place/?q=place_id:ChIJ749AOHqzEmsRrTdqDemtVFI",
    "rating": 3.9,
    "total_ratings": 44
  },
  {
    "name": "Metro Petroleum Leichhardt",
    "address": "127-129 Marion St, Leichhardt",
    "suburb": "Sydney CBD",
    "state": "NSW",
    "lat": -33.883907,
    "lng": 151.1507412,
    "place_id": "ChIJ6eRgXAWwEmsR4flY8HaOMv0",
    "maps_url": "https://www.google.com/maps/place/?q=place_id:ChIJ6eRgXAWwEmsR4flY8HaOMv0",
    "rating": 4,
    "total_ratings": 70
  },
  {
    "name": "Metro Petroleum",
    "address": "103 Sydenham Rd, Marrickville",
    "suburb": "Sydney CBD",
    "state": "NSW",
    "lat": -33.9102305,
    "lng": 151.1633071,
    "place_id": "ChIJHU8lhmewEmsRinPA5_vJUBo",
    "maps_url": "https://www.google.com/maps/place/?q=place_id:ChIJHU8lhmewEmsRinPA5_vJUBo",
    "rating": 3.9,
    "total_ratings": 132
  },
  {
    "name": "bp",
    "address": "339 Princes Hwy, St Peters",
    "suburb": "Sydney CBD",
    "state": "NSW",
    "lat": -33.9163575,
    "lng": 151.1728709,
    "place_id": "ChIJEWWKhFmwEmsRkdbxraHW1mc",
    "maps_url": "https://www.google.com/maps/place/?q=place_id:ChIJEWWKhFmwEmsRkdbxraHW1mc",
    "rating": 2.8,
    "total_ratings": 115
  },
  {
    "name": "Metro Petroleum",
    "address": "281 Homer St, Earlwood",
    "suburb": "Sydney CBD",
    "state": "NSW",
    "lat": -33.9263901,
    "lng": 151.1277553,
    "place_id": "ChIJmUgOjm26EmsRJkI_IdAzeag",
    "maps_url": "https://www.google.com/maps/place/?q=place_id:ChIJmUgOjm26EmsRJkI_IdAzeag",
    "rating": 3.7,
    "total_ratings": 78
  },
  {
    "name": "Shell",
    "address": "38-46 Victoria Rd, Drummoyne",
    "suburb": "Sydney CBD",
    "state": "NSW",
    "lat": -33.8558163,
    "lng": 151.1593524,
    "place_id": "ChIJW3IiypSvEmsR6HQwbciFvWQ",
    "maps_url": "https://www.google.com/maps/place/?q=place_id:ChIJW3IiypSvEmsR6HQwbciFvWQ",
    "rating": 3.1,
    "total_ratings": 53
  },
  {
    "name": "bp",
    "address": "1077 Botany Rd, Mascot",
    "suburb": "Sydney CBD",
    "state": "NSW",
    "lat": -33.9283755,
    "lng": 151.1951805,
    "place_id": "ChIJUYvwCAexEmsR1IbR-4scdVI",
    "maps_url": "https://www.google.com/maps/place/?q=place_id:ChIJUYvwCAexEmsR1IbR-4scdVI",
    "rating": 3.9,
    "total_ratings": 236
  },
  {
    "name": "Shell",
    "address": "297-299 Bunnerong Rd, Maroubra",
    "suburb": "Sydney CBD",
    "state": "NSW",
    "lat": -33.94076,
    "lng": 151.2284227,
    "place_id": "ChIJ0fZLBXyxEmsRnjyZm8d6ugY",
    "maps_url": "https://www.google.com/maps/place/?q=place_id:ChIJ0fZLBXyxEmsRnjyZm8d6ugY",
    "rating": 3.7,
    "total_ratings": 72
  },
  {
    "name": "EG Ampol Redfern",
    "address": "475-489 Cleveland St, Surry Hills",
    "suburb": "Sydney CBD",
    "state": "NSW",
    "lat": -33.8922059,
    "lng": 151.2159845,
    "place_id": "ChIJpUpFHuKxEmsRq3NnOjnjTqM",
    "maps_url": "https://www.google.com/maps/place/?q=place_id:ChIJpUpFHuKxEmsRq3NnOjnjTqM",
    "rating": 3.7,
    "total_ratings": 294
  },
  {
    "name": "Shell",
    "address": "120-138 Birrell St, Bondi Junction",
    "suburb": "Sydney CBD",
    "state": "NSW",
    "lat": -33.8956316,
    "lng": 151.248619,
    "place_id": "ChIJTVahuvStEmsRGRXYdmsmBgQ",
    "maps_url": "https://www.google.com/maps/place/?q=place_id:ChIJTVahuvStEmsRGRXYdmsmBgQ",
    "rating": 3.4,
    "total_ratings": 41
  },
  {
    "name": "bp",
    "address": "Missenden, Parramatta Rd, Camperdown",
    "suburb": "Sydney CBD",
    "state": "NSW",
    "lat": -33.88619,
    "lng": 151.1797877,
    "place_id": "ChIJ8_18SCmwEmsRyPEr2gKbmYY",
    "maps_url": "https://www.google.com/maps/place/?q=place_id:ChIJ8_18SCmwEmsRyPEr2gKbmYY",
    "rating": 2.1,
    "total_ratings": 105
  },
  {
    "name": "U-GO Rozelle",
    "address": "Victoria Rd Cnr, Wellington St, Rozelle",
    "suburb": "Sydney CBD",
    "state": "NSW",
    "lat": -33.8626027,
    "lng": 151.1684306,
    "place_id": "ChIJM9LQRcGvEmsRF0FzCpzKsyg",
    "maps_url": "https://www.google.com/maps/place/?q=place_id:ChIJM9LQRcGvEmsRF0FzCpzKsyg",
    "rating": 3.6,
    "total_ratings": 136
  },
  {
    "name": "EG Ampol Marrickville",
    "address": "490 Illawarra Road Cnr, Hill St, Marrickville",
    "suburb": "Sydney CBD",
    "state": "NSW",
    "lat": -33.9185503,
    "lng": 151.1458724,
    "place_id": "ChIJL65SUoGwEmsR5GEheMB29pk",
    "maps_url": "https://www.google.com/maps/place/?q=place_id:ChIJL65SUoGwEmsR5GEheMB29pk",
    "rating": 3.1,
    "total_ratings": 50
  },
  {
    "name": "Shell",
    "address": "250 Burns Bay Road, Penrose St, Lane Cove",
    "suburb": "Sydney CBD",
    "state": "NSW",
    "lat": -33.81720749999999,
    "lng": 151.1517408,
    "place_id": "ChIJha0cH2avEmsRDASZ59UT2mw",
    "maps_url": "https://www.google.com/maps/place/?q=place_id:ChIJha0cH2avEmsRDASZ59UT2mw",
    "rating": 3.7,
    "total_ratings": 47
  },
  {
    "name": "Metro Petroleum",
    "address": "36 Henderson Rd, Alexandria",
    "suburb": "Sydney CBD",
    "state": "NSW",
    "lat": -33.8974104,
    "lng": 151.1971746,
    "place_id": "ChIJK1Yx6s-xEmsRvASh2UMuxiw",
    "maps_url": "https://www.google.com/maps/place/?q=place_id:ChIJK1Yx6s-xEmsRvASh2UMuxiw",
    "rating": 3.8,
    "total_ratings": 118
  },
  {
    "name": "SPEEDWAY HABERFIELD",
    "address": "273-277 Parramatta Rd, Haberfield",
    "suburb": "Sydney CBD",
    "state": "NSW",
    "lat": -33.8750446,
    "lng": 151.1287596,
    "place_id": "ChIJDxNN3rG6EmsR19hEcT6vM5k",
    "maps_url": "https://www.google.com/maps/place/?q=place_id:ChIJDxNN3rG6EmsR19hEcT6vM5k",
    "rating": 4.3,
    "total_ratings": 228
  },
  {
    "name": "bp",
    "address": "2 Princes Hwy, St Peters",
    "suburb": "Sydney CBD",
    "state": "NSW",
    "lat": -33.909912,
    "lng": 151.181,
    "place_id": "ChIJWYMjgk6wEmsR5a2K0c_WDqk",
    "maps_url": "https://www.google.com/maps/place/?q=place_id:ChIJWYMjgk6wEmsR5a2K0c_WDqk",
    "rating": 3.2,
    "total_ratings": 83
  },
  {
    "name": "Shell",
    "address": "308-310 Parramatta Rd, Stanmore",
    "suburb": "Sydney CBD",
    "state": "NSW",
    "lat": -33.8884274,
    "lng": 151.1643271,
    "place_id": "ChIJMTzeUT2wEmsRwoVkBmFacFA",
    "maps_url": "https://www.google.com/maps/place/?q=place_id:ChIJMTzeUT2wEmsRwoVkBmFacFA",
    "rating": 3.2,
    "total_ratings": 68
  },
  {
    "name": "Metro Petroleum Lane Cove",
    "address": "533 Mowbray Rd W, Lane Cove North",
    "suburb": "Sydney CBD",
    "state": "NSW",
    "lat": -33.8060539,
    "lng": 151.1662246,
    "place_id": "ChIJSwO3nDevEmsR4CENxNlZxB4",
    "maps_url": "https://www.google.com/maps/place/?q=place_id:ChIJSwO3nDevEmsR4CENxNlZxB4",
    "rating": 3.9,
    "total_ratings": 141
  },
  {
    "name": "Metro Petroleum Hurlstone Park",
    "address": "11 Canterbury Rd, Hurlstone Park",
    "suburb": "Sydney CBD",
    "state": "NSW",
    "lat": -33.90775989999999,
    "lng": 151.1254553,
    "place_id": "ChIJ-YUgz4m6EmsRg3C5EVmiTQg",
    "maps_url": "https://www.google.com/maps/place/?q=place_id:ChIJ-YUgz4m6EmsRg3C5EVmiTQg",
    "rating": 3.9,
    "total_ratings": 106
  },
  {
    "name": "Metro Petroleum Willoughby",
    "address": "599 Willoughby Rd, Willoughby",
    "suburb": "Sydney CBD",
    "state": "NSW",
    "lat": -33.803882,
    "lng": 151.1997448,
    "place_id": "ChIJD3aRvjKpEmsR-hD6WkIa38g",
    "maps_url": "https://www.google.com/maps/place/?q=place_id:ChIJD3aRvjKpEmsR-hD6WkIa38g",
    "rating": 3.5,
    "total_ratings": 16
  },
  {
    "name": "bp",
    "address": "422 Pacific Hwy, Artarmon",
    "suburb": "Sydney CBD",
    "state": "NSW",
    "lat": -33.8114096,
    "lng": 151.1755639,
    "place_id": "ChIJA0S41SSvEmsRvoWYiORAhCk",
    "maps_url": "https://www.google.com/maps/place/?q=place_id:ChIJA0S41SSvEmsRvoWYiORAhCk",
    "rating": 2.3,
    "total_ratings": 86
  },
  {
    "name": "Randwick Petroleum UTE VAN",
    "address": "88 Clovelly Rd, Randwick",
    "suburb": "Sydney CBD",
    "state": "NSW",
    "lat": -33.9091451,
    "lng": 151.2486566,
    "place_id": "ChIJCS-6Lg6yEmsR86XZoDRw8IU",
    "maps_url": "https://www.google.com/maps/place/?q=place_id:ChIJCS-6Lg6yEmsR86XZoDRw8IU",
    "rating": 3.4,
    "total_ratings": 99
  },
  {
    "name": "bp",
    "address": "368 Anzac Parade, Kingsford",
    "suburb": "Sydney CBD",
    "state": "NSW",
    "lat": -33.9196896,
    "lng": 151.2268096,
    "place_id": "ChIJGRU-rYixEmsRbJf-ykvAlL0",
    "maps_url": "https://www.google.com/maps/place/?q=place_id:ChIJGRU-rYixEmsRbJf-ykvAlL0",
    "rating": 3.3,
    "total_ratings": 101
  },
  {
    "name": "7-Eleven",
    "address": "59 Oxford St, Paddington",
    "suburb": "Sydney CBD",
    "state": "NSW",
    "lat": -33.8831446,
    "lng": 151.2204864,
    "place_id": "ChIJr9-VwBquEmsRBXCLW489yKI",
    "maps_url": "https://www.google.com/maps/place/?q=place_id:ChIJr9-VwBquEmsRBXCLW489yKI",
    "rating": 3.3,
    "total_ratings": 152
  },
  {
    "name": "bp",
    "address": "Cowles Rd, Mosman",
    "suburb": "Sydney CBD",
    "state": "NSW",
    "lat": -33.8321189,
    "lng": 151.2374161,
    "place_id": "ChIJn_ZeHR-sEmsRPg46bRHLaTg",
    "maps_url": "https://www.google.com/maps/place/?q=place_id:ChIJn_ZeHR-sEmsRPg46bRHLaTg",
    "rating": 3,
    "total_ratings": 60
  },
  {
    "name": "7-Eleven",
    "address": "231-235 Great N Rd, Five Dock",
    "suburb": "Sydney CBD",
    "state": "NSW",
    "lat": -33.8648725,
    "lng": 151.1299756,
    "place_id": "ChIJG0rtPVKlEmsRrNJ0LKeYD38",
    "maps_url": "https://www.google.com/maps/place/?q=place_id:ChIJG0rtPVKlEmsRrNJ0LKeYD38",
    "rating": 3.1,
    "total_ratings": 69
  },
  {
    "name": "7-Eleven",
    "address": "132 Liverpool Rd, Ashfield",
    "suburb": "Sydney CBD",
    "state": "NSW",
    "lat": -33.8905431,
    "lng": 151.1296062,
    "place_id": "ChIJh1PJ7Je6EmsRkjLrU9_iUZI",
    "maps_url": "https://www.google.com/maps/place/?q=place_id:ChIJh1PJ7Je6EmsRkjLrU9_iUZI",
    "rating": 3.1,
    "total_ratings": 104
  },
  {
    "name": "SPEEDWAY EARLWOOD",
    "address": "200 Homer St, Earlwood",
    "suburb": "Sydney CBD",
    "state": "NSW",
    "lat": -33.9269631,
    "lng": 151.1285887,
    "place_id": "ChIJ96cLiG26EmsRQkRuwSuAsAM",
    "maps_url": "https://www.google.com/maps/place/?q=place_id:ChIJ96cLiG26EmsRQkRuwSuAsAM",
    "rating": 4.3,
    "total_ratings": 183
  },
  {
    "name": "7-Eleven",
    "address": "131 Anzac Parade &, Todman Ave, Kensington",
    "suburb": "Sydney CBD",
    "state": "NSW",
    "lat": -33.9102888,
    "lng": 151.2229714,
    "place_id": "ChIJQ849yU6xEmsRgE86DW0sZ7c",
    "maps_url": "https://www.google.com/maps/place/?q=place_id:ChIJQ849yU6xEmsRgE86DW0sZ7c",
    "rating": 3.5,
    "total_ratings": 97
  },
  {
    "name": "Budget Petrol Eastlakes",
    "address": "102 Maloney St, Eastlakes",
    "suburb": "Sydney CBD",
    "state": "NSW",
    "lat": -33.9309985,
    "lng": 151.2056005,
    "place_id": "ChIJL3HkOwqxEmsRnhJCTWap8wE",
    "maps_url": "https://www.google.com/maps/place/?q=place_id:ChIJL3HkOwqxEmsRnhJCTWap8wE",
    "rating": 4.3,
    "total_ratings": 192
  },
  {
    "name": "Shell",
    "address": "Clovelly Rd, Randwick",
    "suburb": "Sydney CBD",
    "state": "NSW",
    "lat": -33.9083096,
    "lng": 151.2471054,
    "place_id": "ChIJfxCKxA-yEmsR4gRc-kJRwTs",
    "maps_url": "https://www.google.com/maps/place/?q=place_id:ChIJfxCKxA-yEmsR4gRc-kJRwTs",
    "rating": 4.2,
    "total_ratings": 35
  },
  {
    "name": "bp",
    "address": "595 Old South Head Rd, Rose Bay",
    "suburb": "Sydney CBD",
    "state": "NSW",
    "lat": -33.8692,
    "lng": 151.2771,
    "place_id": "ChIJndpltautEmsRJFN5Z-JP3TI",
    "maps_url": "https://www.google.com/maps/place/?q=place_id:ChIJndpltautEmsRJFN5Z-JP3TI",
    "rating": 3.3,
    "total_ratings": 68
  },
  {
    "name": "7-Eleven",
    "address": "198 Parramatta Rd, Camperdown",
    "suburb": "Sydney CBD",
    "state": "NSW",
    "lat": -33.8870534,
    "lng": 151.1741399,
    "place_id": "ChIJx_y-oyWwEmsRwkTlxW8EgvI",
    "maps_url": "https://www.google.com/maps/place/?q=place_id:ChIJx_y-oyWwEmsRwkTlxW8EgvI",
    "rating": 2.7,
    "total_ratings": 98
  },
  {
    "name": "bp",
    "address": "157 Penshurst St, North Willoughby",
    "suburb": "Sydney CBD",
    "state": "NSW",
    "lat": -33.7978605,
    "lng": 151.1980906,
    "place_id": "ChIJGW_cIy6pEmsRhZrl9LL3EiM",
    "maps_url": "https://www.google.com/maps/place/?q=place_id:ChIJGW_cIy6pEmsRhZrl9LL3EiM",
    "rating": 3.3,
    "total_ratings": 43
  },
  {
    "name": "Metro Petroleum Cremorne",
    "address": "51 Spofforth St, Cremorne",
    "suburb": "Sydney CBD",
    "state": "NSW",
    "lat": -33.8327855,
    "lng": 151.2294951,
    "place_id": "ChIJ-86-uKGuEmsRhZKoHLOXgAw",
    "maps_url": "https://www.google.com/maps/place/?q=place_id:ChIJ-86-uKGuEmsRhZKoHLOXgAw",
    "rating": 4.2,
    "total_ratings": 45
  },
  {
    "name": "bp",
    "address": "500 Willoughby Rd, Willoughby",
    "suburb": "Sydney CBD",
    "state": "NSW",
    "lat": -33.8103,
    "lng": 151.1993,
    "place_id": "ChIJVTY7Bs6uEmsR-iheYMyok5I",
    "maps_url": "https://www.google.com/maps/place/?q=place_id:ChIJVTY7Bs6uEmsR-iheYMyok5I",
    "rating": 3.9,
    "total_ratings": 96
  },
  {
    "name": "United Petroleum Waterloo",
    "address": "941-953 Bourke St, Waterloo",
    "suburb": "Sydney CBD",
    "state": "NSW",
    "lat": -33.9020433,
    "lng": 151.2079903,
    "place_id": "ChIJq0RTWMKxEmsRISshxuM6aEw",
    "maps_url": "https://www.google.com/maps/place/?q=place_id:ChIJq0RTWMKxEmsRISshxuM6aEw",
    "rating": 3.5,
    "total_ratings": 122
  },
  {
    "name": "7-Eleven",
    "address": "110 Anzac Parade, Kensington",
    "suburb": "Sydney CBD",
    "state": "NSW",
    "lat": -33.9073096,
    "lng": 151.2240039,
    "place_id": "ChIJ0Tw3l_GxEmsR5PW2iqxMIY4",
    "maps_url": "https://www.google.com/maps/place/?q=place_id:ChIJ0Tw3l_GxEmsR5PW2iqxMIY4",
    "rating": 2.8,
    "total_ratings": 64
  },
  {
    "name": "7-Eleven",
    "address": "178-184 Victoria Road &, Moodie St, Rozelle",
    "suburb": "Sydney CBD",
    "state": "NSW",
    "lat": -33.8630092,
    "lng": 151.1680807,
    "place_id": "ChIJgREJXsGvEmsRNkyOMta1lqg",
    "maps_url": "https://www.google.com/maps/place/?q=place_id:ChIJgREJXsGvEmsRNkyOMta1lqg",
    "rating": 3.1,
    "total_ratings": 71
  },
  {
    "name": "EG Ampol",
    "address": "774 Parramatta Road Cnr, Carrington St, Lewisham",
    "suburb": "Sydney CBD",
    "state": "NSW",
    "lat": -33.8902568,
    "lng": 151.1479364,
    "place_id": "ChIJo7vJJh2xEmsRtJisTaPN5zI",
    "maps_url": "https://www.google.com/maps/place/?q=place_id:ChIJo7vJJh2xEmsRtJisTaPN5zI",
    "rating": 3.8,
    "total_ratings": 278
  },
  {
    "name": "SPEEDWAY CAMMERAY",
    "address": "330 Miller St, Cammeray",
    "suburb": "Sydney CBD",
    "state": "NSW",
    "lat": -33.8287134,
    "lng": 151.2088097,
    "place_id": "ChIJj2_nvOquEmsR4UrHTa_8NOM",
    "maps_url": "https://www.google.com/maps/place/?q=place_id:ChIJj2_nvOquEmsR4UrHTa_8NOM",
    "rating": 3.4,
    "total_ratings": 67
  },
  {
    "name": "Ultra Manly",
    "address": "209-217 Pittwater Rd, Manly",
    "suburb": "North Sydney",
    "state": "NSW",
    "lat": -33.787496,
    "lng": 151.2840854,
    "place_id": "ChIJdTAoJIWrEmsR0bUJ4m5GzBw",
    "maps_url": "https://www.google.com/maps/place/?q=place_id:ChIJdTAoJIWrEmsR0bUJ4m5GzBw",
    "rating": 4.1,
    "total_ratings": 66
  },
  {
    "name": "EG Ampol Chatswood East",
    "address": "364-366 Eastern Valley Way, Chatswood East",
    "suburb": "North Sydney",
    "state": "NSW",
    "lat": -33.786599,
    "lng": 151.2010143,
    "place_id": "ChIJGwXECD2pEmsRIsIu5dgsEd0",
    "maps_url": "https://www.google.com/maps/place/?q=place_id:ChIJGwXECD2pEmsRIsIu5dgsEd0",
    "rating": 3.8,
    "total_ratings": 158
  },
  {
    "name": "bp",
    "address": "485 Sydney Rd, Balgowlah",
    "suburb": "North Sydney",
    "state": "NSW",
    "lat": -33.7954149,
    "lng": 151.2559598,
    "place_id": "ChIJdyYPjsCrEmsRCRMCipPHvqc",
    "maps_url": "https://www.google.com/maps/place/?q=place_id:ChIJdyYPjsCrEmsRCRMCipPHvqc",
    "rating": 2.7,
    "total_ratings": 88
  },
  {
    "name": "Shell",
    "address": "275 Lane Cove Rd, Macquarie Park",
    "suburb": "North Sydney",
    "state": "NSW",
    "lat": -33.784879,
    "lng": 151.129067,
    "place_id": "ChIJLyA11wemEmsRhEd96MoBXpo",
    "maps_url": "https://www.google.com/maps/place/?q=place_id:ChIJLyA11wemEmsRhEd96MoBXpo",
    "rating": 2.5,
    "total_ratings": 22
  },
  {
    "name": "Ampol Foodary Alexandria",
    "address": "Wyndham St Cnr, 133 McEvoy St, Alexandria",
    "suburb": "North Sydney",
    "state": "NSW",
    "lat": -33.9021549,
    "lng": 151.199411,
    "place_id": "ChIJv_l53cWxEmsRQWlJvLAaeZE",
    "maps_url": "https://www.google.com/maps/place/?q=place_id:ChIJv_l53cWxEmsRQWlJvLAaeZE",
    "rating": 3.6,
    "total_ratings": 269
  },
  {
    "name": "7-Eleven",
    "address": "477 Pacific Hwy, Artarmon",
    "suburb": "North Sydney",
    "state": "NSW",
    "lat": -33.8105521,
    "lng": 151.1773932,
    "place_id": "ChIJ0VMbUyivEmsRI9EfHPMIo3w",
    "maps_url": "https://www.google.com/maps/place/?q=place_id:ChIJ0VMbUyivEmsRI9EfHPMIo3w",
    "rating": 3.3,
    "total_ratings": 59
  },
  {
    "name": "Ampol Foodary Crows Nest",
    "address": "111-121 Falcon St, Crows Nest",
    "suburb": "North Sydney",
    "state": "NSW",
    "lat": -33.8286801,
    "lng": 151.2060304,
    "place_id": "ChIJD50rXequEmsR4coxqC7pYdo",
    "maps_url": "https://www.google.com/maps/place/?q=place_id:ChIJD50rXequEmsR4coxqC7pYdo",
    "rating": 3.6,
    "total_ratings": 214
  },
  {
    "name": "bp",
    "address": "411 Cleveland St, Redfern",
    "suburb": "North Sydney",
    "state": "NSW",
    "lat": -33.8918,
    "lng": 151.2133,
    "place_id": "ChIJkY0tS-CxEmsRd6TmkFeWyN4",
    "maps_url": "https://www.google.com/maps/place/?q=place_id:ChIJkY0tS-CxEmsRd6TmkFeWyN4",
    "rating": 3.1,
    "total_ratings": 113
  },
  {
    "name": "7-Eleven",
    "address": "162A Spit Rd, Mosman",
    "suburb": "North Sydney",
    "state": "NSW",
    "lat": -33.8175798,
    "lng": 151.2434874,
    "place_id": "ChIJpUApvAesEmsRMRoXe1P1YoA",
    "maps_url": "https://www.google.com/maps/place/?q=place_id:ChIJpUApvAesEmsRMRoXe1P1YoA",
    "rating": 2.9,
    "total_ratings": 76
  },
  {
    "name": "7-Eleven",
    "address": "238 Pacific Hwy, Lindfield",
    "suburb": "North Sydney",
    "state": "NSW",
    "lat": -33.7876797,
    "lng": 151.1797315,
    "place_id": "ChIJrUGO-cGoEmsR1BfO8wAtvzA",
    "maps_url": "https://www.google.com/maps/place/?q=place_id:ChIJrUGO-cGoEmsR1BfO8wAtvzA",
    "rating": 3.5,
    "total_ratings": 99
  },
  {
    "name": "Ampol Foodary Chatswood",
    "address": "572 Pacific Hwy, Chatswood",
    "suburb": "North Sydney",
    "state": "NSW",
    "lat": -33.8037586,
    "lng": 151.179011,
    "place_id": "ChIJMd_5OSyvEmsRRH7gRelSLm8",
    "maps_url": "https://www.google.com/maps/place/?q=place_id:ChIJMd_5OSyvEmsRRH7gRelSLm8",
    "rating": 3.7,
    "total_ratings": 216
  },
  {
    "name": "bp",
    "address": "316 Penshurst St, North Willoughby",
    "suburb": "North Sydney",
    "state": "NSW",
    "lat": -33.79384,
    "lng": 151.195948,
    "place_id": "ChIJn5xkgC-pEmsRzhvF7sWy27g",
    "maps_url": "https://www.google.com/maps/place/?q=place_id:ChIJn5xkgC-pEmsRzhvF7sWy27g",
    "rating": 3,
    "total_ratings": 40
  },
  {
    "name": "Shell",
    "address": "877-879 Pacific Hwy, Chatswood",
    "suburb": "North Sydney",
    "state": "NSW",
    "lat": -33.7918236,
    "lng": 151.1804849,
    "place_id": "ChIJjUYW0NCoEmsRc1cNtUPa96E",
    "maps_url": "https://www.google.com/maps/place/?q=place_id:ChIJjUYW0NCoEmsRc1cNtUPa96E",
    "rating": 2.3,
    "total_ratings": 15
  },
  {
    "name": "Shell",
    "address": "227 Military Rd, Cremorne",
    "suburb": "North Sydney",
    "state": "NSW",
    "lat": -33.8306307,
    "lng": 151.2261818,
    "place_id": "ChIJ1TSrQKKuEmsRRQVp1eW-6NM",
    "maps_url": "https://www.google.com/maps/place/?q=place_id:ChIJ1TSrQKKuEmsRRQVp1eW-6NM",
    "rating": 3.3,
    "total_ratings": 29
  },
  {
    "name": "Ampol Foodary Lane Cove West",
    "address": "237-245 Burns Bay Rd, Lane Cove West",
    "suburb": "North Sydney",
    "state": "NSW",
    "lat": -33.8164917,
    "lng": 151.1514683,
    "place_id": "ChIJMTbkLmavEmsRfQ0wmKT_dMo",
    "maps_url": "https://www.google.com/maps/place/?q=place_id:ChIJMTbkLmavEmsRfQ0wmKT_dMo",
    "rating": 3.7,
    "total_ratings": 238
  },
  {
    "name": "Metro Petroleum",
    "address": "36 Lane Cove Rd, Ryde",
    "suburb": "Chatswood",
    "state": "NSW",
    "lat": -33.8076268,
    "lng": 151.1087361,
    "place_id": "ChIJBcOT1rulEmsRNPzsQRjhMIk",
    "maps_url": "https://www.google.com/maps/place/?q=place_id:ChIJBcOT1rulEmsRNPzsQRjhMIk",
    "rating": 4,
    "total_ratings": 249
  },
  {
    "name": "SPEEDWAY KENT ROAD",
    "address": "34-38 Kent Rd, North Ryde",
    "suburb": "Chatswood",
    "state": "NSW",
    "lat": -33.7917,
    "lng": 151.116,
    "place_id": "ChIJYQV7d2alEmsRUKKEGZ-p73A",
    "maps_url": "https://www.google.com/maps/place/?q=place_id:ChIJYQV7d2alEmsRUKKEGZ-p73A",
    "rating": 4.2,
    "total_ratings": 73
  },
  {
    "name": "EG Ampol Glenrose",
    "address": "60 Glen St, Belrose",
    "suburb": "Chatswood",
    "state": "NSW",
    "lat": -33.740065,
    "lng": 151.2091286,
    "place_id": "ChIJ3X5aF8KpEmsRoiDO-5S6aew",
    "maps_url": "https://www.google.com/maps/place/?q=place_id:ChIJ3X5aF8KpEmsRoiDO-5S6aew",
    "rating": 3.6,
    "total_ratings": 74
  },
  {
    "name": "EG Ampol",
    "address": "400 Parramatta Rd, Burwood",
    "suburb": "Chatswood",
    "state": "NSW",
    "lat": -33.8687132,
    "lng": 151.1014558,
    "place_id": "ChIJ7wENENG6EmsRPeMTfPlyC-Q",
    "maps_url": "https://www.google.com/maps/place/?q=place_id:ChIJ7wENENG6EmsRPeMTfPlyC-Q",
    "rating": 3.9,
    "total_ratings": 324
  },
  {
    "name": "Metro Petroleum",
    "address": "663 Warringah Rd, Forestville",
    "suburb": "Chatswood",
    "state": "NSW",
    "lat": -33.75959,
    "lng": 151.2190846,
    "place_id": "ChIJZXhLiCepEmsRrmVd_im6mOM",
    "maps_url": "https://www.google.com/maps/place/?q=place_id:ChIJZXhLiCepEmsRrmVd_im6mOM",
    "rating": 3.7,
    "total_ratings": 54
  },
  {
    "name": "EG Ampol Marsfield",
    "address": "Epping Rd, Marsfield",
    "suburb": "Chatswood",
    "state": "NSW",
    "lat": -33.778378,
    "lng": 151.107365,
    "place_id": "ChIJJ7jWIXemEmsRm-BqZvhVHJw",
    "maps_url": "https://www.google.com/maps/place/?q=place_id:ChIJJ7jWIXemEmsRm-BqZvhVHJw",
    "rating": 3.8,
    "total_ratings": 129
  },
  {
    "name": "BP PUTNEY",
    "address": "238 Morrison Rd, Putney",
    "suburb": "Chatswood",
    "state": "NSW",
    "lat": -33.8237782,
    "lng": 151.1084371,
    "place_id": "ChIJ0f17tQmlEmsR6-rz6DIFnYk",
    "maps_url": "https://www.google.com/maps/place/?q=place_id:ChIJ0f17tQmlEmsR6-rz6DIFnYk",
    "rating": 2.9,
    "total_ratings": 45
  },
  {
    "name": "SPEEDWAY BEACON HILL",
    "address": "214-224 Warringah Rd, Beacon Hill",
    "suburb": "Chatswood",
    "state": "NSW",
    "lat": -33.7525177,
    "lng": 151.2547219,
    "place_id": "ChIJmYbxr5KrEmsRG9ka67CeNvo",
    "maps_url": "https://www.google.com/maps/place/?q=place_id:ChIJmYbxr5KrEmsRG9ka67CeNvo",
    "rating": 4.5,
    "total_ratings": 17
  },
  {
    "name": "bp",
    "address": "Kendall St, West Pymble",
    "suburb": "Chatswood",
    "state": "NSW",
    "lat": -33.7620667,
    "lng": 151.1285098,
    "place_id": "ChIJhRQNFSamEmsRmmQzhaIpHU0",
    "maps_url": "https://www.google.com/maps/place/?q=place_id:ChIJhRQNFSamEmsRmmQzhaIpHU0",
    "rating": 3.7,
    "total_ratings": 85
  },
  {
    "name": "Ampol Foodary Concord",
    "address": "87-89 Parramatta Rd, Concord",
    "suburb": "Chatswood",
    "state": "NSW",
    "lat": -33.867857,
    "lng": 151.099422,
    "place_id": "ChIJhxenz9a6EmsR-vg4M5Xt3NU",
    "maps_url": "https://www.google.com/maps/place/?q=place_id:ChIJhxenz9a6EmsR-vg4M5Xt3NU",
    "rating": 3.6,
    "total_ratings": 329
  },
  {
    "name": "Apex Petroleum",
    "address": "898-902 Victoria Rd, West Ryde",
    "suburb": "Chatswood",
    "state": "NSW",
    "lat": -33.811903,
    "lng": 151.0948102,
    "place_id": "ChIJJ6GU26ylEmsRusPJeN05uXs",
    "maps_url": "https://www.google.com/maps/place/?q=place_id:ChIJJ6GU26ylEmsRusPJeN05uXs",
    "rating": 3.7,
    "total_ratings": 327
  },
  {
    "name": "Ampol Foodary St Ives",
    "address": "164 Mona Vale Rd, St Ives",
    "suburb": "Chatswood",
    "state": "NSW",
    "lat": -33.7307758,
    "lng": 151.1570112,
    "place_id": "ChIJEef2bxOoEmsRX4KWSz25INk",
    "maps_url": "https://www.google.com/maps/place/?q=place_id:ChIJEef2bxOoEmsRX4KWSz25INk",
    "rating": 3.8,
    "total_ratings": 169
  },
  {
    "name": "Shell",
    "address": "477-483 Miller Street, Palmer St, Cammeray",
    "suburb": "Chatswood",
    "state": "NSW",
    "lat": -33.8214266,
    "lng": 151.2107557,
    "place_id": "ChIJYyWwm7iuEmsREvGpnnHyq3Y",
    "maps_url": "https://www.google.com/maps/place/?q=place_id:ChIJYyWwm7iuEmsREvGpnnHyq3Y",
    "rating": 2.6,
    "total_ratings": 8
  },
  {
    "name": "bp",
    "address": "7-9 Northwood Rd, Longueville",
    "suburb": "Chatswood",
    "state": "NSW",
    "lat": -33.824461,
    "lng": 151.1726718,
    "place_id": "ChIJvS6A2RCvEmsRJqgWPLtcCsM",
    "maps_url": "https://www.google.com/maps/place/?q=place_id:ChIJvS6A2RCvEmsRJqgWPLtcCsM",
    "rating": 2.8,
    "total_ratings": 26
  },
  {
    "name": "bp",
    "address": "295 Quarry Rd, Ryde",
    "suburb": "Chatswood",
    "state": "NSW",
    "lat": -33.7958904,
    "lng": 151.1028655,
    "place_id": "ChIJlRCg08ilEmsRfe2G9WesEFU",
    "maps_url": "https://www.google.com/maps/place/?q=place_id:ChIJlRCg08ilEmsRfe2G9WesEFU",
    "rating": 3.1,
    "total_ratings": 58
  },
  {
    "name": "SPEEDWAY WEST RYDE",
    "address": "899 Victoria Rd, West Ryde",
    "suburb": "Chatswood",
    "state": "NSW",
    "lat": -33.8105259,
    "lng": 151.094167,
    "place_id": "ChIJ95HqLa2lEmsRw7spZSia-Tg",
    "maps_url": "https://www.google.com/maps/place/?q=place_id:ChIJ95HqLa2lEmsRw7spZSia-Tg",
    "rating": 4.2,
    "total_ratings": 179
  },
  {
    "name": "Ampol Foodary North Ryde",
    "address": "41-43, Epping Rd Cnr, Wicks Rd, North Ryde",
    "suburb": "Chatswood",
    "state": "NSW",
    "lat": -33.7914072,
    "lng": 151.1311262,
    "place_id": "ChIJNfz4lPylEmsRbnN-B3h6QCA",
    "maps_url": "https://www.google.com/maps/place/?q=place_id:ChIJNfz4lPylEmsRbnN-B3h6QCA",
    "rating": 3.7,
    "total_ratings": 532
  },
  {
    "name": "Shell",
    "address": "4 Ryde Rd, Hunters Hill",
    "suburb": "Chatswood",
    "state": "NSW",
    "lat": -33.8317141,
    "lng": 151.1416991,
    "place_id": "ChIJqZiVF4CvEmsR7kyx7iBYIWI",
    "maps_url": "https://www.google.com/maps/place/?q=place_id:ChIJqZiVF4CvEmsR7kyx7iBYIWI",
    "rating": 3,
    "total_ratings": 12
  },
  {
    "name": "7-Eleven",
    "address": "159 Putarri Av &, 157-159 Mona Vale Rd, St Ives",
    "suburb": "Chatswood",
    "state": "NSW",
    "lat": -33.7325916,
    "lng": 151.1562703,
    "place_id": "ChIJezl0ymyoEmsRrAO-7hXMqIE",
    "maps_url": "https://www.google.com/maps/place/?q=place_id:ChIJezl0ymyoEmsRrAO-7hXMqIE",
    "rating": 3.5,
    "total_ratings": 69
  },
  {
    "name": "bp",
    "address": "169 Willoughby Rd, Naremburn",
    "suburb": "Chatswood",
    "state": "NSW",
    "lat": -33.8199682,
    "lng": 151.2010798,
    "place_id": "ChIJP8NZj8SuEmsRmsxInZj1O3E",
    "maps_url": "https://www.google.com/maps/place/?q=place_id:ChIJP8NZj8SuEmsRmsxInZj1O3E",
    "rating": 2.6,
    "total_ratings": 117
  },
  {
    "name": "Shell",
    "address": "96 Wicks Rd, North Ryde",
    "suburb": "Chatswood",
    "state": "NSW",
    "lat": -33.794144,
    "lng": 151.12688,
    "place_id": "ChIJvVyqHeWlEmsRMiosUk027xM",
    "maps_url": "https://www.google.com/maps/place/?q=place_id:ChIJvVyqHeWlEmsRMiosUk027xM",
    "rating": 3.5,
    "total_ratings": 43
  },
  {
    "name": "Shell",
    "address": "45 Lane Cove Road, Myra Ave, Ryde",
    "suburb": "Chatswood",
    "state": "NSW",
    "lat": -33.8071298,
    "lng": 151.1098632,
    "place_id": "ChIJRU2wXbmlEmsREvgZAeHih5o",
    "maps_url": "https://www.google.com/maps/place/?q=place_id:ChIJRU2wXbmlEmsREvgZAeHih5o",
    "rating": 3.2,
    "total_ratings": 6
  },
  {
    "name": "7-Eleven",
    "address": "271A Victoria Rd, Drummoyne",
    "suburb": "Chatswood",
    "state": "NSW",
    "lat": -33.8470381,
    "lng": 151.1515194,
    "place_id": "ChIJtRZ2JI6vEmsRWaZSmtqMFaU",
    "maps_url": "https://www.google.com/maps/place/?q=place_id:ChIJtRZ2JI6vEmsRWaZSmtqMFaU",
    "rating": 4,
    "total_ratings": 78
  },
  {
    "name": "bp",
    "address": "175 Ourimbah Rd, Mosman",
    "suburb": "Chatswood",
    "state": "NSW",
    "lat": -33.8211852,
    "lng": 151.2332775,
    "place_id": "ChIJbXVSK6iuEmsRHfgLS2JL2os",
    "maps_url": "https://www.google.com/maps/place/?q=place_id:ChIJbXVSK6iuEmsRHfgLS2JL2os",
    "rating": 3.4,
    "total_ratings": 45
  },
  {
    "name": "7-Eleven",
    "address": "494 Pacific Hwy, Killara",
    "suburb": "Chatswood",
    "state": "NSW",
    "lat": -33.7713459,
    "lng": 151.1608,
    "place_id": "ChIJ24kT-JSoEmsR4Bvz-Wh9AQ8",
    "maps_url": "https://www.google.com/maps/place/?q=place_id:ChIJ24kT-JSoEmsR4Bvz-Wh9AQ8",
    "rating": 3,
    "total_ratings": 61
  },
  {
    "name": "Shell",
    "address": "21 Ryde Rd, Pymble",
    "suburb": "Chatswood",
    "state": "NSW",
    "lat": -33.7519544,
    "lng": 151.1438351,
    "place_id": "ChIJYSFD-4CoEmsR3GXYIGlFI0A",
    "maps_url": "https://www.google.com/maps/place/?q=place_id:ChIJYSFD-4CoEmsR3GXYIGlFI0A",
    "rating": 2.1,
    "total_ratings": 7
  },
  {
    "name": "7-Eleven",
    "address": "284/300 Parramatta Rd, Burwood",
    "suburb": "Chatswood",
    "state": "NSW",
    "lat": -33.8695469,
    "lng": 151.1082549,
    "place_id": "ChIJP0ghYs66EmsRzk_8N1w_hFs",
    "maps_url": "https://www.google.com/maps/place/?q=place_id:ChIJP0ghYs66EmsRzk_8N1w_hFs",
    "rating": 2.6,
    "total_ratings": 130
  },
  {
    "name": "7-Eleven",
    "address": "1408 Pacific Hwy, Turramurra",
    "suburb": "Chatswood",
    "state": "NSW",
    "lat": -33.7330973,
    "lng": 151.126385,
    "place_id": "ChIJGbrYD8WnEmsRExNa7n3cHr0",
    "maps_url": "https://www.google.com/maps/place/?q=place_id:ChIJGbrYD8WnEmsRExNa7n3cHr0",
    "rating": 2.6,
    "total_ratings": 134
  },
  {
    "name": "Shell",
    "address": "378 Pacific Highway, Allison Ave, Lane Cove",
    "suburb": "Chatswood",
    "state": "NSW",
    "lat": -33.814041,
    "lng": 151.176869,
    "place_id": "ChIJNSlPmiSvEmsR8CVXRpHS2Cc",
    "maps_url": "https://www.google.com/maps/place/?q=place_id:ChIJNSlPmiSvEmsR8CVXRpHS2Cc",
    "rating": 3.6,
    "total_ratings": 13
  },
  {
    "name": "Shell",
    "address": "616 Willoughby Road, Penkivil St, Willoughby",
    "suburb": "Chatswood",
    "state": "NSW",
    "lat": -33.805825,
    "lng": 151.198919,
    "place_id": "ChIJRXl4Xs2uEmsRqjSeQT0pQ3I",
    "maps_url": "https://www.google.com/maps/place/?q=place_id:ChIJRXl4Xs2uEmsRqjSeQT0pQ3I",
    "rating": 3.3,
    "total_ratings": 11
  },
  {
    "name": "7-Eleven",
    "address": "Corner Pacific Hwy &, Boundary St, Roseville",
    "suburb": "Chatswood",
    "state": "NSW",
    "lat": -33.7876972,
    "lng": 151.1797322,
    "place_id": "ChIJv6fcR9qoEmsR7Kgc77JxnTg",
    "maps_url": "https://www.google.com/maps/place/?q=place_id:ChIJv6fcR9qoEmsR7Kgc77JxnTg",
    "rating": 2.8,
    "total_ratings": 98
  },
  {
    "name": "Metro Petroleum Killarney Heights",
    "address": "702-704 Warringah Rd, Killarney Heights",
    "suburb": "Chatswood",
    "state": "NSW",
    "lat": -33.7617607,
    "lng": 151.2070531,
    "place_id": "ChIJJWkVdKGpEmsRuXe4ohkP2yQ",
    "maps_url": "https://www.google.com/maps/place/?q=place_id:ChIJJWkVdKGpEmsRuXe4ohkP2yQ",
    "rating": 3.9,
    "total_ratings": 83
  },
  {
    "name": "7-Eleven",
    "address": "45 Spit Rd, Mosman",
    "suburb": "Chatswood",
    "state": "NSW",
    "lat": -33.8229192,
    "lng": 151.2436824,
    "place_id": "ChIJzx3hvAWsEmsRjnvbTHRf1tY",
    "maps_url": "https://www.google.com/maps/place/?q=place_id:ChIJzx3hvAWsEmsRjnvbTHRf1tY",
    "rating": 3.5,
    "total_ratings": 68
  },
  {
    "name": "Metro Petroleum Epping",
    "address": "30 Bridge St, Epping",
    "suburb": "Hornsby",
    "state": "NSW",
    "lat": -33.7747987,
    "lng": 151.0796851,
    "place_id": "ChIJSTrKhSekEmsRqhlUNKd_PNA",
    "maps_url": "https://www.google.com/maps/place/?q=place_id:ChIJSTrKhSekEmsRqhlUNKd_PNA",
    "rating": 3.8,
    "total_ratings": 112
  },
  {
    "name": "Metro Petroleum St Ives",
    "address": "164 Warrimoo Ave, St Ives",
    "suburb": "Hornsby",
    "state": "NSW",
    "lat": -33.7109324,
    "lng": 151.1599794,
    "place_id": "ChIJlcwzpeFXDWsRYMbQoZHbWtw",
    "maps_url": "https://www.google.com/maps/place/?q=place_id:ChIJlcwzpeFXDWsRYMbQoZHbWtw",
    "rating": 3.9,
    "total_ratings": 37
  },
  {
    "name": "Shell",
    "address": "386 Pennant Hills Rd, Pennant Hills",
    "suburb": "Hornsby",
    "state": "NSW",
    "lat": -33.7393142,
    "lng": 151.0678976,
    "place_id": "ChIJIUfoGN2mEmsRJHmzrEeKtuQ",
    "maps_url": "https://www.google.com/maps/place/?q=place_id:ChIJIUfoGN2mEmsRJHmzrEeKtuQ",
    "rating": 3.4,
    "total_ratings": 141
  },
  {
    "name": "U-GO Carlingford Court",
    "address": "797, Pennant Hills Rd, Carlingford",
    "suburb": "Hornsby",
    "state": "NSW",
    "lat": -33.7757683,
    "lng": 151.0516363,
    "place_id": "ChIJMenicgakEmsRajVvzoJfU0A",
    "maps_url": "https://www.google.com/maps/place/?q=place_id:ChIJMenicgakEmsRajVvzoJfU0A",
    "rating": 3.5,
    "total_ratings": 107
  },
  {
    "name": "bp",
    "address": "Oakes Rd, West Pennant Hills",
    "suburb": "Hornsby",
    "state": "NSW",
    "lat": -33.7542,
    "lng": 151.0406,
    "place_id": "ChIJQfGZ4lGhEmsRAKbyHE1-V9A",
    "maps_url": "https://www.google.com/maps/place/?q=place_id:ChIJQfGZ4lGhEmsRAKbyHE1-V9A",
    "rating": 4.2,
    "total_ratings": 252
  },
  {
    "name": "bp",
    "address": "Parkes St, Thornleigh",
    "suburb": "Hornsby",
    "state": "NSW",
    "lat": -33.7309357,
    "lng": 151.0806188,
    "place_id": "ChIJ1ciz2xynEmsR_EDKG0eRiuM",
    "maps_url": "https://www.google.com/maps/place/?q=place_id:ChIJ1ciz2xynEmsR_EDKG0eRiuM",
    "rating": 3.1,
    "total_ratings": 71
  },
  {
    "name": "bp",
    "address": "155 Pennant Hills Rd, Normanhurst",
    "suburb": "Hornsby",
    "state": "NSW",
    "lat": -33.72450000000001,
    "lng": 151.0901,
    "place_id": "ChIJWZpijQinEmsRAb0caWYxjgg",
    "maps_url": "https://www.google.com/maps/place/?q=place_id:ChIJWZpijQinEmsRAb0caWYxjgg",
    "rating": 3.9,
    "total_ratings": 105
  },
  {
    "name": "bp",
    "address": "George St, Hornsby",
    "suburb": "Hornsby",
    "state": "NSW",
    "lat": -33.7021884,
    "lng": 151.0996634,
    "place_id": "ChIJ33CHVIGnEmsRfrGtTdURsLI",
    "maps_url": "https://www.google.com/maps/place/?q=place_id:ChIJ33CHVIGnEmsRfrGtTdURsLI",
    "rating": 2.9,
    "total_ratings": 68
  },
  {
    "name": "7-Eleven",
    "address": "246 Beecroft Road &, Carlingford Rd, Epping",
    "suburb": "Hornsby",
    "state": "NSW",
    "lat": -33.7707916,
    "lng": 151.0808502,
    "place_id": "ChIJ400tuZymEmsRdEHe7KGhlfU",
    "maps_url": "https://www.google.com/maps/place/?q=place_id:ChIJ400tuZymEmsRdEHe7KGhlfU",
    "rating": 3.2,
    "total_ratings": 151
  },
  {
    "name": "U-GO Mount Colah",
    "address": "603 Pacific Hwy, Mount Colah",
    "suburb": "Hornsby",
    "state": "NSW",
    "lat": -33.6704215,
    "lng": 151.1152935,
    "place_id": "ChIJXxvhd0hYDWsRGw3p8trCuJ0",
    "maps_url": "https://www.google.com/maps/place/?q=place_id:ChIJXxvhd0hYDWsRGw3p8trCuJ0",
    "rating": 3.8,
    "total_ratings": 102
  },
  {
    "name": "Metro Petroleum",
    "address": "275 Pacific Hwy, Hornsby",
    "suburb": "Hornsby",
    "state": "NSW",
    "lat": -33.69107510000001,
    "lng": 151.0995432,
    "place_id": "ChIJE1S3i3tYDWsRRKWL5RBlVDQ",
    "maps_url": "https://www.google.com/maps/place/?q=place_id:ChIJE1S3i3tYDWsRRKWL5RBlVDQ",
    "rating": 3.6,
    "total_ratings": 36
  },
  {
    "name": "7-Eleven",
    "address": "552 Pennant Hills Rd, West Pennant Hills",
    "suburb": "Hornsby",
    "state": "NSW",
    "lat": -33.7468476,
    "lng": 151.0507795,
    "place_id": "ChIJnR9Cj7WmEmsRLW7PxtVsP-A",
    "maps_url": "https://www.google.com/maps/place/?q=place_id:ChIJnR9Cj7WmEmsRLW7PxtVsP-A",
    "rating": 3.3,
    "total_ratings": 81
  },
  {
    "name": "Shell",
    "address": "194-206 Pacific Hwy, Hornsby",
    "suburb": "Hornsby",
    "state": "NSW",
    "lat": -33.7072617,
    "lng": 151.0990585,
    "place_id": "ChIJF94iUYOnEmsRiVi0xoVF7MA",
    "maps_url": "https://www.google.com/maps/place/?q=place_id:ChIJF94iUYOnEmsRiVi0xoVF7MA",
    "rating": 3.4,
    "total_ratings": 55
  },
  {
    "name": "EG Ampol Dural",
    "address": "532 Old Northern Rd, Dural",
    "suburb": "Hornsby",
    "state": "NSW",
    "lat": -33.6935451,
    "lng": 151.0203688,
    "place_id": "ChIJ3eyOMJSgEmsRxq4XXWYm-Vk",
    "maps_url": "https://www.google.com/maps/place/?q=place_id:ChIJ3eyOMJSgEmsRxq4XXWYm-Vk",
    "rating": 3.5,
    "total_ratings": 122
  },
  {
    "name": "Shell",
    "address": "179-181 Mona Vale Rd, St Ives",
    "suburb": "Hornsby",
    "state": "NSW",
    "lat": -33.7311205,
    "lng": 151.1574343,
    "place_id": "ChIJk05aYROoEmsRnH-6aXuCMQY",
    "maps_url": "https://www.google.com/maps/place/?q=place_id:ChIJk05aYROoEmsRnH-6aXuCMQY",
    "rating": 3.3,
    "total_ratings": 4
  },
  {
    "name": "7-Eleven",
    "address": "340 N Rocks Rd, North Rocks",
    "suburb": "Hornsby",
    "state": "NSW",
    "lat": -33.7689762,
    "lng": 151.0306897,
    "place_id": "ChIJjUP0MOSjEmsR3EJyNXIpuaM",
    "maps_url": "https://www.google.com/maps/place/?q=place_id:ChIJjUP0MOSjEmsR3EJyNXIpuaM",
    "rating": 2.4,
    "total_ratings": 82
  },
  {
    "name": "Shell North Rocks",
    "address": "264 N Rocks Rd, North Rocks",
    "suburb": "Hornsby",
    "state": "NSW",
    "lat": -33.7750597,
    "lng": 151.0226737,
    "place_id": "ChIJp7919sGjEmsRE757L23-SFM",
    "maps_url": "https://www.google.com/maps/place/?q=place_id:ChIJp7919sGjEmsRE757L23-SFM",
    "rating": 3.6,
    "total_ratings": 75
  },
  {
    "name": "Ampol Foodary St Ives North",
    "address": "363 Mona Vale Rd, St Ives",
    "suburb": "Hornsby",
    "state": "NSW",
    "lat": -33.7168811,
    "lng": 151.1734876,
    "place_id": "ChIJs4UBjSeoEmsRSTWVMzCBEdg",
    "maps_url": "https://www.google.com/maps/place/?q=place_id:ChIJs4UBjSeoEmsRSTWVMzCBEdg",
    "rating": 3.7,
    "total_ratings": 97
  },
  {
    "name": "Bobbin Head PETROL STATION",
    "address": "313 Bobbin Head Rd, North Turramurra",
    "suburb": "Hornsby",
    "state": "NSW",
    "lat": -33.7090216,
    "lng": 151.1481085,
    "place_id": "ChIJz-Gslv1XDWsRv3Tzkb2lIzQ",
    "maps_url": "https://www.google.com/maps/place/?q=place_id:ChIJz-Gslv1XDWsRv3Tzkb2lIzQ",
    "rating": 4.7,
    "total_ratings": 45
  },
  {
    "name": "Shell",
    "address": "189 Epping Road, Culloden Rd, Marsfield",
    "suburb": "Hornsby",
    "state": "NSW",
    "lat": -33.7752463,
    "lng": 151.1053163,
    "place_id": "ChIJUUUYCnqmEmsRA_eLpJ02NG0",
    "maps_url": "https://www.google.com/maps/place/?q=place_id:ChIJUUUYCnqmEmsRA_eLpJ02NG0",
    "rating": 3.2,
    "total_ratings": 25
  },
  {
    "name": "Shell",
    "address": "188-190 Pennant Hills Rd, Thornleigh",
    "suburb": "Hornsby",
    "state": "NSW",
    "lat": -33.7249685,
    "lng": 151.0850838,
    "place_id": "ChIJ4XVxeAWnEmsRZ_baeZnTbXc",
    "maps_url": "https://www.google.com/maps/place/?q=place_id:ChIJ4XVxeAWnEmsRZ_baeZnTbXc",
    "rating": 4,
    "total_ratings": 41
  },
  {
    "name": "bp Truckstop",
    "address": "712 Pennant Hills Rd, Carlingford",
    "suburb": "Hornsby",
    "state": "NSW",
    "lat": -33.7637,
    "lng": 151.0473,
    "place_id": "ChIJSXtE1qqmEmsR_-ggyj9rZus",
    "maps_url": "https://www.google.com/maps/place/?q=place_id:ChIJSXtE1qqmEmsR_-ggyj9rZus",
    "rating": 3.3,
    "total_ratings": 138
  },
  {
    "name": "Shell",
    "address": "592-596 Old Northern Rd, Dural",
    "suburb": "Hornsby",
    "state": "NSW",
    "lat": -33.6943115,
    "lng": 151.0313596,
    "place_id": "ChIJf6ZcwLugEmsRNymFODcMrM4",
    "maps_url": "https://www.google.com/maps/place/?q=place_id:ChIJf6ZcwLugEmsRNymFODcMrM4",
    "rating": 3.1,
    "total_ratings": 23
  },
  {
    "name": "Ampol Foodary Cherrybrook",
    "address": "67 Shepherds Dr, Cherrybrook",
    "suburb": "Hornsby",
    "state": "NSW",
    "lat": -33.720658,
    "lng": 151.0452208,
    "place_id": "ChIJmcf9lNSgEmsRVDJif4dNH98",
    "maps_url": "https://www.google.com/maps/place/?q=place_id:ChIJmcf9lNSgEmsRVDJif4dNH98",
    "rating": 3.4,
    "total_ratings": 183
  },
  {
    "name": "Shell",
    "address": "369-371 Pennant Hills Rd, Pennant Hills",
    "suburb": "Hornsby",
    "state": "NSW",
    "lat": -33.738672,
    "lng": 151.073777,
    "place_id": "ChIJhbUR4-amEmsRXkiuoZf81QQ",
    "maps_url": "https://www.google.com/maps/place/?q=place_id:ChIJhbUR4-amEmsRXkiuoZf81QQ",
    "rating": 3.3,
    "total_ratings": 24
  },
  {
    "name": "Ampol Hornsby Heights petrol Station",
    "address": "110 Galston Rd, Hornsby Heights",
    "suburb": "Hornsby",
    "state": "NSW",
    "lat": -33.6766778,
    "lng": 151.0983324,
    "place_id": "ChIJ478cHF5YDWsRaO-1UqjzJ-M",
    "maps_url": "https://www.google.com/maps/place/?q=place_id:ChIJ478cHF5YDWsRaO-1UqjzJ-M",
    "rating": 3.9,
    "total_ratings": 76
  },
  {
    "name": "Metro Petroleum Thornleigh",
    "address": "171 Pennant Hills Rd, Thornleigh",
    "suburb": "Hornsby",
    "state": "NSW",
    "lat": -33.7249047,
    "lng": 151.0882618,
    "place_id": "ChIJ1XPzVACnEmsRFi1Yt2cPono",
    "maps_url": "https://www.google.com/maps/place/?q=place_id:ChIJ1XPzVACnEmsRFi1Yt2cPono",
    "rating": 3.6,
    "total_ratings": 78
  },
  {
    "name": "bp Truckstop",
    "address": "Pacific Hwy, Asquith",
    "suburb": "Hornsby",
    "state": "NSW",
    "lat": -33.6897851,
    "lng": 151.1061716,
    "place_id": "ChIJtx_w329YDWsRVvyMfqcOB-c",
    "maps_url": "https://www.google.com/maps/place/?q=place_id:ChIJtx_w329YDWsRVvyMfqcOB-c",
    "rating": 3.5,
    "total_ratings": 59
  },
  {
    "name": "bp",
    "address": "582 Old Northern Rd, Dural",
    "suburb": "Hornsby",
    "state": "NSW",
    "lat": -33.6957779,
    "lng": 151.0283634,
    "place_id": "ChIJWTJxvr6gEmsRPCbDHEXnLCs",
    "maps_url": "https://www.google.com/maps/place/?q=place_id:ChIJWTJxvr6gEmsRPCbDHEXnLCs",
    "rating": 3.7,
    "total_ratings": 23
  },
  {
    "name": "7-Eleven",
    "address": "1579 Pacific Hwy & cnr Redleaf Av, 1579 Pacific Hwy, Wahroonga",
    "suburb": "Hornsby",
    "state": "NSW",
    "lat": -33.7197916,
    "lng": 151.1168423,
    "place_id": "ChIJfx521ZSnEmsRzcOLN8dbsm4",
    "maps_url": "https://www.google.com/maps/place/?q=place_id:ChIJfx521ZSnEmsRzcOLN8dbsm4",
    "rating": 3.3,
    "total_ratings": 114
  },
  {
    "name": "Metro Petroleum Westleigh",
    "address": "128 Duffy Ave, Westleigh",
    "suburb": "Hornsby",
    "state": "NSW",
    "lat": -33.7203087,
    "lng": 151.0689478,
    "place_id": "ChIJmSpba6qnEmsRLpNKLdR-ius",
    "maps_url": "https://www.google.com/maps/place/?q=place_id:ChIJmSpba6qnEmsRLpNKLdR-ius",
    "rating": 4.2,
    "total_ratings": 5
  },
  {
    "name": "Shell",
    "address": "1601 Pacific Hwy, Coonanbarra Rd, Wahroonga",
    "suburb": "Hornsby",
    "state": "NSW",
    "lat": -33.7195751,
    "lng": 151.1163522,
    "place_id": "ChIJ1RiqR1KnEmsROm-Ilz6g3VM",
    "maps_url": "https://www.google.com/maps/place/?q=place_id:ChIJ1RiqR1KnEmsROm-Ilz6g3VM",
    "rating": 4.2,
    "total_ratings": 5
  },
  {
    "name": "EG Ampol Turramurra",
    "address": "1233 Pacific Hwy, Turramurra",
    "suburb": "Hornsby",
    "state": "NSW",
    "lat": -33.7331801,
    "lng": 151.1312187,
    "place_id": "ChIJ6Qg0ItunEmsRdv5ofgDmR0A",
    "maps_url": "https://www.google.com/maps/place/?q=place_id:ChIJ6Qg0ItunEmsRdv5ofgDmR0A",
    "rating": 3.8,
    "total_ratings": 270
  },
  {
    "name": "BP Connect",
    "address": "712 Pennant Hills Rd, Carlingford",
    "suburb": "Hornsby",
    "state": "NSW",
    "lat": -33.7637531,
    "lng": 151.0473629,
    "place_id": "ChIJSXtE1qqmEmsRggScOG6nLY8",
    "maps_url": "https://www.google.com/maps/place/?q=place_id:ChIJSXtE1qqmEmsRggScOG6nLY8",
    "rating": 3.5,
    "total_ratings": 73
  },
  {
    "name": "Ampol Foodary Dural",
    "address": "917-923, Old Northern Rd, Dural",
    "suburb": "Hornsby",
    "state": "NSW",
    "lat": -33.6829281,
    "lng": 151.0284322,
    "place_id": "ChIJV4xjNqGgEmsRztkHoo-MUaU",
    "maps_url": "https://www.google.com/maps/place/?q=place_id:ChIJV4xjNqGgEmsRztkHoo-MUaU",
    "rating": 3.6,
    "total_ratings": 95
  },
  {
    "name": "Ampol Foodary Waitara",
    "address": "Pacific Hwy Cnr, 59-61 Unwin Rd, Waitara",
    "suburb": "Hornsby",
    "state": "NSW",
    "lat": -33.7105301,
    "lng": 151.1024488,
    "place_id": "ChIJOb-n4pqnEmsRO8QN1u0WJVQ",
    "maps_url": "https://www.google.com/maps/place/?q=place_id:ChIJOb-n4pqnEmsRO8QN1u0WJVQ",
    "rating": 3.6,
    "total_ratings": 149
  },
  {
    "name": "Ampol Foodary Thornleigh",
    "address": "200-202 Pennant Hills Rd, Thornleigh",
    "suburb": "Hornsby",
    "state": "NSW",
    "lat": -33.7265643,
    "lng": 151.0836514,
    "place_id": "ChIJZyx54QSnEmsRbCaHKtQ8HPM",
    "maps_url": "https://www.google.com/maps/place/?q=place_id:ChIJZyx54QSnEmsRbCaHKtQ8HPM",
    "rating": 3.7,
    "total_ratings": 281
  },
  {
    "name": "Shell Kenthurst",
    "address": "86 Kenthurst Rd, Kenthurst",
    "suburb": "Hornsby",
    "state": "NSW",
    "lat": -33.6821338,
    "lng": 151.0107802,
    "place_id": "ChIJJyGM3YSgEmsRpK1ytDXmiYc",
    "maps_url": "https://www.google.com/maps/place/?q=place_id:ChIJJyGM3YSgEmsRpK1ytDXmiYc",
    "rating": 3.6,
    "total_ratings": 30
  },
  {
    "name": "bp Truckstop",
    "address": "369 N Rocks Rd, North Rocks",
    "suburb": "Hornsby",
    "state": "NSW",
    "lat": -33.7692153,
    "lng": 151.0318502,
    "place_id": "ChIJZ-W1UeSjEmsR8JqZxhxsQZs",
    "maps_url": "https://www.google.com/maps/place/?q=place_id:ChIJZ-W1UeSjEmsR8JqZxhxsQZs",
    "rating": 4.3,
    "total_ratings": 89
  },
  {
    "name": "bp",
    "address": "213 Kissing Point Rd, South Turramurra",
    "suburb": "Hornsby",
    "state": "NSW",
    "lat": -33.7484242,
    "lng": 151.1120765,
    "place_id": "ChIJCWR5OkmmEmsR1Wto6hEhycE",
    "maps_url": "https://www.google.com/maps/place/?q=place_id:ChIJCWR5OkmmEmsR1Wto6hEhycE",
    "rating": 4.5,
    "total_ratings": 106
  },
  {
    "name": "Shell Reddy Express MARSFIELD",
    "address": "189 Epping Rd &, Culloden Rd, Marsfield",
    "suburb": "Hornsby",
    "state": "NSW",
    "lat": -33.7752308,
    "lng": 151.1053129,
    "place_id": "ChIJySn6BnqmEmsRXN0R5lXkOUo",
    "maps_url": "https://www.google.com/maps/place/?q=place_id:ChIJySn6BnqmEmsRXN0R5lXkOUo",
    "rating": 3.3,
    "total_ratings": 173
  },
  {
    "name": "Carlingford Car Care",
    "address": "482-486 N Rocks Rd, Carlingford",
    "suburb": "Hornsby",
    "state": "NSW",
    "lat": -33.7650848,
    "lng": 151.0579048,
    "place_id": "ChIJCxqxl6imEmsRBTjjX-wEvsY",
    "maps_url": "https://www.google.com/maps/place/?q=place_id:ChIJCxqxl6imEmsRBTjjX-wEvsY",
    "rating": 3.9,
    "total_ratings": 163
  },
  {
    "name": "Shell OTR Pennant Hills West",
    "address": "386 Pennant Hills Rd, Pennant Hills",
    "suburb": "Hornsby",
    "state": "NSW",
    "lat": -33.7392433,
    "lng": 151.0679081,
    "place_id": "ChIJ_Q-wFwCnEmsRL8EXVlOFDks",
    "maps_url": "https://www.google.com/maps/place/?q=place_id:ChIJ_Q-wFwCnEmsRL8EXVlOFDks",
    "rating": 2.9,
    "total_ratings": 14
  },
  {
    "name": "Shell Reddy Express Pymble",
    "address": "21 Ryde Rd, Pymble",
    "suburb": "Hornsby",
    "state": "NSW",
    "lat": -33.7519349,
    "lng": 151.1437382,
    "place_id": "ChIJ_Z57-4CoEmsR9oXmcFcQa8o",
    "maps_url": "https://www.google.com/maps/place/?q=place_id:ChIJ_Z57-4CoEmsR9oXmcFcQa8o",
    "rating": 3.5,
    "total_ratings": 39
  },
  {
    "name": "Shell Reddy Express Wahroonga",
    "address": "1601 Pacific Hwy &, Coonanbarra Rd, Wahroonga",
    "suburb": "Hornsby",
    "state": "NSW",
    "lat": -33.719667,
    "lng": 151.116508,
    "place_id": "ChIJS0RO35SnEmsRmBv6xeuxi2Q",
    "maps_url": "https://www.google.com/maps/place/?q=place_id:ChIJS0RO35SnEmsRmBv6xeuxi2Q",
    "rating": 3.4,
    "total_ratings": 89
  },
  {
    "name": "bp Truckstop",
    "address": "Bannockburn Rd, Pymble",
    "suburb": "Hornsby",
    "state": "NSW",
    "lat": -33.74059330000001,
    "lng": 151.1379322,
    "place_id": "ChIJg1k9r4enEmsRrq7dBi9QA5k",
    "maps_url": "https://www.google.com/maps/place/?q=place_id:ChIJg1k9r4enEmsRrq7dBi9QA5k",
    "rating": 3.9,
    "total_ratings": 23
  },
  {
    "name": "Shell Reddy Express Hornsby",
    "address": "194-206 Pacific Hwy, Hornsby",
    "suburb": "Hornsby",
    "state": "NSW",
    "lat": -33.7072478,
    "lng": 151.0990488,
    "place_id": "ChIJvYaOu5ynEmsRdXLiD6x0stg",
    "maps_url": "https://www.google.com/maps/place/?q=place_id:ChIJvYaOu5ynEmsRdXLiD6x0stg",
    "rating": 3.1,
    "total_ratings": 46
  },
  {
    "name": "Shell Reddy Express ST IVES",
    "address": "179-181 Mona Vale Rd, St Ives",
    "suburb": "Hornsby",
    "state": "NSW",
    "lat": -33.7311925,
    "lng": 151.1574711,
    "place_id": "ChIJNf10YROoEmsR3cbIX32mjd0",
    "maps_url": "https://www.google.com/maps/place/?q=place_id:ChIJNf10YROoEmsR3cbIX32mjd0",
    "rating": 3.1,
    "total_ratings": 24
  },
  {
    "name": "Shell Reddy Express Thornleigh",
    "address": "188-190 Pennant Hills Rd, Thornleigh",
    "suburb": "Hornsby",
    "state": "NSW",
    "lat": -33.724824,
    "lng": 151.0852614,
    "place_id": "ChIJ4eUXgQWnEmsR9m-1FpcoutQ",
    "maps_url": "https://www.google.com/maps/place/?q=place_id:ChIJ4eUXgQWnEmsR9m-1FpcoutQ",
    "rating": 4,
    "total_ratings": 36
  },
  {
    "name": "U-Go Carlingford",
    "address": "797 Pennant Hills Rd, Carlingford",
    "suburb": "Hornsby",
    "state": "NSW",
    "lat": -33.775782,
    "lng": 151.051656,
    "place_id": "ChIJB5mv5e-lEmsRFntzDZYSFow",
    "maps_url": "https://www.google.com/maps/place/?q=place_id:ChIJB5mv5e-lEmsRFntzDZYSFow",
    "rating": 4.7,
    "total_ratings": 3
  },
  {
    "name": "Metro",
    "address": "122 Duffy Ave, Westleigh",
    "suburb": "Hornsby",
    "state": "NSW",
    "lat": -33.7204551,
    "lng": 151.0689244,
    "place_id": "ChIJQWdUNT2nEmsRE3cHxHloTVw",
    "maps_url": "https://www.google.com/maps/place/?q=place_id:ChIJQWdUNT2nEmsRE3cHxHloTVw",
    "rating": 5,
    "total_ratings": 1
  },
  {
    "name": "Shell Reddy Express DURAL",
    "address": "592-596 Old Northern Rd, Dural",
    "suburb": "Hornsby",
    "state": "NSW",
    "lat": -33.6942487,
    "lng": 151.0312761,
    "place_id": "ChIJf6ZcwLugEmsR8urMJPyXSJA",
    "maps_url": "https://www.google.com/maps/place/?q=place_id:ChIJf6ZcwLugEmsR8urMJPyXSJA",
    "rating": 3.9,
    "total_ratings": 15
  },
  {
    "name": "Otr",
    "address": "365-371 Pennant Hills Rd, Pennant Hills",
    "suburb": "Hornsby",
    "state": "NSW",
    "lat": -33.7386648,
    "lng": 151.0735808,
    "place_id": "ChIJqc2Z4-amEmsRZuRTn2-2ZRc",
    "maps_url": "https://www.google.com/maps/place/?q=place_id:ChIJqc2Z4-amEmsRZuRTn2-2ZRc",
    "rating": 1,
    "total_ratings": 2
  },
  {
    "name": "BP",
    "address": "1103 Pacific Hwy, Pymble",
    "suburb": "Hornsby",
    "state": "NSW",
    "lat": -33.7405606,
    "lng": 151.1379182,
    "place_id": "ChIJr6nRrNenEmsRn_okrqPDWE8",
    "maps_url": "https://www.google.com/maps/place/?q=place_id:ChIJr6nRrNenEmsRn_okrqPDWE8",
    "rating": 5,
    "total_ratings": 2
  },
  {
    "name": "EG Ampol",
    "address": "756 Pittwater Rd Cnr, West St, Brookvale",
    "suburb": "Manly",
    "state": "NSW",
    "lat": -33.7615517,
    "lng": 151.276282,
    "place_id": "ChIJsf3CwCyrEmsRnCMIg5cr444",
    "maps_url": "https://www.google.com/maps/place/?q=place_id:ChIJsf3CwCyrEmsRnCMIg5cr444",
    "rating": 4,
    "total_ratings": 109
  },
  {
    "name": "United Petroleum Dee Why, Pittwater (Pie Face)",
    "address": "625 Pittwater Rd, Dee Why",
    "suburb": "Manly",
    "state": "NSW",
    "lat": -33.755803,
    "lng": 151.2825823,
    "place_id": "ChIJEZ1Gw5uqEmsR5WvXvqSQfE4",
    "maps_url": "https://www.google.com/maps/place/?q=place_id:ChIJEZ1Gw5uqEmsR5WvXvqSQfE4",
    "rating": 3.8,
    "total_ratings": 109
  },
  {
    "name": "United Petroleum Dee Why Beach (Pie Face)",
    "address": "1 The Strand, Dee Why",
    "suburb": "Manly",
    "state": "NSW",
    "lat": -33.7557177,
    "lng": 151.2959842,
    "place_id": "ChIJEZ1Gw5uqEmsR-LuLwg2yPo4",
    "maps_url": "https://www.google.com/maps/place/?q=place_id:ChIJEZ1Gw5uqEmsR-LuLwg2yPo4",
    "rating": 4.2,
    "total_ratings": 53
  },
  {
    "name": "SHELL CROMER",
    "address": "189 S Creek Rd, Cromer",
    "suburb": "Manly",
    "state": "NSW",
    "lat": -33.7360766,
    "lng": 151.2802923,
    "place_id": "ChIJRYE6gnhVDWsRpet9y0M2jLk",
    "maps_url": "https://www.google.com/maps/place/?q=place_id:ChIJRYE6gnhVDWsRpet9y0M2jLk",
    "rating": 4.3,
    "total_ratings": 76
  },
  {
    "name": "BP",
    "address": "133-139 Pittwater Rd, Manly",
    "suburb": "Manly",
    "state": "NSW",
    "lat": -33.7902786,
    "lng": 151.2849318,
    "place_id": "ChIJEfdjSQGrEmsRM2f5GoQo-Io",
    "maps_url": "https://www.google.com/maps/place/?q=place_id:ChIJEfdjSQGrEmsRM2f5GoQo-Io",
    "rating": 3.9,
    "total_ratings": 96
  },
  {
    "name": "Ampol Foodary Manly",
    "address": "86 Pittwater Rd, Manly",
    "suburb": "Manly",
    "state": "NSW",
    "lat": -33.7929217,
    "lng": 151.2857212,
    "place_id": "ChIJz8wFggarEmsRDkg3IofsqYg",
    "maps_url": "https://www.google.com/maps/place/?q=place_id:ChIJz8wFggarEmsRDkg3IofsqYg",
    "rating": 3.5,
    "total_ratings": 111
  },
  {
    "name": "Enhance freshwater",
    "address": "46 Albert St, Freshwater",
    "suburb": "Manly",
    "state": "NSW",
    "lat": -33.7773733,
    "lng": 151.286977,
    "place_id": "ChIJJcFDPPqqEmsR6jkuWFLBzE0",
    "maps_url": "https://www.google.com/maps/place/?q=place_id:ChIJJcFDPPqqEmsR6jkuWFLBzE0",
    "rating": 4.4,
    "total_ratings": 43
  },
  {
    "name": "Shell",
    "address": "200-204 Ben Boyd Road, Ernest St, Neutral Bay",
    "suburb": "Manly",
    "state": "NSW",
    "lat": -33.8290651,
    "lng": 151.2194378,
    "place_id": "ChIJg32VDL2uEmsRxVoB9sQV3WM",
    "maps_url": "https://www.google.com/maps/place/?q=place_id:ChIJg32VDL2uEmsRxVoB9sQV3WM",
    "rating": 3.4,
    "total_ratings": 5
  },
  {
    "name": "Ampol Foodary Manly Vale",
    "address": "236-238 Condamine St, Manly Vale",
    "suburb": "Manly",
    "state": "NSW",
    "lat": -33.7850644,
    "lng": 151.2673269,
    "place_id": "ChIJyT6gFLKrEmsRb2OiyGWVV7A",
    "maps_url": "https://www.google.com/maps/place/?q=place_id:ChIJyT6gFLKrEmsRb2OiyGWVV7A",
    "rating": 3.6,
    "total_ratings": 43
  },
  {
    "name": "Shell",
    "address": "61-63 Cowper Wharf Roadway, Dowling St, Woolloomooloo",
    "suburb": "Manly",
    "state": "NSW",
    "lat": -33.869571,
    "lng": 151.221296,
    "place_id": "ChIJSTUsK-QRnGsRTxQ-3Vz2MDs",
    "maps_url": "https://www.google.com/maps/place/?q=place_id:ChIJSTUsK-QRnGsRTxQ-3Vz2MDs",
    "rating": 2.6,
    "total_ratings": 25
  },
  {
    "name": "OTR",
    "address": "616-626 Willoughby Rd, Willoughby",
    "suburb": "Manly",
    "state": "NSW",
    "lat": -33.8058833,
    "lng": 151.1989514,
    "place_id": "ChIJ02N_Xs2uEmsRDJm4zClhXRU",
    "maps_url": "https://www.google.com/maps/place/?q=place_id:ChIJ02N_Xs2uEmsRDJm4zClhXRU",
    "rating": 4.8,
    "total_ratings": 29
  },
  {
    "name": "Ampol Foodary Neutral Bay",
    "address": "16-38, Military Rd, Neutral Bay",
    "suburb": "Manly",
    "state": "NSW",
    "lat": -33.8291308,
    "lng": 151.216528,
    "place_id": "ChIJw1-m_L2uEmsR5TxyjPELLeI",
    "maps_url": "https://www.google.com/maps/place/?q=place_id:ChIJw1-m_L2uEmsR5TxyjPELLeI",
    "rating": 3.5,
    "total_ratings": 258
  },
  {
    "name": "Shell OTR Willoughby",
    "address": "616-626 Willoughby Rd (Corner, Penkivil St, Willoughby",
    "suburb": "Manly",
    "state": "NSW",
    "lat": -33.8060074,
    "lng": 151.1986755,
    "place_id": "ChIJd-rZXc2uEmsRVdtS-0Xtq74",
    "maps_url": "https://www.google.com/maps/place/?q=place_id:ChIJd-rZXc2uEmsRVdtS-0Xtq74",
    "rating": 3.8,
    "total_ratings": 67
  },
  {
    "name": "ARKO Energy Freshwater",
    "address": "Shop 2/119 Harbord Rd, Freshwater",
    "suburb": "Manly",
    "state": "NSW",
    "lat": -33.7726763,
    "lng": 151.2793924,
    "place_id": "ChIJT0QlsY6rEmsRmXCpCQQGU74",
    "maps_url": "https://www.google.com/maps/place/?q=place_id:ChIJT0QlsY6rEmsRmXCpCQQGU74",
    "rating": 4.2,
    "total_ratings": 52
  },
  {
    "name": "Shell",
    "address": "198 Harbord Road, Winbourne Rd, Brookvale",
    "suburb": "Manly",
    "state": "NSW",
    "lat": -33.7632413,
    "lng": 151.2794465,
    "place_id": "ChIJoXB4D2CqEmsR7xXbMj-eiOo",
    "maps_url": "https://www.google.com/maps/place/?q=place_id:ChIJoXB4D2CqEmsR7xXbMj-eiOo",
    "rating": 2.6,
    "total_ratings": 8
  },
  {
    "name": "Metro Petroleum Castle Cove",
    "address": "327 Eastern Valley Way, Castle Cove",
    "suburb": "Manly",
    "state": "NSW",
    "lat": -33.7848536,
    "lng": 151.2008864,
    "place_id": "ChIJH702fT2pEmsRYxzhfJcD8gc",
    "maps_url": "https://www.google.com/maps/place/?q=place_id:ChIJH702fT2pEmsRYxzhfJcD8gc",
    "rating": 4,
    "total_ratings": 42
  },
  {
    "name": "7-Eleven Dee Why",
    "address": "940 Pittwater Rd, Dee Why",
    "suburb": "Manly",
    "state": "NSW",
    "lat": -33.7490757,
    "lng": 151.290318,
    "place_id": "ChIJDSDYGYOqEmsR8RJEfFhTvoU",
    "maps_url": "https://www.google.com/maps/place/?q=place_id:ChIJDSDYGYOqEmsR8RJEfFhTvoU",
    "rating": 3.7,
    "total_ratings": 53
  },
  {
    "name": "Ampol Foodary Beacon Hill",
    "address": "176 Warringah Rd, Beacon Hill",
    "suburb": "Manly",
    "state": "NSW",
    "lat": -33.7537846,
    "lng": 151.2602073,
    "place_id": "ChIJ4S5ph2uqEmsRUW47pt0VHuU",
    "maps_url": "https://www.google.com/maps/place/?q=place_id:ChIJ4S5ph2uqEmsRUW47pt0VHuU",
    "rating": 3.5,
    "total_ratings": 122
  },
  {
    "name": "Ampol Foodary Brookvale",
    "address": "740-742, Pittwater Rd, Brookvale",
    "suburb": "Manly",
    "state": "NSW",
    "lat": -33.7614478,
    "lng": 151.2745282,
    "place_id": "ChIJ0XoJyGCqEmsROvFTogg5ZfI",
    "maps_url": "https://www.google.com/maps/place/?q=place_id:ChIJ0XoJyGCqEmsROvFTogg5ZfI",
    "rating": 3.6,
    "total_ratings": 107
  },
  {
    "name": "bp",
    "address": "777 New South Head Rd, Rose Bay",
    "suburb": "Manly",
    "state": "NSW",
    "lat": -33.8705867,
    "lng": 151.2687134,
    "place_id": "ChIJFcL5KK6tEmsRSOh3YRXjTUU",
    "maps_url": "https://www.google.com/maps/place/?q=place_id:ChIJFcL5KK6tEmsRSOh3YRXjTUU",
    "rating": 1.2,
    "total_ratings": 24
  },
  {
    "name": "bp",
    "address": "632 Warringah Rd, Forestville",
    "suburb": "Manly",
    "state": "NSW",
    "lat": -33.7599776,
    "lng": 151.2142074,
    "place_id": "ChIJ2SyDoJmpEmsRW2hZ0c-bniE",
    "maps_url": "https://www.google.com/maps/place/?q=place_id:ChIJ2SyDoJmpEmsRW2hZ0c-bniE",
    "rating": 4,
    "total_ratings": 195
  },
  {
    "name": "bp",
    "address": "Flers St, Allambie Heights",
    "suburb": "Manly",
    "state": "NSW",
    "lat": -33.7651245,
    "lng": 151.2496611,
    "place_id": "ChIJD_eBaTqqEmsR_Vj5h9jKIPk",
    "maps_url": "https://www.google.com/maps/place/?q=place_id:ChIJD_eBaTqqEmsR_Vj5h9jKIPk",
    "rating": 3.4,
    "total_ratings": 74
  },
  {
    "name": "Ampol Foodary Dee Why",
    "address": "793-797, Pittwater Rd, Dee Why",
    "suburb": "Manly",
    "state": "NSW",
    "lat": -33.745684,
    "lng": 151.29206,
    "place_id": "ChIJYQY-rmJVDWsRi2_WzxRv13g",
    "maps_url": "https://www.google.com/maps/place/?q=place_id:ChIJYQY-rmJVDWsRi2_WzxRv13g",
    "rating": 4.1,
    "total_ratings": 113
  },
  {
    "name": "BP North Manly",
    "address": "504 Pittwater Rd, Manly",
    "suburb": "Manly",
    "state": "NSW",
    "lat": -33.7750865,
    "lng": 151.270631,
    "place_id": "ChIJC2nENBdVDWsRGpI2hz7axBs",
    "maps_url": "https://www.google.com/maps/place/?q=place_id:ChIJC2nENBdVDWsRGpI2hz7axBs",
    "rating": 4.1,
    "total_ratings": 113
  },
  {
    "name": "Shell OTR Woolloomooloo",
    "address": "61-63 Cowper Wharf Rd (Corner, Dowling St, Woolloomooloo",
    "suburb": "Manly",
    "state": "NSW",
    "lat": -33.8695323,
    "lng": 151.2212463,
    "place_id": "ChIJVR77fm2uEmsRDRFH0Wwmfp0",
    "maps_url": "https://www.google.com/maps/place/?q=place_id:ChIJVR77fm2uEmsRDRFH0Wwmfp0",
    "rating": 3.2,
    "total_ratings": 100
  },
  {
    "name": "Ampol Belrose",
    "address": "153 Forest Way, Belrose",
    "suburb": "Manly",
    "state": "NSW",
    "lat": -33.734767,
    "lng": 151.2210478,
    "place_id": "ChIJP-PyueSpEmsRUCovyz6V5sM",
    "maps_url": "https://www.google.com/maps/place/?q=place_id:ChIJP-PyueSpEmsRUCovyz6V5sM",
    "rating": 3.3,
    "total_ratings": 41
  },
  {
    "name": "Shell Reddy Express Cremorne",
    "address": "227 Military Rd, Cremorne",
    "suburb": "Manly",
    "state": "NSW",
    "lat": -33.8306666,
    "lng": 151.2262018,
    "place_id": "ChIJ1TSrQKKuEmsR2uXC2usy_lM",
    "maps_url": "https://www.google.com/maps/place/?q=place_id:ChIJ1TSrQKKuEmsR2uXC2usy_lM",
    "rating": 3,
    "total_ratings": 39
  },
  {
    "name": "Shell Reddy Express Forestville",
    "address": "665-671 Warringah Rd (Corner, Cook St, Forestville",
    "suburb": "Manly",
    "state": "NSW",
    "lat": -33.7606473,
    "lng": 151.218375,
    "place_id": "ChIJPxGrYJqpEmsRqYQ92DZQ_3s",
    "maps_url": "https://www.google.com/maps/place/?q=place_id:ChIJPxGrYJqpEmsRqYQ92DZQ_3s",
    "rating": 3.7,
    "total_ratings": 75
  },
  {
    "name": "7-Eleven",
    "address": "64 Clarence St, Sydney",
    "suburb": "Manly",
    "state": "NSW",
    "lat": -33.8665281,
    "lng": 151.2051344,
    "place_id": "ChIJb3-Gt0CuEmsRMZDhn8zPstg",
    "maps_url": "https://www.google.com/maps/place/?q=place_id:ChIJb3-Gt0CuEmsRMZDhn8zPstg",
    "rating": 2.5,
    "total_ratings": 79
  },
  {
    "name": "Arko Energy Forestville",
    "address": "656 Warringah Rd, Forestville",
    "suburb": "Manly",
    "state": "NSW",
    "lat": -33.7597509,
    "lng": 151.2120271,
    "place_id": "ChIJH3L485ipEmsRj758ouKKz0Q",
    "maps_url": "https://www.google.com/maps/place/?q=place_id:ChIJH3L485ipEmsRj758ouKKz0Q",
    "rating": 4.7,
    "total_ratings": 19
  },
  {
    "name": "Shell Reddy Express Neutral Bay",
    "address": "200-204 Ben Boyd Rd (Corner, Ernest St, Neutral Bay",
    "suburb": "Manly",
    "state": "NSW",
    "lat": -33.8291877,
    "lng": 151.2193638,
    "place_id": "ChIJ2WwSEr2uEmsRplcU3k9y7U4",
    "maps_url": "https://www.google.com/maps/place/?q=place_id:ChIJ2WwSEr2uEmsRplcU3k9y7U4",
    "rating": 3.3,
    "total_ratings": 23
  },
  {
    "name": "Shell Reddy Express Cammeray",
    "address": "477-483 Miller St &, Palmer St, Cammeray",
    "suburb": "Manly",
    "state": "NSW",
    "lat": -33.8214512,
    "lng": 151.2108494,
    "place_id": "ChIJv3eohLiuEmsRmsywXBl7OP4",
    "maps_url": "https://www.google.com/maps/place/?q=place_id:ChIJv3eohLiuEmsRmsywXBl7OP4",
    "rating": 3.3,
    "total_ratings": 29
  },
  {
    "name": "Vortex",
    "address": "22 A8, Neutral Bay",
    "suburb": "Manly",
    "state": "NSW",
    "lat": -33.8291269,
    "lng": 151.2162193,
    "place_id": "ChIJtwTITACvEmsRKmKxVUKpbYk",
    "maps_url": "https://www.google.com/maps/place/?q=place_id:ChIJtwTITACvEmsRKmKxVUKpbYk",
    "rating": null,
    "total_ratings": 0
  },
  {
    "name": "Shell Reddy Express Brookvale",
    "address": "198 Harbord Rd (Corner, Winbourne Rd, Brookvale",
    "suburb": "Manly",
    "state": "NSW",
    "lat": -33.7633686,
    "lng": 151.2794287,
    "place_id": "ChIJR6jzHGCqEmsRfRvz4xWBBjU",
    "maps_url": "https://www.google.com/maps/place/?q=place_id:ChIJR6jzHGCqEmsRfRvz4xWBBjU",
    "rating": 4,
    "total_ratings": 31
  },
  {
    "name": "Shell",
    "address": "777 New South Head Rd, Rose Bay",
    "suburb": "Manly",
    "state": "NSW",
    "lat": -33.87056,
    "lng": 151.2687063,
    "place_id": "ChIJC7IssRitEmsRca3yPx0eMes",
    "maps_url": "https://www.google.com/maps/place/?q=place_id:ChIJC7IssRitEmsRca3yPx0eMes",
    "rating": 2.5,
    "total_ratings": 2
  },
  {
    "name": "Quickstop",
    "address": "Dee Why",
    "suburb": "Manly",
    "state": "NSW",
    "lat": -33.7560562,
    "lng": 151.2829903,
    "place_id": "ChIJv_MSXIiqEmsRUmtdacmRavs",
    "maps_url": "https://www.google.com/maps/place/?q=place_id:ChIJv_MSXIiqEmsRUmtdacmRavs",
    "rating": 5,
    "total_ratings": 1
  },
  {
    "name": "bp pulse Charging Station",
    "address": "485 Sydney Rd, Balgowlah",
    "suburb": "Manly",
    "state": "NSW",
    "lat": -33.7953613,
    "lng": 151.2560202,
    "place_id": "ChIJ_f-rkcCrEmsR7OUPSSLp1bk",
    "maps_url": "https://www.google.com/maps/place/?q=place_id:ChIJ_f-rkcCrEmsR7OUPSSLp1bk",
    "rating": 3.5,
    "total_ratings": 6
  },
  {
    "name": "SPEEDWAY SUNNYHOLT",
    "address": "162 Sunnyholt Rd, Kings Park",
    "suburb": "Parramatta",
    "state": "NSW",
    "lat": -33.7518244,
    "lng": 150.9153039,
    "place_id": "ChIJ5VlPhd2YEmsRXsioP4p4Zgo",
    "maps_url": "https://www.google.com/maps/place/?q=place_id:ChIJ5VlPhd2YEmsRXsioP4p4Zgo",
    "rating": 3.8,
    "total_ratings": 113
  },
  {
    "name": "SPEEDWAY PARRAMATTA",
    "address": "127A Alfred St, Parramatta",
    "suburb": "Parramatta",
    "state": "NSW",
    "lat": -33.8178101,
    "lng": 151.0175266,
    "place_id": "ChIJ97loWjajEmsRTFQo1FdGykw",
    "maps_url": "https://www.google.com/maps/place/?q=place_id:ChIJ97loWjajEmsRTFQo1FdGykw",
    "rating": 4.1,
    "total_ratings": 128
  },
  {
    "name": "Speedway Auburn",
    "address": "238 Wellington Rd &, Cumberland Rd, Auburn",
    "suburb": "Parramatta",
    "state": "NSW",
    "lat": -33.8641993,
    "lng": 151.0231861,
    "place_id": "ChIJt5Q42uq8EmsR8SS7lmQgt4o",
    "maps_url": "https://www.google.com/maps/place/?q=place_id:ChIJt5Q42uq8EmsR8SS7lmQgt4o",
    "rating": 4.1,
    "total_ratings": 117
  },
  {
    "name": "SPEEDWAY PARK RD",
    "address": "360 Park Rd, Regents Park",
    "suburb": "Parramatta",
    "state": "NSW",
    "lat": -33.8789873,
    "lng": 151.0247944,
    "place_id": "ChIJSb7IOIu8EmsR11s2IJarH80",
    "maps_url": "https://www.google.com/maps/place/?q=place_id:ChIJSb7IOIu8EmsR11s2IJarH80",
    "rating": 3.9,
    "total_ratings": 45
  },
  {
    "name": "Westside Petroleum",
    "address": "210 Guildford Rd, Guildford",
    "suburb": "Parramatta",
    "state": "NSW",
    "lat": -33.8550922,
    "lng": 150.990726,
    "place_id": "ChIJAQDcaRi9EmsRnURQetFftyo",
    "maps_url": "https://www.google.com/maps/place/?q=place_id:ChIJAQDcaRi9EmsRnURQetFftyo",
    "rating": 4.2,
    "total_ratings": 80
  },
  {
    "name": "SPEEDWAY REGENTS PARK",
    "address": "27 Amy St, Regents Park",
    "suburb": "Parramatta",
    "state": "NSW",
    "lat": -33.8838337,
    "lng": 151.0265742,
    "place_id": "ChIJ69wb1WG8EmsReE6VhHG14XE",
    "maps_url": "https://www.google.com/maps/place/?q=place_id:ChIJ69wb1WG8EmsReE6VhHG14XE",
    "rating": 3.2,
    "total_ratings": 24
  },
  {
    "name": "Speedway Westmead",
    "address": "67 Hawkesbury Rd, Westmead",
    "suburb": "Parramatta",
    "state": "NSW",
    "lat": -33.8133499,
    "lng": 150.9857864,
    "place_id": "ChIJ6an1XMKiEmsRVdxdGPdtYkk",
    "maps_url": "https://www.google.com/maps/place/?q=place_id:ChIJ6an1XMKiEmsRVdxdGPdtYkk",
    "rating": 3.7,
    "total_ratings": 229
  },
  {
    "name": "Metro Petroleum",
    "address": "5 Picasso Cres, Old Toongabbie",
    "suburb": "Parramatta",
    "state": "NSW",
    "lat": -33.786391,
    "lng": 150.967335,
    "place_id": "ChIJJYlZnmKiEmsRZOOHd2yPoe0",
    "maps_url": "https://www.google.com/maps/place/?q=place_id:ChIJJYlZnmKiEmsRZOOHd2yPoe0",
    "rating": 4.1,
    "total_ratings": 137
  },
  {
    "name": "Speedway South Granville (Clyde St)",
    "address": "171 Clyde St, South Granville",
    "suburb": "Parramatta",
    "state": "NSW",
    "lat": -33.847445,
    "lng": 151.012921,
    "place_id": "ChIJRZbgz8-8EmsRVfCLe4uj8oA",
    "maps_url": "https://www.google.com/maps/place/?q=place_id:ChIJRZbgz8-8EmsRVfCLe4uj8oA",
    "rating": 4.3,
    "total_ratings": 259
  },
  {
    "name": "SPEEDWAY WENTWORTHVILLE",
    "address": "57 Station St, Wentworthville",
    "suburb": "Parramatta",
    "state": "NSW",
    "lat": -33.8091684,
    "lng": 150.9715512,
    "place_id": "ChIJx05AkqKjEmsR0YLlhhF5HFA",
    "maps_url": "https://www.google.com/maps/place/?q=place_id:ChIJx05AkqKjEmsR0YLlhhF5HFA",
    "rating": 3.6,
    "total_ratings": 55
  },
  {
    "name": "Enhance Homebush",
    "address": "242 Parramatta Rd, Homebush",
    "suburb": "Parramatta",
    "state": "NSW",
    "lat": -33.8615963,
    "lng": 151.0763394,
    "place_id": "ChIJWXMJSzG7EmsR0CDz-Wh9AQ8",
    "maps_url": "https://www.google.com/maps/place/?q=place_id:ChIJWXMJSzG7EmsR0CDz-Wh9AQ8",
    "rating": 4.1,
    "total_ratings": 233
  },
  {
    "name": "Metro Petroleum",
    "address": "148 Sunnyholt Rd, Blacktown",
    "suburb": "Parramatta",
    "state": "NSW",
    "lat": -33.7529669,
    "lng": 150.9149168,
    "place_id": "ChIJnzMvZOeYEmsREldpbtiemAc",
    "maps_url": "https://www.google.com/maps/place/?q=place_id:ChIJnzMvZOeYEmsREldpbtiemAc",
    "rating": 4.2,
    "total_ratings": 266
  },
  {
    "name": "Metro Petroleum Guildford",
    "address": "2 Rawson Rd, Guildford",
    "suburb": "Parramatta",
    "state": "NSW",
    "lat": -33.8636309,
    "lng": 151.0089191,
    "place_id": "ChIJ7cnYn7q9EmsR7yJLDUgJoHQ",
    "maps_url": "https://www.google.com/maps/place/?q=place_id:ChIJ7cnYn7q9EmsR7yJLDUgJoHQ",
    "rating": 3.5,
    "total_ratings": 106
  },
  {
    "name": "EG Ampol",
    "address": "240 Prospect Hwy, Seven Hills",
    "suburb": "Parramatta",
    "state": "NSW",
    "lat": -33.7762588,
    "lng": 150.9332855,
    "place_id": "ChIJaxqlB4yYEmsRIWs9nKEAK6I",
    "maps_url": "https://www.google.com/maps/place/?q=place_id:ChIJaxqlB4yYEmsRIWs9nKEAK6I",
    "rating": 4.1,
    "total_ratings": 260
  },
  {
    "name": "Metro Sefton",
    "address": "101 Hector St, Sefton",
    "suburb": "Parramatta",
    "state": "NSW",
    "lat": -33.883908,
    "lng": 151.007148,
    "place_id": "ChIJjxTAzeS9EmsR6OAVfTWZB54",
    "maps_url": "https://www.google.com/maps/place/?q=place_id:ChIJjxTAzeS9EmsR6OAVfTWZB54",
    "rating": 3.8,
    "total_ratings": 59
  },
  {
    "name": "U-GO Baulkham Hills",
    "address": "117 Seven Hills Rd, Baulkham Hills",
    "suburb": "Parramatta",
    "state": "NSW",
    "lat": -33.7613506,
    "lng": 150.9751544,
    "place_id": "ChIJjzb8OBaiEmsRWaG-zHy6U68",
    "maps_url": "https://www.google.com/maps/place/?q=place_id:ChIJjzb8OBaiEmsRWaG-zHy6U68",
    "rating": 4.1,
    "total_ratings": 117
  },
  {
    "name": "Metro Petroleum Canley Heights",
    "address": "190 Canley Vale Rd, Canley Heights",
    "suburb": "Parramatta",
    "state": "NSW",
    "lat": -33.8844325,
    "lng": 150.9285399,
    "place_id": "ChIJ355LhWyWEmsRQCxnm1_PYbs",
    "maps_url": "https://www.google.com/maps/place/?q=place_id:ChIJ355LhWyWEmsRQCxnm1_PYbs",
    "rating": 4,
    "total_ratings": 76
  },
  {
    "name": "Budget Petrol",
    "address": "Halsall St, Granville",
    "suburb": "Parramatta",
    "state": "NSW",
    "lat": -33.8306565,
    "lng": 151.0040102,
    "place_id": "ChIJKU8ScSmjEmsRGeC5CBGyjTY",
    "maps_url": "https://www.google.com/maps/place/?q=place_id:ChIJKU8ScSmjEmsRGeC5CBGyjTY",
    "rating": 3.9,
    "total_ratings": 87
  },
  {
    "name": "Shell",
    "address": "18 Parramatta Rd, Lidcombe",
    "suburb": "Parramatta",
    "state": "NSW",
    "lat": -33.8539973,
    "lng": 151.0593396,
    "place_id": "ChIJi2HAhU27EmsRPkik1unm--Y",
    "maps_url": "https://www.google.com/maps/place/?q=place_id:ChIJi2HAhU27EmsRPkik1unm--Y",
    "rating": 3.8,
    "total_ratings": 135
  },
  {
    "name": "Akshar Enterprise PTY LTD T/A Power Fuel",
    "address": "101 Blaxcell St, Granville",
    "suburb": "Parramatta",
    "state": "NSW",
    "lat": -33.8425323,
    "lng": 151.0105443,
    "place_id": "ChIJy9hlPtK8EmsR-2P1ieFyLIk",
    "maps_url": "https://www.google.com/maps/place/?q=place_id:ChIJy9hlPtK8EmsR-2P1ieFyLIk",
    "rating": 4.5,
    "total_ratings": 235
  },
  {
    "name": "Enhance Merrylands",
    "address": "506 Merrylands Rd, Merrylands",
    "suburb": "Parramatta",
    "state": "NSW",
    "lat": -33.8325957,
    "lng": 150.9697606,
    "place_id": "ChIJs-OaI0y9EmsRIbLtwlkU-AA",
    "maps_url": "https://www.google.com/maps/place/?q=place_id:ChIJs-OaI0y9EmsRIbLtwlkU-AA",
    "rating": 3.9,
    "total_ratings": 57
  },
  {
    "name": "Speedway Smithfield",
    "address": "26/28 Cumberland Hwy, Smithfield",
    "suburb": "Parramatta",
    "state": "NSW",
    "lat": -33.8514681,
    "lng": 150.9429168,
    "place_id": "ChIJqx62rtqXEmsRRi3mXdito6Y",
    "maps_url": "https://www.google.com/maps/place/?q=place_id:ChIJqx62rtqXEmsRRi3mXdito6Y",
    "rating": 4.1,
    "total_ratings": 168
  },
  {
    "name": "EG Ampol",
    "address": "158 Clyde Street Cnr, Redfern St, Granville",
    "suburb": "Parramatta",
    "state": "NSW",
    "lat": -33.8462252,
    "lng": 151.0126585,
    "place_id": "ChIJj1U8Kc68EmsRPaZ0q6ZSMMw",
    "maps_url": "https://www.google.com/maps/place/?q=place_id:ChIJj1U8Kc68EmsRPaZ0q6ZSMMw",
    "rating": 4,
    "total_ratings": 120
  },
  {
    "name": "Speedway Auburn Road",
    "address": "74/78 Auburn Rd, Auburn",
    "suburb": "Parramatta",
    "state": "NSW",
    "lat": -33.8546338,
    "lng": 151.0324337,
    "place_id": "ChIJ21MjfLq8EmsRdSoMhJmDBNA",
    "maps_url": "https://www.google.com/maps/place/?q=place_id:ChIJ21MjfLq8EmsRdSoMhJmDBNA",
    "rating": 3.5,
    "total_ratings": 100
  },
  {
    "name": "SPEEDWAY HORSLEY DRIVE",
    "address": "769 The Horsley Dr, Smithfield",
    "suburb": "Parramatta",
    "state": "NSW",
    "lat": -33.8521316,
    "lng": 150.9321382,
    "place_id": "ChIJPXnTt8mXEmsRmayjl0VCdNg",
    "maps_url": "https://www.google.com/maps/place/?q=place_id:ChIJPXnTt8mXEmsRmayjl0VCdNg",
    "rating": 4.4,
    "total_ratings": 170
  },
  {
    "name": "Prime Auburn",
    "address": "80/98 Park Rd, Auburn",
    "suburb": "Parramatta",
    "state": "NSW",
    "lat": -33.8572317,
    "lng": 151.0288508,
    "place_id": "ChIJxwp5aLm8EmsRyYh-xZmQC-M",
    "maps_url": "https://www.google.com/maps/place/?q=place_id:ChIJxwp5aLm8EmsRyYh-xZmQC-M",
    "rating": 4,
    "total_ratings": 31
  },
  {
    "name": "EG Ampol Newington",
    "address": "1 Ave of the Americas, Newington",
    "suburb": "Parramatta",
    "state": "NSW",
    "lat": -33.8337761,
    "lng": 151.0555548,
    "place_id": "ChIJTYcCnqOkEmsRF1ZqkKiyT9o",
    "maps_url": "https://www.google.com/maps/place/?q=place_id:ChIJTYcCnqOkEmsRF1ZqkKiyT9o",
    "rating": 3.5,
    "total_ratings": 106
  },
  {
    "name": "bp",
    "address": "257 Guildford Rd, Guildford",
    "suburb": "Parramatta",
    "state": "NSW",
    "lat": -33.85438329999999,
    "lng": 150.9888646,
    "place_id": "ChIJVVVB9he9EmsR-5tkhS48yIw",
    "maps_url": "https://www.google.com/maps/place/?q=place_id:ChIJVVVB9he9EmsR-5tkhS48yIw",
    "rating": 4,
    "total_ratings": 93
  },
  {
    "name": "BP Dundas (JASBE)",
    "address": "256 Kissing Point Rd, Dundas",
    "suburb": "Parramatta",
    "state": "NSW",
    "lat": -33.7989395,
    "lng": 151.0543179,
    "place_id": "ChIJD5d4EXqkEmsRH_q8lGYf-3g",
    "maps_url": "https://www.google.com/maps/place/?q=place_id:ChIJD5d4EXqkEmsRH_q8lGYf-3g",
    "rating": 3.8,
    "total_ratings": 203
  },
  {
    "name": "BP Baulkham Hills (JASBE)",
    "address": "134 Seven Hills Rd, Baulkham Hills",
    "suburb": "Parramatta",
    "state": "NSW",
    "lat": -33.7616125,
    "lng": 150.9740938,
    "place_id": "ChIJjySEixaiEmsRPYSVviIBv7M",
    "maps_url": "https://www.google.com/maps/place/?q=place_id:ChIJjySEixaiEmsRPYSVviIBv7M",
    "rating": 4,
    "total_ratings": 84
  },
  {
    "name": "7-Eleven",
    "address": "81 Macarthur St, Parramatta",
    "suburb": "Parramatta",
    "state": "NSW",
    "lat": -33.8091429,
    "lng": 151.0143749,
    "place_id": "ChIJuVI9JhCjEmsRY0UeRNuw3us",
    "maps_url": "https://www.google.com/maps/place/?q=place_id:ChIJuVI9JhCjEmsRY0UeRNuw3us",
    "rating": 3.2,
    "total_ratings": 142
  },
  {
    "name": "Metro Petroleum",
    "address": "59 The Crescent, Toongabbie",
    "suburb": "Parramatta",
    "state": "NSW",
    "lat": -33.7958933,
    "lng": 150.9298242,
    "place_id": "ChIJwbCkPUCYEmsREeuFrcgRXeA",
    "maps_url": "https://www.google.com/maps/place/?q=place_id:ChIJwbCkPUCYEmsREeuFrcgRXeA",
    "rating": 4.1,
    "total_ratings": 108
  },
  {
    "name": "Medco Carlingford",
    "address": "288 Pennant Hills Rd, Carlingford",
    "suburb": "Parramatta",
    "state": "NSW",
    "lat": -33.78495890000001,
    "lng": 151.0435111,
    "place_id": "ChIJveIA0PSjEmsR0dexQ90rhGU",
    "maps_url": "https://www.google.com/maps/place/?q=place_id:ChIJveIA0PSjEmsR0dexQ90rhGU",
    "rating": 4.4,
    "total_ratings": 250
  },
  {
    "name": "bp",
    "address": "1233 Victoria Road, Marsden Rd, West Ryde",
    "suburb": "Parramatta",
    "state": "NSW",
    "lat": -33.8067014,
    "lng": 151.0711163,
    "place_id": "ChIJt2wr812kEmsRjggJqjhRmLI",
    "maps_url": "https://www.google.com/maps/place/?q=place_id:ChIJt2wr812kEmsRjggJqjhRmLI",
    "rating": 2.9,
    "total_ratings": 84
  },
  {
    "name": "bp",
    "address": "James Ruse Dr, Rosehill",
    "suburb": "Parramatta",
    "state": "NSW",
    "lat": -33.8194933,
    "lng": 151.021292,
    "place_id": "ChIJd-kqEhWjEmsRTx7WNj-wPnA",
    "maps_url": "https://www.google.com/maps/place/?q=place_id:ChIJd-kqEhWjEmsRTx7WNj-wPnA",
    "rating": 3.1,
    "total_ratings": 79
  },
  {
    "name": "Ampol",
    "address": "Stubbs Street, Cnr Parramatta Rd, Auburn",
    "suburb": "Parramatta",
    "state": "NSW",
    "lat": -33.8411822,
    "lng": 151.0360054,
    "place_id": "ChIJcwgUdVKjEmsRz6jR7WJ4TwY",
    "maps_url": "https://www.google.com/maps/place/?q=place_id:ChIJcwgUdVKjEmsRz6jR7WJ4TwY",
    "rating": 3.3,
    "total_ratings": 151
  },
  {
    "name": "U-GO Canley Heights",
    "address": "280-286 Canley Vale Rd, Canley Heights",
    "suburb": "Parramatta",
    "state": "NSW",
    "lat": -33.8839381,
    "lng": 150.924163,
    "place_id": "ChIJy1FIvW6WEmsRQ_SO934i1ac",
    "maps_url": "https://www.google.com/maps/place/?q=place_id:ChIJy1FIvW6WEmsRQ_SO934i1ac",
    "rating": 3.6,
    "total_ratings": 74
  },
  {
    "name": "7-Eleven",
    "address": "243 Pennant Hills Rd, Carlingford",
    "suburb": "Parramatta",
    "state": "NSW",
    "lat": -33.7829323,
    "lng": 151.0457305,
    "place_id": "ChIJfYf__PSjEmsRd0KdWAmuttA",
    "maps_url": "https://www.google.com/maps/place/?q=place_id:ChIJfYf__PSjEmsRd0KdWAmuttA",
    "rating": 3.6,
    "total_ratings": 235
  },
  {
    "name": "Metro Fuel Greystanes",
    "address": "73 Ettalong Rd, Pendle Hill",
    "suburb": "Parramatta",
    "state": "NSW",
    "lat": -33.8182092,
    "lng": 150.951397,
    "place_id": "ChIJy8tMKweYEmsRkfkiYTxlDyU",
    "maps_url": "https://www.google.com/maps/place/?q=place_id:ChIJy8tMKweYEmsRkfkiYTxlDyU",
    "rating": 4.1,
    "total_ratings": 191
  },
  {
    "name": "Apex Petroleum",
    "address": "896A Woodville Rd, Villawood",
    "suburb": "Parramatta",
    "state": "NSW",
    "lat": -33.8838955,
    "lng": 150.976071,
    "place_id": "ChIJ7zuPNWa9EmsRj9dtWhU8K9U",
    "maps_url": "https://www.google.com/maps/place/?q=place_id:ChIJ7zuPNWa9EmsRj9dtWhU8K9U",
    "rating": 4.3,
    "total_ratings": 492
  },
  {
    "name": "bp",
    "address": "156 Prospect Hwy, Seven Hills",
    "suburb": "Parramatta",
    "state": "NSW",
    "lat": -33.769205,
    "lng": 150.9416114,
    "place_id": "ChIJERM2HJCYEmsRWy8U7itpxRU",
    "maps_url": "https://www.google.com/maps/place/?q=place_id:ChIJERM2HJCYEmsRWy8U7itpxRU",
    "rating": 3.7,
    "total_ratings": 69
  },
  {
    "name": "7-Eleven",
    "address": "151 Prospect Hwy &, Station Rd, Seven Hills",
    "suburb": "Parramatta",
    "state": "NSW",
    "lat": -33.7689782,
    "lng": 150.9427884,
    "place_id": "ChIJIYhboZqYEmsRlw-lMbKF9RY",
    "maps_url": "https://www.google.com/maps/place/?q=place_id:ChIJIYhboZqYEmsRlw-lMbKF9RY",
    "rating": 3.7,
    "total_ratings": 98
  },
  {
    "name": "Metro Petroleum Lidcombe",
    "address": "134 John St, Lidcombe",
    "suburb": "Parramatta",
    "state": "NSW",
    "lat": -33.8546979,
    "lng": 151.0469509,
    "place_id": "ChIJRTc-2am8EmsRe-FB522g6G0",
    "maps_url": "https://www.google.com/maps/place/?q=place_id:ChIJRTc-2am8EmsRe-FB522g6G0",
    "rating": 3.8,
    "total_ratings": 66
  },
  {
    "name": "Metro Petroleum Wakeley",
    "address": "72 Thorney Rd, Fairfield West",
    "suburb": "Parramatta",
    "state": "NSW",
    "lat": -33.8736501,
    "lng": 150.9241998,
    "place_id": "ChIJQRbW50OWEmsR3FYUi54CzNY",
    "maps_url": "https://www.google.com/maps/place/?q=place_id:ChIJQRbW50OWEmsR3FYUi54CzNY",
    "rating": 3.4,
    "total_ratings": 25
  },
  {
    "name": "Speedway Petroleum Kings Langley",
    "address": "18 Solander Rd, Kings Langley",
    "suburb": "Parramatta",
    "state": "NSW",
    "lat": -33.7553888,
    "lng": 150.9431919,
    "place_id": "ChIJcy6-RaOYEmsRdkOIGWYGypI",
    "maps_url": "https://www.google.com/maps/place/?q=place_id:ChIJcy6-RaOYEmsRdkOIGWYGypI",
    "rating": 3.8,
    "total_ratings": 138
  },
  {
    "name": "Budget Petrol Telopea",
    "address": "Adderton Rd &, Telopea St, Telopea",
    "suburb": "Parramatta",
    "state": "NSW",
    "lat": -33.7935558,
    "lng": 151.0413141,
    "place_id": "ChIJb8DUzIijEmsR_gTruyIKgOo",
    "maps_url": "https://www.google.com/maps/place/?q=place_id:ChIJb8DUzIijEmsR_gTruyIKgOo",
    "rating": 4,
    "total_ratings": 101
  },
  {
    "name": "SPEEDWAY VILLAWOOD",
    "address": "45 Fairfield St, Old Guildford",
    "suburb": "Parramatta",
    "state": "NSW",
    "lat": -33.8695737,
    "lng": 150.9806258,
    "place_id": "ChIJ8R2pUAq9EmsRCzRphN05I7A",
    "maps_url": "https://www.google.com/maps/place/?q=place_id:ChIJ8R2pUAq9EmsRCzRphN05I7A",
    "rating": 4.3,
    "total_ratings": 91
  },
  {
    "name": "EG Ampol",
    "address": "35 Woodville Rd, Chester Hill",
    "suburb": "Parramatta",
    "state": "NSW",
    "lat": -33.8666361,
    "lng": 150.9886964,
    "place_id": "ChIJo8Wlfw-9EmsRarPGfHcex-8",
    "maps_url": "https://www.google.com/maps/place/?q=place_id:ChIJo8Wlfw-9EmsRarPGfHcex-8",
    "rating": 4.2,
    "total_ratings": 139
  },
  {
    "name": "Astron Rydalmere",
    "address": "262/272 Victoria Rd, Rydalmere",
    "suburb": "Parramatta",
    "state": "NSW",
    "lat": -33.8102774,
    "lng": 151.0325259,
    "place_id": "ChIJF2t2HnGjEmsRIYsXq8pj6Bw",
    "maps_url": "https://www.google.com/maps/place/?q=place_id:ChIJF2t2HnGjEmsRIYsXq8pj6Bw",
    "rating": 4,
    "total_ratings": 103
  },
  {
    "name": "bp",
    "address": "Abbott Rd, Seven Hills",
    "suburb": "Parramatta",
    "state": "NSW",
    "lat": -33.7672297,
    "lng": 150.9521563,
    "place_id": "ChIJO3055J2YEmsRCMWIOiU-7CE",
    "maps_url": "https://www.google.com/maps/place/?q=place_id:ChIJO3055J2YEmsRCMWIOiU-7CE",
    "rating": 3.7,
    "total_ratings": 41
  },
  {
    "name": "Liberty Oil",
    "address": "105 Targo Rd, Girraween",
    "suburb": "Parramatta",
    "state": "NSW",
    "lat": -33.801831,
    "lng": 150.9509342,
    "place_id": "ChIJ2_dAIHWYEmsRJ1x7Ri4qyDM",
    "maps_url": "https://www.google.com/maps/place/?q=place_id:ChIJ2_dAIHWYEmsRJ1x7Ri4qyDM",
    "rating": 4.2,
    "total_ratings": 12
  },
  {
    "name": "7-Eleven",
    "address": "Leabons Ln &, Blacktown Rd, Blacktown",
    "suburb": "Parramatta",
    "state": "NSW",
    "lat": -33.7802022,
    "lng": 150.9207256,
    "place_id": "ChIJS_MUIlqYEmsRcxwA7ov5Rbo",
    "maps_url": "https://www.google.com/maps/place/?q=place_id:ChIJS_MUIlqYEmsRcxwA7ov5Rbo",
    "rating": 3.3,
    "total_ratings": 116
  },
  {
    "name": "SPEEDWAY BLACKTOWN",
    "address": "90 Blacktown Rd, Blacktown",
    "suburb": "Parramatta",
    "state": "NSW",
    "lat": -33.7791175,
    "lng": 150.9201661,
    "place_id": "ChIJg7Vm8VmYEmsRI3OtiWQqm98",
    "maps_url": "https://www.google.com/maps/place/?q=place_id:ChIJg7Vm8VmYEmsRI3OtiWQqm98",
    "rating": 4,
    "total_ratings": 132
  },
  {
    "name": "Metro Petroleum Fairfield 82",
    "address": "Shop 5/82 Hamilton Rd, Fairfield",
    "suburb": "Parramatta",
    "state": "NSW",
    "lat": -33.8730527,
    "lng": 150.9498882,
    "place_id": "ChIJFWiLlCiWEmsRZzesYET3o50",
    "maps_url": "https://www.google.com/maps/place/?q=place_id:ChIJFWiLlCiWEmsRZzesYET3o50",
    "rating": 3.9,
    "total_ratings": 22
  },
  {
    "name": "Shell",
    "address": "661 Merrylands Road, Braeside Rd, Greystanes",
    "suburb": "Parramatta",
    "state": "NSW",
    "lat": -33.8294365,
    "lng": 150.952716,
    "place_id": "ChIJG6Kw6f2XEmsRbyFaiAsp_vA",
    "maps_url": "https://www.google.com/maps/place/?q=place_id:ChIJG6Kw6f2XEmsRbyFaiAsp_vA",
    "rating": 3.5,
    "total_ratings": 35
  },
  {
    "name": "Woolworths Petrol",
    "address": "370 Vardys Rd, Kings Park",
    "suburb": "Blacktown",
    "state": "NSW",
    "lat": -33.7453384,
    "lng": 150.9040574,
    "place_id": "ChIJp3OP2CCZEmsRUvhrbHFbrKQ",
    "maps_url": "https://www.google.com/maps/place/?q=place_id:ChIJp3OP2CCZEmsRUvhrbHFbrKQ",
    "rating": 4.1,
    "total_ratings": 249
  },
  {
    "name": "EG Ampol Prospect",
    "address": "360 Flushcombe Rd, Prospect",
    "suburb": "Blacktown",
    "state": "NSW",
    "lat": -33.7965208,
    "lng": 150.9045788,
    "place_id": "ChIJDZ-6FLKrEmsRKAc6v57j3DY",
    "maps_url": "https://www.google.com/maps/place/?q=place_id:ChIJDZ-6FLKrEmsRKAc6v57j3DY",
    "rating": 3.8,
    "total_ratings": 268
  },
  {
    "name": "bp",
    "address": "1055 Great Western Hwy, Minchinbury",
    "suburb": "Blacktown",
    "state": "NSW",
    "lat": -33.7821245,
    "lng": 150.8246609,
    "place_id": "ChIJ46a_7HqaEmsRJeRMvbv03u8",
    "maps_url": "https://www.google.com/maps/place/?q=place_id:ChIJ46a_7HqaEmsRJeRMvbv03u8",
    "rating": 2.9,
    "total_ratings": 58
  },
  {
    "name": "Ampol Parklea",
    "address": "1190 Old Windsor Rd Near, Shop 3 Miami St, Parklea",
    "suburb": "Blacktown",
    "state": "NSW",
    "lat": -33.7240796,
    "lng": 150.938811,
    "place_id": "ChIJVSJHXUSfEmsR78sazwxQbWo",
    "maps_url": "https://www.google.com/maps/place/?q=place_id:ChIJVSJHXUSfEmsR78sazwxQbWo",
    "rating": 3.8,
    "total_ratings": 461
  },
  {
    "name": "Metro Petroleum Doonside",
    "address": "198 Hill End Rd, Doonside",
    "suburb": "Blacktown",
    "state": "NSW",
    "lat": -33.747215,
    "lng": 150.87224,
    "place_id": "ChIJfTd6-WWZEmsRw2sjRZG9v2M",
    "maps_url": "https://www.google.com/maps/place/?q=place_id:ChIJfTd6-WWZEmsRw2sjRZG9v2M",
    "rating": 4.1,
    "total_ratings": 124
  },
  {
    "name": "bp",
    "address": "19/21 Windsor Rd, Kellyville",
    "suburb": "Blacktown",
    "state": "NSW",
    "lat": -33.7127903,
    "lng": 150.9589041,
    "place_id": "ChIJdRh3_V-hEmsRpqSD67nUQ7Y",
    "maps_url": "https://www.google.com/maps/place/?q=place_id:ChIJdRh3_V-hEmsRpqSD67nUQ7Y",
    "rating": 2.8,
    "total_ratings": 54
  },
  {
    "name": "Shell",
    "address": "484 Sunnyholt Rd, Parklea",
    "suburb": "Blacktown",
    "state": "NSW",
    "lat": -33.729311,
    "lng": 150.921783,
    "place_id": "ChIJgx8bLTKfEmsRxplZlMoEuLs",
    "maps_url": "https://www.google.com/maps/place/?q=place_id:ChIJgx8bLTKfEmsRxplZlMoEuLs",
    "rating": 3.8,
    "total_ratings": 97
  },
  {
    "name": "EG Ampol",
    "address": "662 Windsor Rd, Kellyville Ridge",
    "suburb": "Blacktown",
    "state": "NSW",
    "lat": -33.699549,
    "lng": 150.9279371,
    "place_id": "ChIJjXoIfwufEmsRZMcIEO-F0m0",
    "maps_url": "https://www.google.com/maps/place/?q=place_id:ChIJjXoIfwufEmsRZMcIEO-F0m0",
    "rating": 4.1,
    "total_ratings": 373
  },
  {
    "name": "7-Eleven",
    "address": "62 Walters Rd, Blacktown",
    "suburb": "Blacktown",
    "state": "NSW",
    "lat": -33.7759451,
    "lng": 150.8949591,
    "place_id": "ChIJ6zffcKWZEmsRnNLcPln4KPc",
    "maps_url": "https://www.google.com/maps/place/?q=place_id:ChIJ6zffcKWZEmsRnNLcPln4KPc",
    "rating": 3.3,
    "total_ratings": 73
  },
  {
    "name": "Shell",
    "address": "4 Century Cct, Norwest",
    "suburb": "Blacktown",
    "state": "NSW",
    "lat": -33.7335642,
    "lng": 150.9635499,
    "place_id": "ChIJdxvxiKKhEmsRlsN2B63GSpc",
    "maps_url": "https://www.google.com/maps/place/?q=place_id:ChIJdxvxiKKhEmsRlsN2B63GSpc",
    "rating": 2.9,
    "total_ratings": 67
  },
  {
    "name": "7-Eleven",
    "address": "6 Luxford Rd, Mount Druitt",
    "suburb": "Blacktown",
    "state": "NSW",
    "lat": -33.7648029,
    "lng": 150.8254697,
    "place_id": "ChIJ5exW_V2aEmsRrvNrtjisAMc",
    "maps_url": "https://www.google.com/maps/place/?q=place_id:ChIJ5exW_V2aEmsRrvNrtjisAMc",
    "rating": 3.5,
    "total_ratings": 122
  },
  {
    "name": "Liberty Doonside",
    "address": "13 Doonside Rd, Doonside",
    "suburb": "Blacktown",
    "state": "NSW",
    "lat": -33.7654069,
    "lng": 150.8696815,
    "place_id": "ChIJERTXn4OZEmsRSb-KqvBstw4",
    "maps_url": "https://www.google.com/maps/place/?q=place_id:ChIJERTXn4OZEmsRSb-KqvBstw4",
    "rating": 4.2,
    "total_ratings": 106
  },
  {
    "name": "Shell",
    "address": "24 Norwest Blvd, Bella Vista",
    "suburb": "Blacktown",
    "state": "NSW",
    "lat": -33.739043,
    "lng": 150.948845,
    "place_id": "ChIJHQSMmlSfEmsReS-3t4ub_0k",
    "maps_url": "https://www.google.com/maps/place/?q=place_id:ChIJHQSMmlSfEmsReS-3t4ub_0k",
    "rating": 2.6,
    "total_ratings": 16
  },
  {
    "name": "Ampol Foodary Kellyville",
    "address": "3-5 Windsor Rd, Kellyville",
    "suburb": "Blacktown",
    "state": "NSW",
    "lat": -33.7143401,
    "lng": 150.9600989,
    "place_id": "ChIJuZSuGNqhEmsRrY6ml9vzMas",
    "maps_url": "https://www.google.com/maps/place/?q=place_id:ChIJuZSuGNqhEmsRrY6ml9vzMas",
    "rating": 3.6,
    "total_ratings": 172
  },
  {
    "name": "OTR Baulkham Hills",
    "address": "363 Windsor Rd, Baulkham Hills",
    "suburb": "Blacktown",
    "state": "NSW",
    "lat": -33.7602239,
    "lng": 150.991561,
    "place_id": "ChIJUS9ysi-iEmsRaI7p-1HMHws",
    "maps_url": "https://www.google.com/maps/place/?q=place_id:ChIJUS9ysi-iEmsRaI7p-1HMHws",
    "rating": 3.6,
    "total_ratings": 16
  },
  {
    "name": "7-Eleven",
    "address": "54/56 Windsor Rd, Kellyville",
    "suburb": "Blacktown",
    "state": "NSW",
    "lat": -33.71256450000001,
    "lng": 150.9570622,
    "place_id": "ChIJlzHs1NmhEmsRU0xACTa-Npw",
    "maps_url": "https://www.google.com/maps/place/?q=place_id:ChIJlzHs1NmhEmsRU0xACTa-Npw",
    "rating": 3.3,
    "total_ratings": 158
  },
  {
    "name": "Shell",
    "address": "100 Briens Rd, Northmead",
    "suburb": "Blacktown",
    "state": "NSW",
    "lat": -33.7961985,
    "lng": 150.9891545,
    "place_id": "ChIJjboS4fmiEmsRwZEUb4HniUY",
    "maps_url": "https://www.google.com/maps/place/?q=place_id:ChIJjboS4fmiEmsRwZEUb4HniUY",
    "rating": 2.8,
    "total_ratings": 16
  },
  {
    "name": "Metro Petroleum Blacktown",
    "address": "69 Richmond Rd, Blacktown",
    "suburb": "Blacktown",
    "state": "NSW",
    "lat": -33.7639966,
    "lng": 150.9023652,
    "place_id": "ChIJ5ZlZ7QOZEmsR8YSLBXuAAZE",
    "maps_url": "https://www.google.com/maps/place/?q=place_id:ChIJ5ZlZ7QOZEmsR8YSLBXuAAZE",
    "rating": 3.6,
    "total_ratings": 147
  },
  {
    "name": "Ampol Foodary Eastern Creek Eastbound",
    "address": "Western Mtwy, Eastern Creek",
    "suburb": "Blacktown",
    "state": "NSW",
    "lat": -33.8017198,
    "lng": 150.8859861,
    "place_id": "ChIJY-46dN6ZEmsR-GTK51jYooY",
    "maps_url": "https://www.google.com/maps/place/?q=place_id:ChIJY-46dN6ZEmsR-GTK51jYooY",
    "rating": 3.8,
    "total_ratings": 596
  },