[
  {
    "name": "Chemist Warehouse Sydney Central",
    "address": "Shop G7 Ground Floor 614 to, 624 George St, Sydney NSW 2000, Australia",
    "suburb": "624 George St",
    "state": "NSW",
    "rating": 3.2,
    "reviews": 437,
    "lat": -33.8758251,
    "lng": 151.2065218,
    "place_id": "ChIJrVTq9zyuEmsRZ_8Sr3naWds",
    "maps_url": "https://www.google.com/maps/place/?q=place_id:ChIJrVTq9zyuEmsRZ_8Sr3naWds"
  },
  {
    "name": "Quay Pharmacy on Circular Quay Sydney",
    "address": "Circular Quay Station, E2/E3 Alfred St, Sydney NSW 2000, Australia",
    "suburb": "E2/E3 Alfred St",
    "state": "NSW",
    "rating": 4.1,
    "reviews": 210,
    "lat": -33.8614752,
    "lng": 151.2111107,
    "place_id": "ChIJ8dVPLWiuEmsR4E4i17CziKQ",
    "maps_url": "https://www.google.com/maps/place/?q=place_id:ChIJ8dVPLWiuEmsR4E4i17CziKQ"
  },
  {
    "name": "Chemist Warehouse Sydney Pitt St",
    "address": "1/249-251 Pitt St, Sydney NSW 2000, Australia",
    "suburb": "Sydney NSW 2000",
    "state": "NSW",
    "rating": 3.4,
    "reviews": 492,
    "lat": -33.8713903,
    "lng": 151.2078868,
    "place_id": "ChIJ1dQmbD6uEmsR7jC030aIeoI",
    "maps_url": "https://www.google.com/maps/place/?q=place_id:ChIJ1dQmbD6uEmsR7jC030aIeoI"
  },
  {
    "name": "Priceline Pharmacy World Square",
    "address": "Shop 9.01/644 George St, Sydney NSW 2000, Australia",
    "suburb": "Sydney NSW 2000",
    "state": "NSW",
    "rating": 3.1,
    "reviews": 211,
    "lat": -33.8766822,
    "lng": 151.2064819,
    "place_id": "ChIJmwPYyTyuEmsRYVcu8LRWv8E",
    "maps_url": "https://www.google.com/maps/place/?q=place_id:ChIJmwPYyTyuEmsRYVcu8LRWv8E"
  },
  {
    "name": "Chemist Warehouse Sydney - Park Street",
    "address": "Corner George Street and Park Street, Shop 3 Ground Floor/2 Park St, Sydney NSW 2000, Australia",
    "suburb": "Shop 3 Ground Floor/2 Park St",
    "state": "NSW",
    "rating": 3,
    "reviews": 53,
    "lat": -33.8726576,
    "lng": 151.2071373,
    "place_id": "ChIJ42BR1JSvEmsRxOB0QC2k_9g",
    "maps_url": "https://www.google.com/maps/place/?q=place_id:ChIJ42BR1JSvEmsRxOB0QC2k_9g"
  },
  {
    "name": "Chemist Warehouse Haymarket",
    "address": "Ground Floor 2/827 to 837 George St, Haymarket NSW 2000, Australia",
    "suburb": "Haymarket NSW 2000",
    "state": "NSW",
    "rating": 3.3,
    "reviews": 309,
    "lat": -33.883301,
    "lng": 151.2031097,
    "place_id": "ChIJWzPAvSauEmsRvP5h8yXUmNI",
    "maps_url": "https://www.google.com/maps/place/?q=place_id:ChIJWzPAvSauEmsRvP5h8yXUmNI"
  },
  {
    "name": "The Rocks Chemist",
    "address": "97 George St, The Rocks NSW 2000, Australia",
    "suburb": "The Rocks NSW 2000",
    "state": "NSW",
    "rating": 4.8,
    "reviews": 107,
    "lat": -33.8594243,
    "lng": 151.2086408,
    "place_id": "ChIJhbjiwEKuEmsRs1pgaOhdOSk",
    "maps_url": "https://www.google.com/maps/place/?q=place_id:ChIJhbjiwEKuEmsRs1pgaOhdOSk"
  },
  {
    "name": "Amcal Pharmacy Kings Cross",
    "address": "TG13/82-94 Darlinghurst Rd, Potts Point NSW 2011, Australia",
    "suburb": "Potts Point NSW 2011",
    "state": "NSW",
    "rating": 3.9,
    "reviews": 531,
    "lat": -33.8752536,
    "lng": 151.2224716,
    "place_id": "ChIJ5bWphQ2uEmsRK1pE6gq83R4",
    "maps_url": "https://www.google.com/maps/place/?q=place_id:ChIJ5bWphQ2uEmsRK1pE6gq83R4"
  },
  {
    "name": "Chemist Warehouse Darlinghurst",
    "address": "Oxford Village, Shop 16 &17/175 to 177 Riley St, Darlinghurst NSW 2010, Australia",
    "suburb": "Shop 16 &17/175 to 177 Riley St",
    "state": "NSW",
    "rating": 3.4,
    "reviews": 295,
    "lat": -33.8787037,
    "lng": 151.2140081,
    "place_id": "ChIJg3K5CxquEmsRZOEZHVGPYNY",
    "maps_url": "https://www.google.com/maps/place/?q=place_id:ChIJg3K5CxquEmsRZOEZHVGPYNY"
  },
  {
    "name": "Sydney Pharmacy",
    "address": "12 Shelley St, Sydney NSW 2000, Australia",
    "suburb": "Sydney NSW 2000",
    "state": "NSW",
    "rating": 3,
    "reviews": 2,
    "lat": -33.8663505,
    "lng": 151.202797,
    "place_id": "ChIJ8VyXBiOvEmsRqtM2ey7Xi4E",
    "maps_url": "https://www.google.com/maps/place/?q=place_id:ChIJ8VyXBiOvEmsRqtM2ey7Xi4E"
  },
  {
    "name": "Blakes Pharmacy",
    "address": "18 Darlinghurst Rd, Potts Point NSW 2011, Australia",
    "suburb": "Potts Point NSW 2011",
    "state": "NSW",
    "rating": 4.4,
    "reviews": 116,
    "lat": -33.8732327,
    "lng": 151.225205,
    "place_id": "ChIJd1Ta1gyuEmsRKCbSdVOYiiI",
    "maps_url": "https://www.google.com/maps/place/?q=place_id:ChIJd1Ta1gyuEmsRKCbSdVOYiiI"
  },
  {
    "name": "Chemist Warehouse Newtown NSW",
    "address": "246 to 250 King St, Newtown NSW 2042, Australia",
    "suburb": "Newtown NSW 2042",
    "state": "NSW",
    "rating": 3.4,
    "reviews": 342,
    "lat": -33.8958575,
    "lng": 151.1814921,
    "place_id": "ChIJ-wsU2TOwEmsRAZwpJ7QXZlI",
    "maps_url": "https://www.google.com/maps/place/?q=place_id:ChIJ-wsU2TOwEmsRAZwpJ7QXZlI"
  },
  {
    "name": "Chemist Warehouse Sydney Hyde Park",
    "address": "3/299 Elizabeth St, Sydney NSW 2000, Australia",
    "suburb": "Sydney NSW 2000",
    "state": "NSW",
    "rating": 3.5,
    "reviews": 188,
    "lat": -33.8766212,
    "lng": 151.2092818,
    "place_id": "ChIJ8ZwmdD2uEmsRQVLlW43L7q4",
    "maps_url": "https://www.google.com/maps/place/?q=place_id:ChIJ8ZwmdD2uEmsRQVLlW43L7q4"
  },
  {
    "name": "Chemist Warehouse Sydney - George Street",
    "address": "Shop B1/383 George St, Sydney NSW 2000, Australia",
    "suburb": "Sydney NSW 2000",
    "state": "NSW",
    "rating": 3,
    "reviews": 168,
    "lat": -33.8693647,
    "lng": 151.2066314,
    "place_id": "ChIJO3_cMNyvEmsROSjSiXxorAc",
    "maps_url": "https://www.google.com/maps/place/?q=place_id:ChIJO3_cMNyvEmsROSjSiXxorAc"
  },
  {
    "name": "Chemist Warehouse Sydney - Pitt Street North",
    "address": "Retail Ground Floor, 80 Pitt St, Sydney NSW 2000, Australia",
    "suburb": "80 Pitt St",
    "state": "NSW",
    "rating": 4.1,
    "reviews": 151,
    "lat": -33.8666342,
    "lng": 151.2089216,
    "place_id": "ChIJBdIS3devEmsR-daYRg3e-5k",
    "maps_url": "https://www.google.com/maps/place/?q=place_id:ChIJBdIS3devEmsR-daYRg3e-5k"
  },
  {
    "name": "Centennial Plaza Pharmacy",
    "address": "300 Elizabeth St, Surry Hills NSW 2000, Australia",
    "suburb": "Surry Hills NSW 2000",
    "state": "NSW",
    "rating": 4.1,
    "reviews": 108,
    "lat": -33.8831819,
    "lng": 151.2087245,
    "place_id": "ChIJ0SIEIyKuEmsRzs9fzRsIo7A",
    "maps_url": "https://www.google.com/maps/place/?q=place_id:ChIJ0SIEIyKuEmsRzs9fzRsIo7A"
  },
  {
    "name": "Retatrutide, Peptide and Semaglutide Pharmacy",
    "address": "Shop G7/614-624 George St, Sydney NSW 2000, Australia",
    "suburb": "Sydney NSW 2000",
    "state": "NSW",
    "rating": 1,
    "reviews": 1,
    "lat": -33.8757593,
    "lng": 151.2067759,
    "place_id": "ChIJoeuOlK-vEmsRagVkoHpMBUw",
    "maps_url": "https://www.google.com/maps/place/?q=place_id:ChIJoeuOlK-vEmsRagVkoHpMBUw"
  },
  {
    "name": "Glover Chemist",
    "address": "Shop RG31, The Galeries, Opposite/250 Pitt St, Sydney NSW 2000, Australia",
    "suburb": "The Galeries",
    "state": "NSW",
    "rating": 3,
    "reviews": 108,
    "lat": -33.87238730000001,
    "lng": 151.2079417,
    "place_id": "ChIJBa-WZT6uEmsRm3RhmaGGYok",
    "maps_url": "https://www.google.com/maps/place/?q=place_id:ChIJBa-WZT6uEmsRm3RhmaGGYok"
  },
  {
    "name": "TerryWhite Chemmart Macquarie St CBD",
    "address": "1/185 Macquarie St, Sydney NSW 2000, Australia",
    "suburb": "Sydney NSW 2000",
    "state": "NSW",
    "rating": 4.8,
    "reviews": 151,
    "lat": -33.8667603,
    "lng": 151.2121736,
    "place_id": "ChIJ1SBA92quEmsRAEDVgWxoCjU",
    "maps_url": "https://www.google.com/maps/place/?q=place_id:ChIJ1SBA92quEmsRAEDVgWxoCjU"
  },
  {
    "name": "Amcal+ Express Pharmacy Sydney - Wynyard Station",
    "address": "Wynyard Train Station Shop 11, Concourse Level Sydney, Sydney NSW 2000, Australia",
    "suburb": "Concourse Level Sydney",
    "state": "NSW",
    "rating": 4.3,
    "reviews": 36,
    "lat": -33.8659946,
    "lng": 151.2055296,
    "place_id": "ChIJ_bS_3ECuEmsRDDYW3fFW9pQ",
    "maps_url": "https://www.google.com/maps/place/?q=place_id:ChIJ_bS_3ECuEmsRDDYW3fFW9pQ"
  },
  {
    "name": "Chemist Warehouse Parramatta",
    "address": "202 to 214 Church St, Parramatta NSW 2150, Australia",
    "suburb": "Parramatta NSW 2150",
    "state": "NSW",
    "rating": 3.7,
    "reviews": 703,
    "lat": -33.8148454,
    "lng": 151.0032208,
    "place_id": "ChIJ0QLXoR-jEmsRdf_tgbUPggY",
    "maps_url": "https://www.google.com/maps/place/?q=place_id:ChIJ0QLXoR-jEmsRdf_tgbUPggY"
  },
  {
    "name": "Chemist Warehouse North Parramatta",
    "address": "458 Church St, Parramatta NSW 2150, Australia",
    "suburb": "Parramatta NSW 2150",
    "state": "NSW",
    "rating": 3.5,
    "reviews": 276,
    "lat": -33.8058,
    "lng": 151.006,
    "place_id": "ChIJRev3PPWjEmsRwcVlMGwOC_0",
    "maps_url": "https://www.google.com/maps/place/?q=place_id:ChIJRev3PPWjEmsRwcVlMGwOC_0"
  },
  {
    "name": "Priceline Pharmacy North Parramatta",
    "address": "460 Church St, North Parramatta NSW 2151, Australia",
    "suburb": "North Parramatta NSW 2151",
    "state": "NSW",
    "rating": 4.2,
    "reviews": 125,
    "lat": -33.8053867,
    "lng": 151.006294,
    "place_id": "ChIJu_dqXAOjEmsRQqZwVfDHXls",
    "maps_url": "https://www.google.com/maps/place/?q=place_id:ChIJu_dqXAOjEmsRQqZwVfDHXls"
  },
  {
    "name": "Pharmacy Junction",
    "address": "Shop 5020-5021/159-175 Church St, Parramatta NSW 2150, Australia",
    "suburb": "Parramatta NSW 2150",
    "state": "NSW",
    "rating": 4.1,
    "reviews": 405,
    "lat": -33.8173782,
    "lng": 151.0016557,
    "place_id": "ChIJZYtrB8SjEmsR36DvT59wKis",
    "maps_url": "https://www.google.com/maps/place/?q=place_id:ChIJZYtrB8SjEmsR36DvT59wKis"
  },
  {
    "name": "Chemist Warehouse Granville",
    "address": "58 South St, Granville NSW 2142, Australia",
    "suburb": "Granville NSW 2142",
    "state": "NSW",
    "rating": 3.3,
    "reviews": 373,
    "lat": -33.8342592,
    "lng": 151.0107916,
    "place_id": "ChIJY1dCj7CjEmsRyxjyASZoEoM",
    "maps_url": "https://www.google.com/maps/place/?q=place_id:ChIJY1dCj7CjEmsRyxjyASZoEoM"
  },
  {
    "name": "Chemist Warehouse Westfield Parramatta",
    "address": "Westfield Parramatta 159 to, Shop M11B/175 Church St, Parramatta NSW 2150, Australia",
    "suburb": "Shop M11B/175 Church St",
    "state": "NSW",
    "rating": 2.6,
    "reviews": 397,
    "lat": -33.8176887,
    "lng": 151.0020378,
    "place_id": "ChIJf7w9NiCjEmsR-nbmrOVS7-A",
    "maps_url": "https://www.google.com/maps/place/?q=place_id:ChIJf7w9NiCjEmsR-nbmrOVS7-A"
  },
  {
    "name": "Pharmacy 4 Less Parramatta",
    "address": "next to ANZ Bank, 240 Church St, Parramatta NSW 2150, Australia",
    "suburb": "240 Church St",
    "state": "NSW",
    "rating": 4.7,
    "reviews": 256,
    "lat": -33.8142474,
    "lng": 151.0036363,
    "place_id": "ChIJP-atBx-jEmsRL3_dfnl-sFQ",
    "maps_url": "https://www.google.com/maps/place/?q=place_id:ChIJP-atBx-jEmsRL3_dfnl-sFQ"
  },
  {
    "name": "Chemsave Day & Night Chemist",
    "address": "Shop 1/108 Station St, Wentworthville NSW 2145, Australia",
    "suburb": "Wentworthville NSW 2145",
    "state": "NSW",
    "rating": 2.7,
    "reviews": 225,
    "lat": -33.8101903,
    "lng": 150.9716009,
    "place_id": "ChIJ34ck1r2iEmsRoQdoINQ6f8g",
    "maps_url": "https://www.google.com/maps/place/?q=place_id:ChIJ34ck1r2iEmsRoQdoINQ6f8g"
  },
  {
    "name": "Zenith Pharmacy Parramatta",
    "address": "Westfield Shopping town(Corner of Argyle &, 13 Marsden St, Parramatta NSW 2150, Australia",
    "suburb": "13 Marsden St",
    "state": "NSW",
    "rating": 4.9,
    "reviews": 38,
    "lat": -33.8166883,
    "lng": 151.0015898,
    "place_id": "ChIJoSCZ4NujEmsR5HJiCrlUCD0",
    "maps_url": "https://www.google.com/maps/place/?q=place_id:ChIJoSCZ4NujEmsR5HJiCrlUCD0"
  },
  {
    "name": "Priceline Pharmacy Parramatta",
    "address": "Shop M10/159/175 Church St, Parramatta NSW 2150, Australia",
    "suburb": "Parramatta NSW 2150",
    "state": "NSW",
    "rating": 4,
    "reviews": 221,
    "lat": -33.8180741,
    "lng": 151.001219,
    "place_id": "ChIJ18P9pByjEmsRmPJSbanwKOs",
    "maps_url": "https://www.google.com/maps/place/?q=place_id:ChIJ18P9pByjEmsRmPJSbanwKOs"
  },
  {
    "name": "Pharmacy 4 Less Five Dock Parramatta Rd Compounding Chemist",
    "address": "213 Parramatta Rd, Five Dock NSW 2046, Australia",
    "suburb": "Five Dock NSW 2046",
    "state": "NSW",
    "rating": 4.5,
    "reviews": 177,
    "lat": -33.869543,
    "lng": 151.113936,
    "place_id": "ChIJbZZA0su6EmsRLmCze_XqDLQ",
    "maps_url": "https://www.google.com/maps/place/?q=place_id:ChIJbZZA0su6EmsRLmCze_XqDLQ"
  },
  {
    "name": "Direct Chemist Outlet Auburn",
    "address": "61 Auburn Rd, Auburn NSW 2144, Australia",
    "suburb": "Auburn NSW 2144",
    "state": "NSW",
    "rating": 4.5,
    "reviews": 622,
    "lat": -33.8524415,
    "lng": 151.0325255,
    "place_id": "ChIJjbk397C8EmsRG8NuUzqzlEA",
    "maps_url": "https://www.google.com/maps/place/?q=place_id:ChIJjbk397C8EmsRG8NuUzqzlEA"
  },
  {
    "name": "Cincotta Discount Chemist Merrylands (Compounding Chemist)",
    "address": "185 Merrylands Rd, Merrylands NSW 2160, Australia",
    "suburb": "Merrylands NSW 2160",
    "state": "NSW",
    "rating": 3,
    "reviews": 156,
    "lat": -33.8364058,
    "lng": 150.989919,
    "place_id": "ChIJCVCFkC29EmsRWLLxsojd5Ig",
    "maps_url": "https://www.google.com/maps/place/?q=place_id:ChIJCVCFkC29EmsRWLLxsojd5Ig"
  },
  {
    "name": "Late Night Chemist Ryde",
    "address": "1/46-48 Blaxland Rd, Ryde NSW 2112, Australia",
    "suburb": "Ryde NSW 2112",
    "state": "NSW",
    "rating": 4.5,
    "reviews": 281,
    "lat": -33.8148295,
    "lng": 151.1073266,
    "place_id": "ChIJ_TVMoaWlEmsR4fRoXdsWvrs",
    "maps_url": "https://www.google.com/maps/place/?q=place_id:ChIJ_TVMoaWlEmsR4fRoXdsWvrs"
  },
  {
    "name": "Priceline Westfield Parramatta",
    "address": "Shop 3082, Level 3, Westfield Parramatta, 159 - 175 Church St, Parramatta NSW 2150, Australia",
    "suburb": "Level 3",
    "state": "NSW",
    "rating": 3.8,
    "reviews": 233,
    "lat": -33.8174306,
    "lng": 151.0021034,
    "place_id": "ChIJSd9aQiCjEmsRqIR9fzjqzcA",
    "maps_url": "https://www.google.com/maps/place/?q=place_id:ChIJSd9aQiCjEmsRqIR9fzjqzcA"
  },
  {
    "name": "Chemistworks Wetherill Park",
    "address": "Shop MM05/561-583 Polding St, Wetherill Park NSW 2164, Australia",
    "suburb": "Wetherill Park NSW 2164",
    "state": "NSW",
    "rating": 4.1,
    "reviews": 715,
    "lat": -33.859646,
    "lng": 150.8994873,
    "place_id": "ChIJ-dl5-vqWEmsRIzDZR4UX0pc",
    "maps_url": "https://www.google.com/maps/place/?q=place_id:ChIJ-dl5-vqWEmsRIzDZR4UX0pc"
  },
  {
    "name": "Chemist Warehouse Ermington",
    "address": "8/2 Marsden Rd, Ermington NSW 2115, Australia",
    "suburb": "Ermington NSW 2115",
    "state": "NSW",
    "rating": 4.2,
    "reviews": 129,
    "lat": -33.8068386,
    "lng": 151.0701591,
    "place_id": "ChIJWZg9-F2kEmsRn47Yx9CvWqc",
    "maps_url": "https://www.google.com/maps/place/?q=place_id:ChIJWZg9-F2kEmsRn47Yx9CvWqc"
  },
  {
    "name": "Chemist Warehouse Eastwood",
    "address": "157 Rowe St, Eastwood NSW 2122, Australia",
    "suburb": "Eastwood NSW 2122",
    "state": "NSW",
    "rating": 3,
    "reviews": 441,
    "lat": -33.79152300000001,
    "lng": 151.0807309,
    "place_id": "ChIJ635kwDmkEmsRA8WAFQ1UZSA",
    "maps_url": "https://www.google.com/maps/place/?q=place_id:ChIJ635kwDmkEmsRA8WAFQ1UZSA"
  },
  {
    "name": "Health Choice Pharmacy",
    "address": "Shop 4D/8 Cowper St, Parramatta NSW 2150, Australia",
    "suburb": "Parramatta NSW 2150",
    "state": "NSW",
    "rating": 3.9,
    "reviews": 11,
    "lat": -33.8213311,
    "lng": 151.006927,
    "place_id": "ChIJLZqn5SOjEmsRhuzO9OFzUW4",
    "maps_url": "https://www.google.com/maps/place/?q=place_id:ChIJLZqn5SOjEmsRhuzO9OFzUW4"
  },
  {
    "name": "Priceless Compounding Chemist",
    "address": "Shop 5/35 East St, Granville NSW 2142, Australia",
    "suburb": "Granville NSW 2142",
    "state": "NSW",
    "rating": 4.8,
    "reviews": 62,
    "lat": -33.83215819999999,
    "lng": 151.0127637,
    "place_id": "ChIJc30aswijEmsRTnDhgCZcFcY",
    "maps_url": "https://www.google.com/maps/place/?q=place_id:ChIJc30aswijEmsRTnDhgCZcFcY"
  },
  {
    "name": "Doc's Mega Save Chemist",
    "address": "Marketown Shopping Centre, Shop G09/23 Steel St, Newcastle West NSW 2302, Australia",
    "suburb": "Shop G09/23 Steel St",
    "state": "NSW",
    "rating": 4.6,
    "reviews": 268,
    "lat": -32.9285937,
    "lng": 151.7635887,
    "place_id": "ChIJj6NlIUUUc2sR29cJvPwL_LI",
    "maps_url": "https://www.google.com/maps/place/?q=place_id:ChIJj6NlIUUUc2sR29cJvPwL_LI"
  },
  {
    "name": "Strachans Pharmacy",
    "address": "257 Lambton Rd, New Lambton NSW 2305, Australia",
    "suburb": "New Lambton NSW 2305",
    "state": "NSW",
    "rating": 4.5,
    "reviews": 80,
    "lat": -32.922412,
    "lng": 151.7154519,
    "place_id": "ChIJhaN0HZMVc2sRorPVQlm_o-o",
    "maps_url": "https://www.google.com/maps/place/?q=place_id:ChIJhaN0HZMVc2sRorPVQlm_o-o"
  },
  {
    "name": "Broadmeadow Medical Centre Pharmacy",
    "address": "1a/154 Lambton Rd, Broadmeadow NSW 2292, Australia",
    "suburb": "Broadmeadow NSW 2292",
    "state": "NSW",
    "rating": 4.7,
    "reviews": 32,
    "lat": -32.9230417,
    "lng": 151.7241288,
    "place_id": "ChIJP2fIIL4Vc2sRe2dgkmYUCsE",
    "maps_url": "https://www.google.com/maps/place/?q=place_id:ChIJP2fIIL4Vc2sRe2dgkmYUCsE"
  },
  {
    "name": "Chemist Warehouse Hamilton",
    "address": "SH01/60 Beaumont St, Hamilton NSW 2303, Australia",
    "suburb": "Hamilton NSW 2303",
    "state": "NSW",
    "rating": 3.5,
    "reviews": 173,
    "lat": -32.9209613,
    "lng": 151.7472007,
    "place_id": "ChIJ4_VPTK0Vc2sRWjyTQBk5yog",
    "maps_url": "https://www.google.com/maps/place/?q=place_id:ChIJ4_VPTK0Vc2sRWjyTQBk5yog"
  },
  {
    "name": "Chemist Warehouse Mayfield",
    "address": "95 to 97 Maitland Rd, Mayfield NSW 2304, Australia",
    "suburb": "Mayfield NSW 2304",
    "state": "NSW",
    "rating": 3.7,
    "reviews": 348,
    "lat": -32.8998796,
    "lng": 151.7403204,
    "place_id": "ChIJmZs8DAMVc2sRuKhmT4oeR88",
    "maps_url": "https://www.google.com/maps/place/?q=place_id:ChIJmZs8DAMVc2sRuKhmT4oeR88"
  },
  {
    "name": "Chemistworks Glendale",
    "address": "22/387 Lake Rd, Glendale NSW 2285, Australia",
    "suburb": "Glendale NSW 2285",
    "state": "NSW",
    "rating": 4.4,
    "reviews": 548,
    "lat": -32.9357526,
    "lng": 151.6424243,
    "place_id": "ChIJQRKQhi88c2sRtuQ-ZInNCoE",
    "maps_url": "https://www.google.com/maps/place/?q=place_id:ChIJQRKQhi88c2sRtuQ-ZInNCoE"
  },
  {
    "name": "Chemist Warehouse Newcastle",
    "address": "136-140 Hunter St, Newcastle NSW 2300, Australia",
    "suburb": "Newcastle NSW 2300",
    "state": "NSW",
    "rating": 3.7,
    "reviews": 122,
    "lat": -32.9271329,
    "lng": 151.7819354,
    "place_id": "ChIJ2evH0WQUc2sR8tQws3oJP5E",
    "maps_url": "https://www.google.com/maps/place/?q=place_id:ChIJ2evH0WQUc2sR8tQws3oJP5E"
  },
  {
    "name": "Doc's John Hunter Hospital Pharmacy",
    "address": "1 Lookout Rd, New Lambton Heights NSW 2305, Australia",
    "suburb": "New Lambton Heights NSW 2305",
    "state": "NSW",
    "rating": 4.6,
    "reviews": 23,
    "lat": -32.9231776,
    "lng": 151.6943716,
    "place_id": "ChIJdU6x_g8_c2sRXWQxDYE_O48",
    "maps_url": "https://www.google.com/maps/place/?q=place_id:ChIJdU6x_g8_c2sRXWQxDYE_O48"
  },
  {
    "name": "Chemist Warehouse Charlestown",
    "address": "196 Pacific Hwy, Charlestown NSW 2290, Australia",
    "suburb": "Charlestown NSW 2290",
    "state": "NSW",
    "rating": 3.5,
    "reviews": 235,
    "lat": -32.9627579,
    "lng": 151.6956454,
    "place_id": "ChIJzTEjbIs9c2sRt7rPafB2Azo",
    "maps_url": "https://www.google.com/maps/place/?q=place_id:ChIJzTEjbIs9c2sRt7rPafB2Azo"
  },
  {
    "name": "Bagga's Newcastle",
    "address": "178 Hunter St, Newcastle NSW 2300, Australia",
    "suburb": "Newcastle NSW 2300",
    "state": "NSW",
    "rating": 4.9,
    "reviews": 255,
    "lat": -32.926774,
    "lng": 151.7805335,
    "place_id": "ChIJPV1J-2QUc2sRbK7djgkY4s0",
    "maps_url": "https://www.google.com/maps/place/?q=place_id:ChIJPV1J-2QUc2sRbK7djgkY4s0"
  },
  {
    "name": "City Pharmacy",
    "address": "53 Hunter St, Newcastle NSW 2300, Australia",
    "suburb": "Newcastle NSW 2300",
    "state": "NSW",
    "rating": 4.7,
    "reviews": 34,
    "lat": -32.9278523,
    "lng": 151.7839185,
    "place_id": "ChIJyS9dBHsUc2sRxLrC8eYsc_A",
    "maps_url": "https://www.google.com/maps/place/?q=place_id:ChIJyS9dBHsUc2sRxLrC8eYsc_A"
  },
  {
    "name": "Bowen Chemist",
    "address": "3 Angophora Dr, Warabrook NSW 2304, Australia",
    "suburb": "Warabrook NSW 2304",
    "state": "NSW",
    "rating": 3.4,
    "reviews": 8,
    "lat": -32.8864811,
    "lng": 151.7194255,
    "place_id": "ChIJk3pzsTsVc2sRCAJlWnLsdH4",
    "maps_url": "https://www.google.com/maps/place/?q=place_id:ChIJk3pzsTsVc2sRCAJlWnLsdH4"
  },
  {
    "name": "Broadmeadow Compounding Pharmacy Pty Ltd",
    "address": "7A Griffiths Rd, Broadmeadow NSW 2292, Australia",
    "suburb": "Broadmeadow NSW 2292",
    "state": "NSW",
    "rating": 3.3,
    "reviews": 3,
    "lat": -32.9172526,
    "lng": 151.7316091,
    "place_id": "ChIJF-6AxqQVc2sRUeBea47d73M",
    "maps_url": "https://www.google.com/maps/place/?q=place_id:ChIJF-6AxqQVc2sRUeBea47d73M"
  },
  {
    "name": "Ron Elliott Pharmacy Care - Newcastle West",
    "address": "514 King St, Newcastle West NSW 2302, Australia",
    "suburb": "Newcastle West NSW 2302",
    "state": "NSW",
    "rating": 4.5,
    "reviews": 24,
    "lat": -32.9261534,
    "lng": 151.7595191,
    "place_id": "ChIJR34_XUQUc2sRQQoGlVXYNg4",
    "maps_url": "https://www.google.com/maps/place/?q=place_id:ChIJR34_XUQUc2sRQQoGlVXYNg4"
  },
  {
    "name": "Darby Street Pharmacy",
    "address": "145 Darby St, Cooks Hill NSW 2300, Australia",
    "suburb": "Cooks Hill NSW 2300",
    "state": "NSW",
    "rating": 4.4,
    "reviews": 88,
    "lat": -32.931922,
    "lng": 151.771528,
    "place_id": "ChIJbUYO6WkUc2sRu06L_6qy1Ec",
    "maps_url": "https://www.google.com/maps/place/?q=place_id:ChIJbUYO6WkUc2sRu06L_6qy1Ec"
  },
  {
    "name": "Cessnock Day Night Pharmacy",
    "address": "202 Wollombi Rd, Cessnock NSW 2325, Australia",
    "suburb": "Cessnock NSW 2325",
    "state": "NSW",
    "rating": 4.6,
    "reviews": 94,
    "lat": -32.8333917,
    "lng": 151.3524699,
    "place_id": "ChIJlW5V3eo0c2sRyP1O5FJZzhg",
    "maps_url": "https://www.google.com/maps/place/?q=place_id:ChIJlW5V3eo0c2sRyP1O5FJZzhg"
  },
  {
    "name": "Pharmacy 4 Less Kotara",
    "address": "Cnr Park Ave and, Kullaiba Rd, Kotara NSW 2289, Australia",
    "suburb": "Kullaiba Rd",
    "state": "NSW",
    "rating": 4,
    "reviews": 72,
    "lat": -32.9404769,
    "lng": 151.7078098,
    "place_id": "ChIJ5dyDzP0Vc2sRqmZ3DTcTG5Y",
    "maps_url": "https://www.google.com/maps/place/?q=place_id:ChIJ5dyDzP0Vc2sRqmZ3DTcTG5Y"
  },
  {
    "name": "Pharmacy 4 Less Jesmond",
    "address": "15 Blue Gum Rd, Jesmond NSW 2299, Australia",
    "suburb": "Jesmond NSW 2299",
    "state": "NSW",
    "rating": 2.8,
    "reviews": 75,
    "lat": -32.9038767,
    "lng": 151.6911395,
    "place_id": "ChIJPehWby4-c2sR-2zI7SSbkfU",
    "maps_url": "https://www.google.com/maps/place/?q=place_id:ChIJPehWby4-c2sR-2zI7SSbkfU"
  },
  {
    "name": "Pharmacy 4 Less Jesmond Central",
    "address": "Central Shopping Centre, Shop G11/28 Blue Gum Rd, Jesmond NSW 2299, Australia",
    "suburb": "Shop G11/28 Blue Gum Rd",
    "state": "NSW",
    "rating": 2.7,
    "reviews": 100,
    "lat": -32.9028883,
    "lng": 151.6894442,
    "place_id": "ChIJ-f1p2i0-c2sR6ltu74ilEIA",
    "maps_url": "https://www.google.com/maps/place/?q=place_id:ChIJ-f1p2i0-c2sR6ltu74ilEIA"
  },
  {
    "name": "Priceline Pharmacy Mayfield (Compounding)",
    "address": "230 Maitland Rd, Mayfield NSW 2304, Australia",
    "suburb": "Mayfield NSW 2304",
    "state": "NSW",
    "rating": 3.6,
    "reviews": 67,
    "lat": -32.89872,
    "lng": 151.737892,
    "place_id": "ChIJy9M5uxoVc2sRLWuPftE3jI8",
    "maps_url": "https://www.google.com/maps/place/?q=place_id:ChIJy9M5uxoVc2sRLWuPftE3jI8"
  },
  {
    "name": "Hospital Hill Pharmacy",
    "address": "Floor 1/338-340 Crown St, Wollongong NSW 2500, Australia",
    "suburb": "Wollongong NSW 2500",
    "state": "NSW",
    "rating": 4.1,
    "reviews": 106,
    "lat": -34.425174,
    "lng": 150.885849,
    "place_id": "ChIJIdX5X6IZE2sRY0bzAbdxjsQ",
    "maps_url": "https://www.google.com/maps/place/?q=place_id:ChIJIdX5X6IZE2sRY0bzAbdxjsQ"
  },
  {
    "name": "Chemist Warehouse Wollongong Central",
    "address": "Shop W004A/200 Crown St, Wollongong NSW 2500, Australia",
    "suburb": "Wollongong NSW 2500",
    "state": "NSW",
    "rating": 2.6,
    "reviews": 138,
    "lat": -34.4242643,
    "lng": 150.8932862,
    "place_id": "ChIJxwE5hqYZE2sRvC_8K6Wk07E",
    "maps_url": "https://www.google.com/maps/place/?q=place_id:ChIJxwE5hqYZE2sRvC_8K6Wk07E"
  },
  {
    "name": "Chemist Warehouse Wollongong",
    "address": "2/63 Burelli St, Wollongong NSW 2500, Australia",
    "suburb": "Wollongong NSW 2500",
    "state": "NSW",
    "rating": 3.2,
    "reviews": 193,
    "lat": -34.4267772,
    "lng": 150.8959604,
    "place_id": "ChIJLadfP6QZE2sRHWpiXDpHWrI",
    "maps_url": "https://www.google.com/maps/place/?q=place_id:ChIJLadfP6QZE2sRHWpiXDpHWrI"
  },
  {
    "name": "Cincotta Discount Chemist",
    "address": "237 Crown St, Wollongong NSW 2500, Australia",
    "suburb": "Wollongong NSW 2500",
    "state": "NSW",
    "rating": 4.4,
    "reviews": 39,
    "lat": -34.4250589,
    "lng": 150.8925546,
    "place_id": "ChIJA44dLqQZE2sR3r7uVjwAE6s",
    "maps_url": "https://www.google.com/maps/place/?q=place_id:ChIJA44dLqQZE2sR3r7uVjwAE6s"
  },
  {
    "name": "Convenient Chemist Wollongong",
    "address": "330 Crown St, Wollongong NSW 2500, Australia",
    "suburb": "Wollongong NSW 2500",
    "state": "NSW",
    "rating": 4.8,
    "reviews": 36,
    "lat": -34.4252425,
    "lng": 150.8865157,
    "place_id": "ChIJvf7XV6IZE2sRxAWCm8Vnjjo",
    "maps_url": "https://www.google.com/maps/place/?q=place_id:ChIJvf7XV6IZE2sRxAWCm8Vnjjo"
  },
  {
    "name": "Downtown Mediadvice Pharmacy",
    "address": "Oxford on Crown, G01/51 Crown St, Wollongong NSW 2500, Australia",
    "suburb": "G01/51 Crown St",
    "state": "NSW",
    "rating": 4.4,
    "reviews": 40,
    "lat": -34.4259236,
    "lng": 150.8992806,
    "place_id": "ChIJ9Vj5L6kZE2sR61xP9cBKHiA",
    "maps_url": "https://www.google.com/maps/place/?q=place_id:ChIJ9Vj5L6kZE2sR61xP9cBKHiA"
  },
  {
    "name": "TerryWhite Chemmart Wollongong",
    "address": "132 Crown St, Wollongong NSW 2500, Australia",
    "suburb": "Wollongong NSW 2500",
    "state": "NSW",
    "rating": 4.5,
    "reviews": 60,
    "lat": -34.425202,
    "lng": 150.8958832,
    "place_id": "ChIJIbeBSD0ZE2sRChg3ZKc34LI",
    "maps_url": "https://www.google.com/maps/place/?q=place_id:ChIJIbeBSD0ZE2sRChg3ZKc34LI"
  },
  {
    "name": "Priceline Pharmacy Wollongong",
    "address": "Shop 105, Level 1/200 Crown St, Wollongong NSW 2500, Australia",
    "suburb": "Level 1/200 Crown St",
    "state": "NSW",
    "rating": 3.8,
    "reviews": 65,
    "lat": -34.4245129,
    "lng": 150.893793,
    "place_id": "ChIJgSUga5gZE2sR1m6tdLw5QjQ",
    "maps_url": "https://www.google.com/maps/place/?q=place_id:ChIJgSUga5gZE2sR1m6tdLw5QjQ"
  },
  {
    "name": "Wombat Pharmacy Wollongong",
    "address": "6B/73 Flinders St, Wollongong NSW 2500, Australia",
    "suburb": "Wollongong NSW 2500",
    "state": "NSW",
    "rating": 5,
    "reviews": 18,
    "lat": -34.42094,
    "lng": 150.893577,
    "place_id": "ChIJy-2qBYcZE2sRmGfsDMzuFsc",
    "maps_url": "https://www.google.com/maps/place/?q=place_id:ChIJy-2qBYcZE2sRmGfsDMzuFsc"
  },
  {
    "name": "Campus Pharmacy Wollongong",
    "address": "University of Wollongong Building 11 (Within Unishop, 2 Northfields Ave, Keiraville NSW 2500, Australia",
    "suburb": "2 Northfields Ave",
    "state": "NSW",
    "rating": 4.9,
    "reviews": 9,
    "lat": -34.4074651,
    "lng": 150.8790909,
    "place_id": "ChIJxT-xjDIZE2sRttXZC5XBz0o",
    "maps_url": "https://www.google.com/maps/place/?q=place_id:ChIJxT-xjDIZE2sRttXZC5XBz0o"
  },
  {
    "name": "Wal's Pharmacy",
    "address": "2-4 Beverley Ave, Warilla NSW 2528, Australia",
    "suburb": "Warilla NSW 2528",
    "state": "NSW",
    "rating": 3.3,
    "reviews": 84,
    "lat": -34.5519344,
    "lng": 150.8614401,
    "place_id": "ChIJj_59pwoUE2sRgaj7K22l3kQ",
    "maps_url": "https://www.google.com/maps/place/?q=place_id:ChIJj_59pwoUE2sRgaj7K22l3kQ"
  },
  {
    "name": "Capital Chemist Dapto",
    "address": "21 Bong Bong Rd, Dapto NSW 2530, Australia",
    "suburb": "Dapto NSW 2530",
    "state": "NSW",
    "rating": 4.4,
    "reviews": 92,
    "lat": -34.494248,
    "lng": 150.792836,
    "place_id": "ChIJl63d3L8RE2sRlFHpuHoLiYA",
    "maps_url": "https://www.google.com/maps/place/?q=place_id:ChIJl63d3L8RE2sRlFHpuHoLiYA"
  },
  {
    "name": "Priceline Pharmacy Dapto",
    "address": "1/33-35 Princes Hwy, Dapto NSW 2530, Australia",
    "suburb": "Dapto NSW 2530",
    "state": "NSW",
    "rating": 4.1,
    "reviews": 136,
    "lat": -34.4927381,
    "lng": 150.7956654,
    "place_id": "ChIJq9hPXr4RE2sRBDMBOadZluo",
    "maps_url": "https://www.google.com/maps/place/?q=place_id:ChIJq9hPXr4RE2sRBDMBOadZluo"
  },
  {
    "name": "Chemist Warehouse Shellharbour",
    "address": "shop 9A Shellharbour Retail tail Park, Lake Entrance Rd, Shellharbour City Centre NSW 2529, Australia",
    "suburb": "Lake Entrance Rd",
    "state": "NSW",
    "rating": 3,
    "reviews": 272,
    "lat": -34.5664755,
    "lng": 150.8293693,
    "place_id": "ChIJDRi3sIYUE2sRDS6TkNzskAo",
    "maps_url": "https://www.google.com/maps/place/?q=place_id:ChIJDRi3sIYUE2sRDS6TkNzskAo"
  },
  {
    "name": "Ramsay Pharmacy Wollongong Private Hospital",
    "address": "Ground Floor Entrance, Wollongong Private Hospital, 362-364 Crown St, Wollongong NSW 2500, Australia",
    "suburb": "Wollongong Private Hospital",
    "state": "NSW",
    "rating": 3.5,
    "reviews": 2,
    "lat": -34.4259543,
    "lng": 150.8804353,
    "place_id": "ChIJY2IM2pkZE2sRS6xJkx_EL7k",
    "maps_url": "https://www.google.com/maps/place/?q=place_id:ChIJY2IM2pkZE2sRS6xJkx_EL7k"
  },
  {
    "name": "Chemist Outlet East Gosford",
    "address": "52 York St, East Gosford NSW 2250, Australia",
    "suburb": "East Gosford NSW 2250",
    "state": "NSW",
    "rating": 4.3,
    "reviews": 202,
    "lat": -33.4362827,
    "lng": 151.3488447,
    "place_id": "ChIJhzIxa161cmsRyUhJgZQB0rY",
    "maps_url": "https://www.google.com/maps/place/?q=place_id:ChIJhzIxa161cmsRyUhJgZQB0rY"
  },
  {
    "name": "West Gosford Late Night Chemist",
    "address": "69 Central Coast Hwy, West Gosford NSW 2250, Australia",
    "suburb": "West Gosford NSW 2250",
    "state": "NSW",
    "rating": 4.2,
    "reviews": 90,
    "lat": -33.4269711,
    "lng": 151.3219553,
    "place_id": "ChIJzcyqIqpKDWsRxnZrm1B65mA",
    "maps_url": "https://www.google.com/maps/place/?q=place_id:ChIJzcyqIqpKDWsRxnZrm1B65mA"
  },
  {
    "name": "Amcal Pharmacy",
    "address": "70 Wallarah Rd, Gorokan NSW 2263, Australia",
    "suburb": "Gorokan NSW 2263",
    "state": "NSW",
    "rating": 4,
    "reviews": 122,
    "lat": -33.2582631,
    "lng": 151.5116711,
    "place_id": "ChIJNSuQ7oLQcmsRbSTwSpAQV_M",
    "maps_url": "https://www.google.com/maps/place/?q=place_id:ChIJNSuQ7oLQcmsRbSTwSpAQV_M"
  },
  {
    "name": "Wamberal Pharmacy",
    "address": "658 The Entrance Rd, Wamberal NSW 2260, Australia",
    "suburb": "Wamberal NSW 2260",
    "state": "NSW",
    "rating": 4.7,
    "reviews": 79,
    "lat": -33.4231258,
    "lng": 151.4379615,
    "place_id": "ChIJT5mp-ZnJcmsRzPXdfQY6D_o",
    "maps_url": "https://www.google.com/maps/place/?q=place_id:ChIJT5mp-ZnJcmsRzPXdfQY6D_o"
  },
  {
    "name": "Erina Pharmacy",
    "address": "148/158 The Entrance Rd, Erina NSW 2250, Australia",
    "suburb": "Erina NSW 2250",
    "state": "NSW",
    "rating": 4,
    "reviews": 51,
    "lat": -33.4384025,
    "lng": 151.3829403,
    "place_id": "ChIJYbJvTHjKcmsRnN0N_aKRDws",
    "maps_url": "https://www.google.com/maps/place/?q=place_id:ChIJYbJvTHjKcmsRnN0N_aKRDws"
  },
  {
    "name": "Healthsave Chemist Erina",
    "address": "13/210 Central Coast Hwy, Erina NSW 2250, Australia",
    "suburb": "Erina NSW 2250",
    "state": "NSW",
    "rating": 4.4,
    "reviews": 36,
    "lat": -33.4351531,
    "lng": 151.3872369,
    "place_id": "ChIJVSvV6XDKcmsRti7alIiE91Y",
    "maps_url": "https://www.google.com/maps/place/?q=place_id:ChIJVSvV6XDKcmsRti7alIiE91Y"
  },
  {
    "name": "Chemist Warehouse Gosford",
    "address": "125 Mann St, Gosford NSW 2250, Australia",
    "suburb": "Gosford NSW 2250",
    "state": "NSW",
    "rating": 3.3,
    "reviews": 276,
    "lat": -33.4264201,
    "lng": 151.3422644,
    "place_id": "ChIJOTJOkqbKcmsRy4sjS276mdU",
    "maps_url": "https://www.google.com/maps/place/?q=place_id:ChIJOTJOkqbKcmsRy4sjS276mdU"
  },
  {
    "name": "Chemist Warehouse Erina Fair Shopping Centre",
    "address": "Erina Fair Shopping Centre, Shop T1 Terrigal Dr, Erina NSW 2250, Australia",
    "suburb": "Shop T1 Terrigal Dr",
    "state": "NSW",
    "rating": 3.5,
    "reviews": 160,
    "lat": -33.4394112,
    "lng": 151.3948742,
    "place_id": "ChIJ4St-8nPKcmsRduNqYgpWCss",
    "maps_url": "https://www.google.com/maps/place/?q=place_id:ChIJ4St-8nPKcmsRduNqYgpWCss"
  },
  {
    "name": "Blooms The Chemist Erina",
    "address": "Shop T113/618 Terrigal Dr, Erina NSW 2250, Australia",
    "suburb": "Erina NSW 2250",
    "state": "NSW",
    "rating": 4.7,
    "reviews": 177,
    "lat": -33.438451,
    "lng": 151.3948488,
    "place_id": "ChIJyVIHp3PKcmsRh9Y9-_fUGT8",
    "maps_url": "https://www.google.com/maps/place/?q=place_id:ChIJyVIHp3PKcmsRh9Y9-_fUGT8"
  },
  {
    "name": "Chemist Outlet Erina Heights",
    "address": "375 The Entrance Rd, Erina Heights NSW 2250, Australia",
    "suburb": "Erina Heights NSW 2250",
    "state": "NSW",
    "rating": 3.2,
    "reviews": 26,
    "lat": -33.4250721,
    "lng": 151.4006143,
    "place_id": "ChIJhSbIjhXKcmsR_MWnRz8ZMKQ",
    "maps_url": "https://www.google.com/maps/place/?q=place_id:ChIJhSbIjhXKcmsR_MWnRz8ZMKQ"
  },
  {
    "name": "Priceline Pharmacy Erina Fair",
    "address": "344 - 345/620-658 Terrigal Dr, Erina NSW 2250, Australia",
    "suburb": "Erina NSW 2250",
    "state": "NSW",
    "rating": 3.4,
    "reviews": 75,
    "lat": -33.4364351,
    "lng": 151.3920072,
    "place_id": "ChIJs5l7jXPKcmsRih2KfwgqsMI",
    "maps_url": "https://www.google.com/maps/place/?q=place_id:ChIJs5l7jXPKcmsRih2KfwgqsMI"
  },
  {
    "name": "West Gosford Amcal+ Pharmacy",
    "address": "Shop 17/299 Brisbane Water Dr, West Gosford NSW 2250, Australia",
    "suburb": "West Gosford NSW 2250",
    "state": "NSW",
    "rating": 4.4,
    "reviews": 56,
    "lat": -33.428681,
    "lng": 151.316485,
    "place_id": "ChIJhfb3Sa9KDWsRipi-7-k2WxE",
    "maps_url": "https://www.google.com/maps/place/?q=place_id:ChIJhfb3Sa9KDWsRipi-7-k2WxE"
  },
  {
    "name": "Chemist Outlet Tumbi Umbi",
    "address": "7 Mingara Dr, Tumbi Umbi NSW 2261, Australia",
    "suburb": "Tumbi Umbi NSW 2261",
    "state": "NSW",
    "rating": 3.2,
    "reviews": 95,
    "lat": -33.3634132,
    "lng": 151.4435081,
    "place_id": "ChIJH58a-LfOcmsRORYSCtEhD30",
    "maps_url": "https://www.google.com/maps/place/?q=place_id:ChIJH58a-LfOcmsRORYSCtEhD30"
  },
  {
    "name": "Chemist Warehouse Erina - The Entrance Road",
    "address": "Shop 3, Erina Shopping Village, 216 to/218 The Entrance Rd, Erina NSW 2250, Australia",
    "suburb": "Erina Shopping Village",
    "state": "NSW",
    "rating": 4.2,
    "reviews": 44,
    "lat": -33.4353159,
    "lng": 151.3882468,
    "place_id": "ChIJr3J6HnHKcmsRMfHjCZDPCFU",
    "maps_url": "https://www.google.com/maps/place/?q=place_id:ChIJr3J6HnHKcmsRMfHjCZDPCFU"
  },
  {
    "name": "Chemist Outlet North Wyong",
    "address": "9 D&E, Amy Cl, Wyong NSW 2259, Australia",
    "suburb": "Amy Cl",
    "state": "NSW",
    "rating": 4.1,
    "reviews": 108,
    "lat": -33.2676139,
    "lng": 151.4337939,
    "place_id": "ChIJcXe2JZPRcmsRbR6QV7SQp8E",
    "maps_url": "https://www.google.com/maps/place/?q=place_id:ChIJcXe2JZPRcmsRbR6QV7SQp8E"
  },
  {
    "name": "Chemist Outlet Lisarow",
    "address": "Lisarow Plaza, Shop 22/1 Parsons Rd, Lisarow NSW 2250, Australia",
    "suburb": "Shop 22/1 Parsons Rd",
    "state": "NSW",
    "rating": 3.8,
    "reviews": 72,
    "lat": -33.3851426,
    "lng": 151.3664998,
    "place_id": "ChIJM7tmXw_LcmsRMY-yced9h6g",
    "maps_url": "https://www.google.com/maps/place/?q=place_id:ChIJM7tmXw_LcmsRMY-yced9h6g"
  },
  {
    "name": "Chemist Outlet Wyoming",
    "address": "SHOP 1/470 Pacific Hwy, Wyoming NSW 2250, Australia",
    "suburb": "Wyoming NSW 2250",
    "state": "NSW",
    "rating": 4.4,
    "reviews": 44,
    "lat": -33.4091888,
    "lng": 151.3488176,
    "place_id": "ChIJHS3qNMDKcmsRR0SyRc7MYKE",
    "maps_url": "https://www.google.com/maps/place/?q=place_id:ChIJHS3qNMDKcmsRR0SyRc7MYKE"
  },
  {
    "name": "Cincotta Discount Chemist Killarney Vale",
    "address": "138 Wyong Rd, Killarney Vale NSW 2261, Australia",
    "suburb": "Killarney Vale NSW 2261",
    "state": "NSW",
    "rating": 3.9,
    "reviews": 27,
    "lat": -33.3660264,
    "lng": 151.4619985,
    "place_id": "ChIJ5X7-mdnOcmsR5pn3Oaj3FSA",
    "maps_url": "https://www.google.com/maps/place/?q=place_id:ChIJ5X7-mdnOcmsR5pn3Oaj3FSA"
  },
  {
    "name": "TerryWhite Chemmart Gorokan",
    "address": "70 Wallarah Rd, Gorokan NSW 2263, Australia",
    "suburb": "Gorokan NSW 2263",
    "state": "NSW",
    "rating": 4.3,
    "reviews": 3,
    "lat": -33.2582869,
    "lng": 151.5117105,
    "place_id": "ChIJHR-ldyrRcmsR0E81HnQOfXc",
    "maps_url": "https://www.google.com/maps/place/?q=place_id:ChIJHR-ldyrRcmsR0E81HnQOfXc"
  },
  {
    "name": "The Entrance District After Hours Pharmacy",
    "address": "112 Wyong Rd, Killarney Vale NSW 2261, Australia",
    "suburb": "Killarney Vale NSW 2261",
    "state": "NSW",
    "rating": 3.6,
    "reviews": 45,
    "lat": -33.366888,
    "lng": 151.46413,
    "place_id": "ChIJIccnS9jOcmsRTzRlurGQeWE",
    "maps_url": "https://www.google.com/maps/place/?q=place_id:ChIJIccnS9jOcmsRTzRlurGQeWE"
  },
  {
    "name": "Penrith 24 Hour Pharmacy healthSAVE",
    "address": "Suite 1/438 High St, Penrith NSW 2750, Australia",
    "suburb": "Penrith NSW 2750",
    "state": "NSW",
    "rating": 4.2,
    "reviews": 251,
    "lat": -33.7536502,
    "lng": 150.6973178,
    "place_id": "ChIJG8aruPSFEmsRwZxtNQrEGlo",
    "maps_url": "https://www.google.com/maps/place/?q=place_id:ChIJG8aruPSFEmsRwZxtNQrEGlo"
  },
  {
    "name": "Medicines R Us Our Medical Chemist - Penrith",
    "address": "Inside Our Medical Home, 2227 Wolseley St, Jamisontown NSW 2750, Australia",
    "suburb": "2227 Wolseley St",
    "state": "NSW",
    "rating": 4.8,
    "reviews": 187,
    "lat": -33.7698966,
    "lng": 150.6729235,
    "place_id": "ChIJYxXQWUGJEmsR8p0S35ZLpD4",
    "maps_url": "https://www.google.com/maps/place/?q=place_id:ChIJYxXQWUGJEmsR8p0S35ZLpD4"
  },
  {
    "name": "Our Medical Penrith",
    "address": "2227 Wolseley St, Jamisontown NSW 2750, Australia",
    "suburb": "Jamisontown NSW 2750",
    "state": "NSW",
    "rating": 2.6,
    "reviews": 729,
    "lat": -33.7699917,
    "lng": 150.6728075,
    "place_id": "ChIJE5PZqweJEmsRPMJmXDZojIY",
    "maps_url": "https://www.google.com/maps/place/?q=place_id:ChIJE5PZqweJEmsRPMJmXDZojIY"
  },
  {
    "name": "Chemist Warehouse Penrith Central",
    "address": "Shop 1/457 High St, Penrith NSW 2750, Australia",
    "suburb": "Penrith NSW 2750",
    "state": "NSW",
    "rating": 3.6,
    "reviews": 235,
    "lat": -33.7531946,
    "lng": 150.6969309,
    "place_id": "ChIJX8Iqo_SFEmsRNgyUSi12-c0",
    "maps_url": "https://www.google.com/maps/place/?q=place_id:ChIJX8Iqo_SFEmsRNgyUSi12-c0"
  },
  {
    "name": "TerryWhite Chemmart Penrith Compounding",
    "address": "447 High St, Penrith NSW 2750, Australia",
    "suburb": "Penrith NSW 2750",
    "state": "NSW",
    "rating": 4.7,
    "reviews": 261,
    "lat": -33.7532502,
    "lng": 150.6972232,
    "place_id": "ChIJo8B4u_SFEmsRUSpMZlcKTLc",
    "maps_url": "https://www.google.com/maps/place/?q=place_id:ChIJo8B4u_SFEmsRUSpMZlcKTLc"
  },
  {
    "name": "Blooms the Chemist Penrith High Street",
    "address": "3/535 High St, Penrith NSW 2750, Australia",
    "suburb": "Penrith NSW 2750",
    "state": "NSW",
    "rating": 4.7,
    "reviews": 54,
    "lat": -33.752814,
    "lng": 150.694375,
    "place_id": "ChIJkaU7DIGFEmsRGORgWKZhATk",
    "maps_url": "https://www.google.com/maps/place/?q=place_id:ChIJkaU7DIGFEmsRGORgWKZhATk"
  },
  {
    "name": "Chemist Warehouse Penrith Plaza",
    "address": "139/585 High St, Penrith NSW 2750, Australia",
    "suburb": "Penrith NSW 2750",
    "state": "NSW",
    "rating": 3.1,
    "reviews": 126,
    "lat": -33.7512498,
    "lng": 150.6954307,
    "place_id": "ChIJm3Ojv_aFEmsR5p1hJflPylY",
    "maps_url": "https://www.google.com/maps/place/?q=place_id:ChIJm3Ojv_aFEmsR5p1hJflPylY"
  },
  {
    "name": "Souls The Chemist",
    "address": "Shop 110-114, Penrith Plaza Westfield, 585 High St, Penrith NSW 2750, Australia",
    "suburb": "Penrith Plaza Westfield",
    "state": "NSW",
    "rating": 3.7,
    "reviews": 78,
    "lat": -33.7510412,
    "lng": 150.6915247,
    "place_id": "ChIJOcNSSvGFEmsR8NRU545y5Ns",
    "maps_url": "https://www.google.com/maps/place/?q=place_id:ChIJOcNSSvGFEmsR8NRU545y5Ns"
  },
  {
    "name": "High Street Family Pharmacy - Terry White",
    "address": "243 High St, Penrith NSW 2750, Australia",
    "suburb": "Penrith NSW 2750",
    "state": "NSW",
    "rating": 5,
    "reviews": 20,
    "lat": -33.7549932,
    "lng": 150.7045151,
    "place_id": "ChIJWz9HUomFEmsRpUjH3WAPPuM",
    "maps_url": "https://www.google.com/maps/place/?q=place_id:ChIJWz9HUomFEmsRpUjH3WAPPuM"
  },
  {
    "name": "Blooms The Chemist Penrith Nepean Centro",
    "address": "122-144 Station St, Penrith NSW 2750, Australia",
    "suburb": "Penrith NSW 2750",
    "state": "NSW",
    "rating": 4.4,
    "reviews": 47,
    "lat": -33.7570575,
    "lng": 150.692713,
    "place_id": "ChIJJ7TlufSFEmsRO52xaDwu-mc",
    "maps_url": "https://www.google.com/maps/place/?q=place_id:ChIJJ7TlufSFEmsRO52xaDwu-mc"
  },
  {
    "name": "Medicines R Us Chemist - Henry Lawson Centre Penrith CBD",
    "address": "5a/61-79 Henry St, Penrith NSW 2750, Australia",
    "suburb": "Penrith NSW 2750",
    "state": "NSW",
    "rating": 4.8,
    "reviews": 35,
    "lat": -33.7530829,
    "lng": 150.7018799,
    "place_id": "ChIJw0jBYIyFEmsRZCfhlY6J7ac",
    "maps_url": "https://www.google.com/maps/place/?q=place_id:ChIJw0jBYIyFEmsRZCfhlY6J7ac"
  },
  {
    "name": "Steve's Pharmacy",
    "address": "383 High St, Penrith NSW 2750, Australia",
    "suburb": "Penrith NSW 2750",
    "state": "NSW",
    "rating": 4.8,
    "reviews": 27,
    "lat": -33.75383040000001,
    "lng": 150.69917,
    "place_id": "ChIJi5lERIuFEmsRYW6J0eOVadE",
    "maps_url": "https://www.google.com/maps/place/?q=place_id:ChIJi5lERIuFEmsRYW6J0eOVadE"
  },
  {
    "name": "Cincotta Discount Chemist Penrith",
    "address": "473 High St, Penrith NSW 2750, Australia",
    "suburb": "Penrith NSW 2750",
    "state": "NSW",
    "rating": 4.4,
    "reviews": 50,
    "lat": -33.7532493,
    "lng": 150.6963787,
    "place_id": "ChIJA63Je-qFEmsRFS-WJoEkml8",
    "maps_url": "https://www.google.com/maps/place/?q=place_id:ChIJA63Je-qFEmsRFS-WJoEkml8"
  },
  {
    "name": "TerryWhite Chemmart Mt Druitt",
    "address": "1 Calala St, Mount Druitt NSW 2770, Australia",
    "suburb": "Mount Druitt NSW 2770",
    "state": "NSW",
    "rating": 3.5,
    "reviews": 56,
    "lat": -33.762527,
    "lng": 150.817292,
    "place_id": "ChIJTVJh9YybEmsRG_Ze9qgLrxE",
    "maps_url": "https://www.google.com/maps/place/?q=place_id:ChIJTVJh9YybEmsRG_Ze9qgLrxE"
  },
  {
    "name": "Chemist Warehouse Penrith Distribution Centre",
    "address": "Shop 230 SupaCenta Centre, 13 to 23 Pattys Pl, Jamisontown NSW 2750, Australia",
    "suburb": "13 to 23 Pattys Pl",
    "state": "NSW",
    "rating": 3.2,
    "reviews": 121,
    "lat": -33.7692122,
    "lng": 150.6697102,
    "place_id": "ChIJ50IRv7WIEmsR9g_JyS0H1gM",
    "maps_url": "https://www.google.com/maps/place/?q=place_id:ChIJ50IRv7WIEmsR9g_JyS0H1gM"
  },
  {
    "name": "Priceline Pharmacy Penrith South",
    "address": "Crn Maxwell & Evan St's, South Penrith NSW 2750, Australia",
    "suburb": "South Penrith NSW 2750",
    "state": "NSW",
    "rating": 3.9,
    "reviews": 90,
    "lat": -33.7740212,
    "lng": 150.6962744,
    "place_id": "ChIJzURe7kGPEmsRSLOgAisR4xM",
    "maps_url": "https://www.google.com/maps/place/?q=place_id:ChIJzURe7kGPEmsRSLOgAisR4xM"
  },
  {
    "name": "Groses Pharmacy",
    "address": "175 Smith St, South Penrith NSW 2750, Australia",
    "suburb": "South Penrith NSW 2750",
    "state": "NSW",
    "rating": 4.7,
    "reviews": 35,
    "lat": -33.766792,
    "lng": 150.702126,
    "place_id": "ChIJpffZWGaPEmsREufa7tqaV00",
    "maps_url": "https://www.google.com/maps/place/?q=place_id:ChIJpffZWGaPEmsREufa7tqaV00"
  },
  {
    "name": "Henry Lawson Centre",
    "address": "61-79 Henry St, Penrith NSW 2750, Australia",
    "suburb": "Penrith NSW 2750",
    "state": "NSW",
    "rating": 4.5,
    "reviews": 11,
    "lat": -33.75288889999999,
    "lng": 150.7018106,
    "place_id": "ChIJgRWa7dSFEmsRRBspulxCtwM",
    "maps_url": "https://www.google.com/maps/place/?q=place_id:ChIJgRWa7dSFEmsRRBspulxCtwM"
  },
  {
    "name": "Direct Chemist Outlet Kingswood",
    "address": "236 Great Western Hwy, Kingswood NSW 2747, Australia",
    "suburb": "Kingswood NSW 2747",
    "state": "NSW",
    "rating": 4.3,
    "reviews": 95,
    "lat": -33.7583471,
    "lng": 150.7178582,
    "place_id": "ChIJLbHEeoGFEmsRIAPetE8ycxc",
    "maps_url": "https://www.google.com/maps/place/?q=place_id:ChIJLbHEeoGFEmsRIAPetE8ycxc"
  },
  {
    "name": "Cincotta Discount Chemist Blacktown (Compounding Chemist)",
    "address": "67 Main St, Blacktown NSW 2148, Australia",
    "suburb": "Blacktown NSW 2148",
    "state": "NSW",
    "rating": 4.2,
    "reviews": 192,
    "lat": -33.7698223,
    "lng": 150.9091751,
    "place_id": "ChIJc3YmnP-YEmsRt7AnK1wi2CU",
    "maps_url": "https://www.google.com/maps/place/?q=place_id:ChIJc3YmnP-YEmsRt7AnK1wi2CU"
  },
  {
    "name": "TerryWhite Chemmart Blacktown",
    "address": "Shop 7/6 St Martins Cres, Blacktown NSW 2148, Australia",
    "suburb": "Blacktown NSW 2148",
    "state": "NSW",
    "rating": 3.6,
    "reviews": 102,
    "lat": -33.7819508,
    "lng": 150.9188866,
    "place_id": "ChIJ9zUS49yZEmsRjber9PpB7QI",
    "maps_url": "https://www.google.com/maps/place/?q=place_id:ChIJ9zUS49yZEmsRjber9PpB7QI"
  },
  {
    "name": "SuperChem Blacktown",
    "address": "27 First Ave, Blacktown NSW 2148, Australia",
    "suburb": "Blacktown NSW 2148",
    "state": "NSW",
    "rating": 2.9,
    "reviews": 72,
    "lat": -33.7674856,
    "lng": 150.909509,
    "place_id": "ChIJ2yhbZf6YEmsRfc4v6CUlwNA",
    "maps_url": "https://www.google.com/maps/place/?q=place_id:ChIJ2yhbZf6YEmsRfc4v6CUlwNA"
  },
  {
    "name": "Chemist Warehouse Blacktown",
    "address": "1/9 Patrick St, Blacktown NSW 2148, Australia",
    "suburb": "Blacktown NSW 2148",
    "state": "NSW",
    "rating": 3,
    "reviews": 709,
    "lat": -33.7694987,
    "lng": 150.9065378,
    "place_id": "ChIJO-sdPgCZEmsR6t9hnbeDwYc",
    "maps_url": "https://www.google.com/maps/place/?q=place_id:ChIJO-sdPgCZEmsR6t9hnbeDwYc"
  },
  {
    "name": "Priceline Pharmacy Blacktown",
    "address": "Level 1, Shop 1007, Westpoint Shopping Centre, Shop 1007/17 Patrick St, Blacktown NSW 2148, Australia",
    "suburb": "Shop 1007",
    "state": "NSW",
    "rating": 3.9,
    "reviews": 394,
    "lat": -33.7698151,
    "lng": 150.9053279,
    "place_id": "ChIJTaC-f6qZEmsRW3sKn1Fg_Ns",
    "maps_url": "https://www.google.com/maps/place/?q=place_id:ChIJTaC-f6qZEmsRW3sKn1Fg_Ns"
  },
  {
    "name": "Chester & Jake's Pharmacy Westpoint",
    "address": "Shop 3066, Level 3 Westpoint Shopping Centre, 17 Patrick St, Blacktown NSW 2148, Australia",
    "suburb": "Level 3 Westpoint Shopping Centre",
    "state": "NSW",
    "rating": 3.9,
    "reviews": 51,
    "lat": -33.77085580000001,
    "lng": 150.907332,
    "place_id": "ChIJGeyAxf-YEmsRdRUAANBWJFo",
    "maps_url": "https://www.google.com/maps/place/?q=place_id:ChIJGeyAxf-YEmsRdRUAANBWJFo"
  },
  {
    "name": "Seven Hills Day & Night Pharmacy",
    "address": "1/36 Johnson Ave, Seven Hills NSW 2147, Australia",
    "suburb": "Seven Hills NSW 2147",
    "state": "NSW",
    "rating": 4.7,
    "reviews": 119,
    "lat": -33.7618116,
    "lng": 150.9424787,
    "place_id": "ChIJ99doJpiYEmsRNBIG06XhjDY",
    "maps_url": "https://www.google.com/maps/place/?q=place_id:ChIJ99doJpiYEmsRNBIG06XhjDY"
  },
  {
    "name": "Good Value Chemist",
    "address": "48 Main St, Blacktown NSW 2148, Australia",
    "suburb": "Blacktown NSW 2148",
    "state": "NSW",
    "rating": 3.9,
    "reviews": 27,
    "lat": -33.7694698,
    "lng": 150.9083777,
    "place_id": "ChIJi1jszv-YEmsRVfMBP1KfpW4",
    "maps_url": "https://www.google.com/maps/place/?q=place_id:ChIJi1jszv-YEmsRVfMBP1KfpW4"
  },
  {
    "name": "TerryWhite Chemmart Westpoint Compounding",
    "address": "Westpoint Shopping Centre, Shop 1037A, Level 1/17 Patrick St, Blacktown NSW 2148, Australia",
    "suburb": "Shop 1037A",
    "state": "NSW",
    "rating": 3.3,
    "reviews": 17,
    "lat": -33.770754,
    "lng": 150.9072486,
    "place_id": "ChIJIWVOzCaZEmsRsIVQXPbdNX4",
    "maps_url": "https://www.google.com/maps/place/?q=place_id:ChIJIWVOzCaZEmsRsIVQXPbdNX4"
  },
  {
    "name": "Kildare Road Pharmacy",
    "address": "36 Kildare Rd, Blacktown NSW 2148, Australia",
    "suburb": "Blacktown NSW 2148",
    "state": "NSW",
    "rating": 4.9,
    "reviews": 81,
    "lat": -33.7691874,
    "lng": 150.9045819,
    "place_id": "ChIJ96aijO-ZEmsR6WS08ZrTZLM",
    "maps_url": "https://www.google.com/maps/place/?q=place_id:ChIJ96aijO-ZEmsR6WS08ZrTZLM"
  },
  {
    "name": "Friendly Compounding Pharmacy Blacktown",
    "address": "17 Patrick St, Blacktown NSW 2148, Australia",
    "suburb": "Blacktown NSW 2148",
    "state": "NSW",
    "rating": 4.1,
    "reviews": 11,
    "lat": -33.769787,
    "lng": 150.904991,
    "place_id": "ChIJmzyUZACZEmsRtUc7NyxhTag",
    "maps_url": "https://www.google.com/maps/place/?q=place_id:ChIJmzyUZACZEmsRtUc7NyxhTag"
  },
  {
    "name": "Walters Road Pharmacy",
    "address": "74D Walters Rd, Blacktown NSW 2148, Australia",
    "suburb": "Blacktown NSW 2148",
    "state": "NSW",
    "rating": 4.3,
    "reviews": 53,
    "lat": -33.7778885,
    "lng": 150.8944917,
    "place_id": "ChIJx9t6NaWZEmsRYRLMD36oT6Q",
    "maps_url": "https://www.google.com/maps/place/?q=place_id:ChIJx9t6NaWZEmsRYRLMD36oT6Q"
  },
  {
    "name": "Medlife Discount Chemist",
    "address": "Unit 1/143 Stephen St, Blacktown NSW 2148, Australia",
    "suburb": "Blacktown NSW 2148",
    "state": "NSW",
    "rating": 4.1,
    "reviews": 44,
    "lat": -33.7643372,
    "lng": 150.9195273,
    "place_id": "ChIJC0N7AvCYEmsRBfIxnX8fHco",
    "maps_url": "https://www.google.com/maps/place/?q=place_id:ChIJC0N7AvCYEmsRBfIxnX8fHco"
  },
  {
    "name": "Xtreme Chemist Blacktown",
    "address": "Mega Center, Shop F1/14 St Martins Cres, Blacktown NSW 2148, Australia",
    "suburb": "Shop F1/14 St Martins Cres",
    "state": "NSW",
    "rating": 4.4,
    "reviews": 65,
    "lat": -33.7817905,
    "lng": 150.9184066,
    "place_id": "ChIJs9sqh1qYEmsR-WC_A3npfMM",
    "maps_url": "https://www.google.com/maps/place/?q=place_id:ChIJs9sqh1qYEmsR-WC_A3npfMM"
  },
  {
    "name": "Chester and Jake's Supasave Chemist",
    "address": "2/112 Main St, Blacktown NSW 2148, Australia",
    "suburb": "Blacktown NSW 2148",
    "state": "NSW",
    "rating": 4.5,
    "reviews": 19,
    "lat": -33.771072,
    "lng": 150.9102758,
    "place_id": "ChIJM5fygv-YEmsRqDRfKW9ml4s",
    "maps_url": "https://www.google.com/maps/place/?q=place_id:ChIJM5fygv-YEmsRqDRfKW9ml4s"
  },
  {
    "name": "Fairwater Compounding Pharmacy",
    "address": "81-83 Richmond Rd, Blacktown NSW 2148, Australia",
    "suburb": "Blacktown NSW 2148",
    "state": "NSW",
    "rating": 4.7,
    "reviews": 15,
    "lat": -33.762498,
    "lng": 150.900909,
    "place_id": "ChIJhbDqbwSZEmsRinV15olwZGE",
    "maps_url": "https://www.google.com/maps/place/?q=place_id:ChIJhbDqbwSZEmsRinV15olwZGE"
  },
  {
    "name": "Save And Deliver Compounding Chemist",
    "address": "279 Macquarie St, Liverpool NSW 2170, Australia",
    "suburb": "Liverpool NSW 2170",
    "state": "NSW",
    "rating": 4.3,
    "reviews": 96,
    "lat": -33.92447,
    "lng": 150.9230074,
    "place_id": "ChIJk9kfwbuVEmsRUmkWQqGTmsw",
    "maps_url": "https://www.google.com/maps/place/?q=place_id:ChIJk9kfwbuVEmsRUmkWQqGTmsw"
  },
  {
    "name": "Cincotta Discount Chemist Liverpool",
    "address": "2/279 Macquarie St, Liverpool NSW 2170, Australia",
    "suburb": "Liverpool NSW 2170",
    "state": "NSW",
    "rating": 4.3,
    "reviews": 11,
    "lat": -33.92442,
    "lng": 150.92298,
    "place_id": "ChIJ611mX7iVEmsRGRy0T6MUXj4",
    "maps_url": "https://www.google.com/maps/place/?q=place_id:ChIJ611mX7iVEmsRGRy0T6MUXj4"
  },
  {
    "name": "Chemist Warehouse Liverpool",
    "address": "129 Terminus St, Liverpool NSW 2170, Australia",
    "suburb": "Liverpool NSW 2170",
    "state": "NSW",
    "rating": 3.8,
    "reviews": 394,
    "lat": -33.9264691,
    "lng": 150.9213258,
    "place_id": "ChIJGftc37uVEmsRwkOddR6cvY8",
    "maps_url": "https://www.google.com/maps/place/?q=place_id:ChIJGftc37uVEmsRwkOddR6cvY8"
  },
  {
    "name": "Liverpool Plaza Discount Chemist",
    "address": "Shop 17/165-191 Macquarie St, Liverpool NSW 2170, Australia",
    "suburb": "Liverpool NSW 2170",
    "state": "NSW",
    "rating": 4.1,
    "reviews": 36,
    "lat": -33.921463,
    "lng": 150.9226929,
    "place_id": "ChIJtejmfVWVEmsR8C_teq355Is",
    "maps_url": "https://www.google.com/maps/place/?q=place_id:ChIJtejmfVWVEmsR8C_teq355Is"
  },
  {
    "name": "Direct Chemist Outlet Prestons",
    "address": "Shop 11/1975-1985 Camden Valley Wy, Prestons NSW 2170, Australia",
    "suburb": "Prestons NSW 2170",
    "state": "NSW",
    "rating": 4.2,
    "reviews": 63,
    "lat": -33.9521284,
    "lng": 150.8554477,
    "place_id": "ChIJe4DKi7aTEmsRjkZ0ROhkUMQ",
    "maps_url": "https://www.google.com/maps/place/?q=place_id:ChIJe4DKi7aTEmsRjkZ0ROhkUMQ"
  },
  {
    "name": "Chemist Warehouse Casula DC",
    "address": "Crossroads Homemaker Centre, Tenancy 15/5 Parkers Farm Pl, Casula NSW 2170, Australia",
    "suburb": "Tenancy 15/5 Parkers Farm Pl",
    "state": "NSW",
    "rating": 3.4,
    "reviews": 416,
    "lat": -33.959477,
    "lng": 150.8829169,
    "place_id": "ChIJAyam7beUEmsRduljhb9qArY",
    "maps_url": "https://www.google.com/maps/place/?q=place_id:ChIJAyam7beUEmsRduljhb9qArY"
  },
  {
    "name": "Discount Chemist Outlet Liverpool",
    "address": "235 Macquarie St, Liverpool NSW 2170, Australia",
    "suburb": "Liverpool NSW 2170",
    "state": "NSW",
    "rating": 3.8,
    "reviews": 11,
    "lat": -33.9232777,
    "lng": 150.923238,
    "place_id": "ChIJdcRLNIyVEmsRdJ5fA3O_d3c",
    "maps_url": "https://www.google.com/maps/place/?q=place_id:ChIJdcRLNIyVEmsRdJ5fA3O_d3c"
  },
  {
    "name": "Chemist Warehouse The Grove Liverpool",
    "address": "Units 3 to 6/18 Orange Grove Rd, Liverpool NSW 2170, Australia",
    "suburb": "Liverpool NSW 2170",
    "state": "NSW",
    "rating": 3.1,
    "reviews": 162,
    "lat": -33.9084158,
    "lng": 150.9195546,
    "place_id": "ChIJa-8OcvCVEmsREVKWoJ7E-Z0",
    "maps_url": "https://www.google.com/maps/place/?q=place_id:ChIJa-8OcvCVEmsREVKWoJ7E-Z0"
  },
  {
    "name": "Murray's Direct chemist Outlet",
    "address": "238 Macquarie St, Liverpool NSW 2170, Australia",
    "suburb": "Liverpool NSW 2170",
    "state": "NSW",
    "rating": 4.3,
    "reviews": 24,
    "lat": -33.9231978,
    "lng": 150.9237974,
    "place_id": "ChIJ_153X7mVEmsRXEsie1__aw4",
    "maps_url": "https://www.google.com/maps/place/?q=place_id:ChIJ_153X7mVEmsRXEsie1__aw4"
  },
  {
    "name": "Chemist Warehouse",
    "address": "Shop 149/51 Macquarie St, Liverpool NSW 2170, Australia",
    "suburb": "Liverpool NSW 2170",
    "state": "NSW",
    "rating": 3,
    "reviews": 117,
    "lat": -33.9192231,
    "lng": 150.9248143,
    "place_id": "ChIJQ6Qg8pCVEmsRFkQr3f2fC7k",
    "maps_url": "https://www.google.com/maps/place/?q=place_id:ChIJQ6Qg8pCVEmsRFkQr3f2fC7k"
  },
  {
    "name": "Chemist Warehouse Ashfield",
    "address": "Shop 1 Lumina/268 to 270 Liverpool Rd, Ashfield NSW 2131, Australia",
    "suburb": "Ashfield NSW 2131",
    "state": "NSW",
    "rating": 2.8,
    "reviews": 263,
    "lat": -33.8883108,
    "lng": 151.123617,
    "place_id": "ChIJ310WM5a6EmsRFYP4IWkoup0",
    "maps_url": "https://www.google.com/maps/place/?q=place_id:ChIJ310WM5a6EmsRFYP4IWkoup0"
  },
  {
    "name": "Black and White Pharmacy",
    "address": "337 Hume Hwy, Liverpool NSW 2170, Australia",
    "suburb": "Liverpool NSW 2170",
    "state": "NSW",
    "rating": 4.2,
    "reviews": 39,
    "lat": -33.93076,
    "lng": 150.917203,
    "place_id": "ChIJRVPsPa-VEmsRwrhtPIMPcjw",
    "maps_url": "https://www.google.com/maps/place/?q=place_id:ChIJRVPsPa-VEmsRwrhtPIMPcjw"
  },
  {
    "name": "TerryWhite Chemmart Revesby",
    "address": "Shop 16/19-29 Marco Ave, Revesby NSW 2212, Australia",
    "suburb": "Revesby NSW 2212",
    "state": "NSW",
    "rating": 4.4,
    "reviews": 216,
    "lat": -33.9519157,
    "lng": 151.0139028,
    "place_id": "ChIJAwdLXOW-EmsRgK1VbMu2bRw",
    "maps_url": "https://www.google.com/maps/place/?q=place_id:ChIJAwdLXOW-EmsRgK1VbMu2bRw"
  },
  {
    "name": "Penna's Liverpool Pharmacy",
    "address": "72-78 Hoxton Park Rd, Liverpool NSW 2170, Australia",
    "suburb": "Liverpool NSW 2170",
    "state": "NSW",
    "rating": 4.6,
    "reviews": 28,
    "lat": -33.9285413,
    "lng": 150.9076218,
    "place_id": "ChIJlbuo3KyVEmsRWOAP6QafHYA",
    "maps_url": "https://www.google.com/maps/place/?q=place_id:ChIJlbuo3KyVEmsRWOAP6QafHYA"
  },
  {
    "name": "Priceline Pharmacy Liverpool Westfield",
    "address": "Westfield Liverpool Shopping Town, Shop 1014, Liverpool NSW 2170, Australia",
    "suburb": "Shop 1014",
    "state": "NSW",
    "rating": 3.4,
    "reviews": 88,
    "lat": -33.9197568,
    "lng": 150.9232441,
    "place_id": "ChIJhW3HwbiVEmsRPwMDRDVYnTQ",
    "maps_url": "https://www.google.com/maps/place/?q=place_id:ChIJhW3HwbiVEmsRPwMDRDVYnTQ"
  },
  {
    "name": "Elizabeth Drive Pharmacy",
    "address": "130 Elizabeth Dr, Liverpool NSW 2170, Australia",
    "suburb": "Liverpool NSW 2170",
    "state": "NSW",
    "rating": 4.5,
    "reviews": 13,
    "lat": -33.9166997,
    "lng": 150.9108237,
    "place_id": "ChIJfYZ_r7WVEmsRX5pRRwyhScE",
    "maps_url": "https://www.google.com/maps/place/?q=place_id:ChIJfYZ_r7WVEmsRX5pRRwyhScE"
  },
  {
    "name": "TerryWhite Chemmart",
    "address": "Shop 13/218/228 Northumberland St, Liverpool NSW 2170, Australia",
    "suburb": "Liverpool NSW 2170",
    "state": "NSW",
    "rating": 4,
    "reviews": 4,
    "lat": -33.923175,
    "lng": 150.9226444,
    "place_id": "ChIJt99ffbmVEmsRImMB3aVuYXs",
    "maps_url": "https://www.google.com/maps/place/?q=place_id:ChIJt99ffbmVEmsRImMB3aVuYXs"
  },
  {
    "name": "Wellness Pharmacy Liverpool Hospital",
    "address": "Ground Floor, Shop 5 & 6 3/5 Elizabeth St, Liverpool NSW 2170, Australia",
    "suburb": "Shop 5 & 6 3/5 Elizabeth St",
    "state": "NSW",
    "rating": 3.3,
    "reviews": 18,
    "lat": -33.9203069,
    "lng": 150.9302814,
    "place_id": "ChIJGRMeTU-VEmsReVmGGXlmIZ0",
    "maps_url": "https://www.google.com/maps/place/?q=place_id:ChIJGRMeTU-VEmsReVmGGXlmIZ0"
  },
  {
    "name": "Chemist Warehouse Fairfield NSW",
    "address": "8 Kenyon St, Fairfield NSW 2165, Australia",
    "suburb": "Fairfield NSW 2165",
    "state": "NSW",
    "rating": 3.5,
    "reviews": 573,
    "lat": -33.8706563,
    "lng": 150.9536891,
    "place_id": "ChIJnfIl5ymWEmsRqUaA64n-YKI",
    "maps_url": "https://www.google.com/maps/place/?q=place_id:ChIJnfIl5ymWEmsRqUaA64n-YKI"
  },
  {
    "name": "Ralph's Pharmacy",
    "address": "246 Queen St, Campbelltown NSW 2560, Australia",
    "suburb": "Campbelltown NSW 2560",
    "state": "NSW",
    "rating": 3.9,
    "reviews": 76,
    "lat": -34.0682279,
    "lng": 150.8130712,
    "place_id": "ChIJqdNJ21XuEmsRBKDJrHhQ_cI",
    "maps_url": "https://www.google.com/maps/place/?q=place_id:ChIJqdNJ21XuEmsRBKDJrHhQ_cI"
  },
  {
    "name": "Chemist Warehouse Campbelltown",
    "address": "Marketfair Shopping Centre, Shop MM11/4 Tindall St, Campbelltown NSW 2560, Australia",
    "suburb": "Shop MM11/4 Tindall St",
    "state": "NSW",
    "rating": 3.5,
    "reviews": 488,
    "lat": -34.0717633,
    "lng": 150.8040668,
    "place_id": "ChIJ7VMdKK3vEmsRLGdTTkkJTxc",
    "maps_url": "https://www.google.com/maps/place/?q=place_id:ChIJ7VMdKK3vEmsRLGdTTkkJTxc"
  },
  {
    "name": "Campbelltown Chempro Chemist",
    "address": "157A Queen St, Campbelltown NSW 2560, Australia",
    "suburb": "Campbelltown NSW 2560",
    "state": "NSW",
    "rating": 4.6,
    "reviews": 18,
    "lat": -34.0665973,
    "lng": 150.8141852,
    "place_id": "ChIJ55IsJlbuEmsR36iXtXdv-uA",
    "maps_url": "https://www.google.com/maps/place/?q=place_id:ChIJ55IsJlbuEmsR36iXtXdv-uA"
  },
  {
    "name": "TerryWhite Chemmart Narellan Town Centre",
    "address": "Shop 12 326 Camden Valley Way &, Somerset Ave, Narellan NSW 2567, Australia",
    "suburb": "Somerset Ave",
    "state": "NSW",
    "rating": 4,
    "reviews": 72,
    "lat": -34.0413215,
    "lng": 150.7383639,
    "place_id": "ChIJccMsR7rxEmsRHyydEoPE46E",
    "maps_url": "https://www.google.com/maps/place/?q=place_id:ChIJccMsR7rxEmsRHyydEoPE46E"
  },
  {
    "name": "Sefton's Pharmacy",
    "address": "6/66 Chamberlain Street, Corner of, Lindesay St, Campbelltown NSW 2560, Australia",
    "suburb": "Corner of",
    "state": "NSW",
    "rating": 4.9,
    "reviews": 196,
    "lat": -34.065855,
    "lng": 150.825141,
    "place_id": "ChIJvQOFD_DuEmsRnYixh9G1i3Q",
    "maps_url": "https://www.google.com/maps/place/?q=place_id:ChIJvQOFD_DuEmsRnYixh9G1i3Q"
  },
  {
    "name": "Priceline Pharmacy Campbelltown Mall",
    "address": "Shop 5/6/271-281 Queen St, Campbelltown NSW 2560, Australia",
    "suburb": "Campbelltown NSW 2560",
    "state": "NSW",
    "rating": 3.8,
    "reviews": 91,
    "lat": -34.0694079,
    "lng": 150.8108865,
    "place_id": "ChIJ13iZyFXuEmsRoaDM8hS97d8",
    "maps_url": "https://www.google.com/maps/place/?q=place_id:ChIJ13iZyFXuEmsRoaDM8hS97d8"
  },
  {
    "name": "Cincotta Discount Chemist Campbelltown",
    "address": "Shop U26/271 Queen St, Campbelltown NSW 2560, Australia",
    "suburb": "Campbelltown NSW 2560",
    "state": "NSW",
    "rating": 3.2,
    "reviews": 57,
    "lat": -34.0688709,
    "lng": 150.8108809,
    "place_id": "ChIJB82SSVTuEmsRJGNgNhqwbYQ",
    "maps_url": "https://www.google.com/maps/place/?q=place_id:ChIJB82SSVTuEmsRJGNgNhqwbYQ"
  },
  {
    "name": "TerryWhite Chemmart Campbelltown Pharmacy",
    "address": "241 Queen St, Campbelltown NSW 2560, Australia",
    "suburb": "Campbelltown NSW 2560",
    "state": "NSW",
    "rating": 4.4,
    "reviews": 90,
    "lat": -34.0681667,
    "lng": 150.8128294,
    "place_id": "ChIJgwCF31XuEmsRDkxWIW1sp_I",
    "maps_url": "https://www.google.com/maps/place/?q=place_id:ChIJgwCF31XuEmsRDkxWIW1sp_I"
  },
  {
    "name": "Campbelltown Medical Centre Pharmacy",
    "address": "1/296 Queen St, Campbelltown NSW 2560, Australia",
    "suburb": "Campbelltown NSW 2560",
    "state": "NSW",
    "rating": 4.8,
    "reviews": 81,
    "lat": -34.070112,
    "lng": 150.8123501,
    "place_id": "ChIJG5WXyVXuEmsRFzrwYC8-QgU",
    "maps_url": "https://www.google.com/maps/place/?q=place_id:ChIJG5WXyVXuEmsRFzrwYC8-QgU"
  },
  {
    "name": "Pharmacy on Queen",
    "address": "1/34 Queen St, Campbelltown NSW 2560, Australia",
    "suburb": "Campbelltown NSW 2560",
    "state": "NSW",
    "rating": 4.9,
    "reviews": 47,
    "lat": -34.058964,
    "lng": 150.8215176,
    "place_id": "ChIJ_WHmVmt2k2sRNWj9_ZMZ8o8",
    "maps_url": "https://www.google.com/maps/place/?q=place_id:ChIJ_WHmVmt2k2sRNWj9_ZMZ8o8"
  },
  {
    "name": "Medicines R Us Our Medical Chemist - Gregory Hills",
    "address": "Town Centre, Shop 200/33 Village Cct, Gregory Hills NSW 2557, Australia",
    "suburb": "Shop 200/33 Village Cct",
    "state": "NSW",
    "rating": 4.3,
    "reviews": 243,
    "lat": -34.0273625,
    "lng": 150.7770947,
    "place_id": "ChIJR9G9tFrvEmsRTse-Fa3-PDc",
    "maps_url": "https://www.google.com/maps/place/?q=place_id:ChIJR9G9tFrvEmsRTse-Fa3-PDc"
  },
  {
    "name": "Chemist Warehouse Macarthur Square Campbelltown",
    "address": "Shops C26 C27 C28 and C29 Level 1, Macarthur Square, 200 Gilchrist Dr, Campbelltown NSW 2560, Australia",
    "suburb": "Macarthur Square",
    "state": "NSW",
    "rating": 3,
    "reviews": 133,
    "lat": -34.0735815,
    "lng": 150.7970926,
    "place_id": "ChIJwbwGEkTvEmsRgbEOoOFdCA4",
    "maps_url": "https://www.google.com/maps/place/?q=place_id:ChIJwbwGEkTvEmsRgbEOoOFdCA4"
  },
  {
    "name": "Priceline Pharmacy Macarthur Square",
    "address": "200 Gilchrist Dr, Campbelltown NSW 2560, Australia",
    "suburb": "Campbelltown NSW 2560",
    "state": "NSW",
    "rating": 3.3,
    "reviews": 55,
    "lat": -34.0759753,
    "lng": 150.7985603,
    "place_id": "ChIJAScydrPvEmsRO5V7-VZWrg4",
    "maps_url": "https://www.google.com/maps/place/?q=place_id:ChIJAScydrPvEmsRO5V7-VZWrg4"
  },
  {
    "name": "Pharmacy 4 Less Bankstown Central - Near Woolworths",
    "address": "Bankstown Central, Shop SP247/1 North Terrace, Bankstown NSW 2200, Australia",
    "suburb": "Shop SP247/1 North Terrace",
    "state": "NSW",
    "rating": 4.6,
    "reviews": 323,
    "lat": -33.91540630000001,
    "lng": 151.0404364,
    "place_id": "ChIJuW-Vz569EmsRaYVG_Vpz0Zw",
    "maps_url": "https://www.google.com/maps/place/?q=place_id:ChIJuW-Vz569EmsRaYVG_Vpz0Zw"
  },
  {
    "name": "Rickard Road Chemist",
    "address": "41 Rickard Rd, Bankstown NSW 2200, Australia",
    "suburb": "Bankstown NSW 2200",
    "state": "NSW",
    "rating": 3.5,
    "reviews": 41,
    "lat": -33.9144869,
    "lng": 151.0380848,
    "place_id": "ChIJk5j5rA-8EmsR80zZ4XFAbsI",
    "maps_url": "https://www.google.com/maps/place/?q=place_id:ChIJk5j5rA-8EmsR80zZ4XFAbsI"
  },
  {
    "name": "Direct Chemist Outlet Bankstown (Near Coles)",
    "address": "Bankstown Central, Shop SP335A/1 North Terrace, Bankstown NSW 2200, Australia",
    "suburb": "Shop SP335A/1 North Terrace",
    "state": "NSW",
    "rating": 5,
    "reviews": 996,
    "lat": -33.9159196,
    "lng": 151.0383562,
    "place_id": "ChIJL_mMHKu9EmsRh8OOGTtKLoI",
    "maps_url": "https://www.google.com/maps/place/?q=place_id:ChIJL_mMHKu9EmsRh8OOGTtKLoI"
  },
  {
    "name": "Chemist Warehouse Bankstown",
    "address": "26 to 28 Bankstown City Plaza, Bankstown NSW 2200, Australia",
    "suburb": "Bankstown NSW 2200",
    "state": "NSW",
    "rating": 2.9,
    "reviews": 521,
    "lat": -33.9186622,
    "lng": 151.033501,
    "place_id": "ChIJmcqX2xq8EmsRRo10JKg4YwU",
    "maps_url": "https://www.google.com/maps/place/?q=place_id:ChIJmcqX2xq8EmsRRo10JKg4YwU"
  },
  {
    "name": "Bankstown Central Pharmacy",
    "address": "Bankstown Central, Shop MM014A The Appian Way, Bankstown NSW 2200, Australia",
    "suburb": "Shop MM014A The Appian Way",
    "state": "NSW",
    "rating": 4.8,
    "reviews": 31,
    "lat": -33.9169658,
    "lng": 151.0361202,
    "place_id": "ChIJCfFtgcS9EmsRAGWFlYlqyHM",
    "maps_url": "https://www.google.com/maps/place/?q=place_id:ChIJCfFtgcS9EmsRAGWFlYlqyHM"
  },
  {
    "name": "Priceline Pharmacy Bankstown Exchange",
    "address": "19 Bankstown City Plaza, Bankstown NSW 2200, Australia",
    "suburb": "Bankstown NSW 2200",
    "state": "NSW",
    "rating": 3.8,
    "reviews": 67,
    "lat": -33.9184793,
    "lng": 151.0339491,
    "place_id": "ChIJnRpIPMu9EmsR_LKyO5VmnMk",
    "maps_url": "https://www.google.com/maps/place/?q=place_id:ChIJnRpIPMu9EmsR_LKyO5VmnMk"
  },
  {
    "name": "Bankstown Medical Centre Pharmacy",
    "address": "67 Rickard Rd, Bankstown NSW 2200, Australia",
    "suburb": "Bankstown NSW 2200",
    "state": "NSW",
    "rating": 3.4,
    "reviews": 31,
    "lat": -33.9142523,
    "lng": 151.0354004,
    "place_id": "ChIJ3R3f1g-8EmsRV__nQcSk6CY",
    "maps_url": "https://www.google.com/maps/place/?q=place_id:ChIJ3R3f1g-8EmsRV__nQcSk6CY"
  },
  {
    "name": "Chemist Warehouse Punchbowl - Broadway Plaza",
    "address": "Shops 17B 17C and 18 Broadway Plaza, 1 Broadway, Punchbowl NSW 2196, Australia",
    "suburb": "1 Broadway",
    "state": "NSW",
    "rating": 3.2,
    "reviews": 234,
    "lat": -33.9258105,
    "lng": 151.0581446,
    "place_id": "ChIJ9RMRSfu7EmsRq6Q8lLanCCc",
    "maps_url": "https://www.google.com/maps/place/?q=place_id:ChIJ9RMRSfu7EmsRq6Q8lLanCCc"
  },
  {
    "name": "Rumore's Pharmacy",
    "address": "129 Bankstown City Plaza, Bankstown NSW 2000, Australia",
    "suburb": "Bankstown NSW 2000",
    "state": "NSW",
    "rating": 3.9,
    "reviews": 16,
    "lat": -33.9177194,
    "lng": 151.0337899,
    "place_id": "ChIJKyAf6Rq8EmsRECr7VbHwu5g",
    "maps_url": "https://www.google.com/maps/place/?q=place_id:ChIJKyAf6Rq8EmsRECr7VbHwu5g"
  },
  {
    "name": "Priceline Pharmacy Bankstown Central",
    "address": "1 North Terrace, Bankstown NSW 2200, Australia",
    "suburb": "Bankstown NSW 2200",
    "state": "NSW",
    "rating": 2.7,
    "reviews": 48,
    "lat": -33.9158875,
    "lng": 151.0398307,
    "place_id": "ChIJbx8gl2C9EmsRlZxNkFHzPos",
    "maps_url": "https://www.google.com/maps/place/?q=place_id:ChIJbx8gl2C9EmsRlZxNkFHzPos"
  },
  {
    "name": "Punchbowl Pharmacy Warehouse",
    "address": "252-254 The Boulevarde, Punchbowl NSW 2196, Australia",
    "suburb": "Punchbowl NSW 2196",
    "state": "NSW",
    "rating": 4.6,
    "reviews": 121,
    "lat": -33.9259432,
    "lng": 151.055211,
    "place_id": "ChIJadZDhfu7EmsRxafiaHSZeq8",
    "maps_url": "https://www.google.com/maps/place/?q=place_id:ChIJadZDhfu7EmsRxafiaHSZeq8"
  },
  {
    "name": "Bankstown Hospital Medical Centre Pharmacy",
    "address": "G02/68 Eldridge Rd, Bankstown NSW 2200, Australia",
    "suburb": "Bankstown NSW 2200",
    "state": "NSW",
    "rating": 4.2,
    "reviews": 78,
    "lat": -33.9326584,
    "lng": 151.0214036,
    "place_id": "ChIJGTLay5m-EmsR5K-svu89JDg",
    "maps_url": "https://www.google.com/maps/place/?q=place_id:ChIJGTLay5m-EmsR5K-svu89JDg"
  },
  {
    "name": "Pharmacy 4 Less Lakemba Late Night",
    "address": "10/49 The Boulevarde, Lakemba NSW 2195, Australia",
    "suburb": "Lakemba NSW 2195",
    "state": "NSW",
    "rating": 3.6,
    "reviews": 119,
    "lat": -33.920368,
    "lng": 151.0764397,
    "place_id": "ChIJXVYQy8a7EmsRBseBmVmXT78",
    "maps_url": "https://www.google.com/maps/place/?q=place_id:ChIJXVYQy8a7EmsRBseBmVmXT78"
  },
  {
    "name": "Viva Pharmacy",
    "address": "323 Chapel Rd, Bankstown NSW 2200, Australia",
    "suburb": "Bankstown NSW 2200",
    "state": "NSW",
    "rating": 3.4,
    "reviews": 10,
    "lat": -33.9190023,
    "lng": 151.0321398,
    "place_id": "ChIJr05Jjhq8EmsRyRDgp1lrACI",
    "maps_url": "https://www.google.com/maps/place/?q=place_id:ChIJr05Jjhq8EmsRyRDgp1lrACI"
  },
  {
    "name": "Advanced Health Pharmacy Bankstown",
    "address": "Ground Floor/25 Restwell St, Bankstown NSW 2200, Australia",
    "suburb": "Bankstown NSW 2200",
    "state": "NSW",
    "rating": 5,
    "reviews": 14,
    "lat": -33.9195952,
    "lng": 151.034677,
    "place_id": "ChIJE7vbhtK9EmsR9_n8-zpYrrk",
    "maps_url": "https://www.google.com/maps/place/?q=place_id:ChIJE7vbhtK9EmsR9_n8-zpYrrk"
  },
  {
    "name": "Bankstown Discount Pharmacy",
    "address": "19 Restwell St, Bankstown NSW 2200, Australia",
    "suburb": "Bankstown NSW 2200",
    "state": "NSW",
    "rating": 4,
    "reviews": 4,
    "lat": -33.9191785,
    "lng": 151.0345362,
    "place_id": "ChIJLcEAPge9EmsR4lO9AxyP-uA",
    "maps_url": "https://www.google.com/maps/place/?q=place_id:ChIJLcEAPge9EmsR4lO9AxyP-uA"
  },
  {
    "name": "Infochem Pharmacy",
    "address": "60 Bankstown City Plaza, Bankstown NSW 2200, Australia",
    "suburb": "Bankstown NSW 2200",
    "state": "NSW",
    "rating": 3.7,
    "reviews": 3,
    "lat": -33.9183409,
    "lng": 151.032846,
    "place_id": "ChIJs02uARu8EmsRhq6B4bBrBFE",
    "maps_url": "https://www.google.com/maps/place/?q=place_id:ChIJs02uARu8EmsRhq6B4bBrBFE"
  },
  {
    "name": "Woolworths Bankstown",
    "address": "Lady Cutler Avenue Centro Shopping Centre, Bankstown NSW 2200, Australia",
    "suburb": "Bankstown NSW 2200",
    "state": "NSW",
    "rating": 4,
    "reviews": 1722,
    "lat": -33.9152083,
    "lng": 151.0406971,
    "place_id": "ChIJO3rK3Q68EmsRZpz9XKW3ceU",
    "maps_url": "https://www.google.com/maps/place/?q=place_id:ChIJO3rK3Q68EmsRZpz9XKW3ceU"
  },
  {
    "name": "Chemist Warehouse Lakemba",
    "address": "105 Haldon St, Lakemba NSW 2195, Australia",
    "suburb": "Lakemba NSW 2195",
    "state": "NSW",
    "rating": 3.4,
    "reviews": 362,
    "lat": -33.9211018,
    "lng": 151.0781443,
    "place_id": "ChIJR8Q4lMa7EmsRkCKwRjzuKc8",
    "maps_url": "https://www.google.com/maps/place/?q=place_id:ChIJR8Q4lMa7EmsRkCKwRjzuKc8"
  },
  {
    "name": "Chemist Warehouse Chatswood",
    "address": "Shop 1/387 Victoria Ave, Chatswood NSW 2067, Australia",
    "suburb": "Chatswood NSW 2067",
    "state": "NSW",
    "rating": 2.9,
    "reviews": 290,
    "lat": -33.7956309,
    "lng": 151.1848561,
    "place_id": "ChIJf1ojcNaoEmsRfsqLUSdsXh4",
    "maps_url": "https://www.google.com/maps/place/?q=place_id:ChIJf1ojcNaoEmsRfsqLUSdsXh4"
  },
  {
    "name": "TerryWhite Chemmart Chatswood Chase",
    "address": "Chatswood Chase Shopping Centre, Shop B-054/345 Victoria Ave, Chatswood NSW 2067, Australia",
    "suburb": "Shop B-054/345 Victoria Ave",
    "state": "NSW",
    "rating": 3.9,
    "reviews": 82,
    "lat": -33.7933551,
    "lng": 151.1866697,
    "place_id": "ChIJZY4OriipEmsRO5ejUzJng6M",
    "maps_url": "https://www.google.com/maps/place/?q=place_id:ChIJZY4OriipEmsRO5ejUzJng6M"
  },
  {
    "name": "TerryWhite Chemmart Chatswood Compounding Chemist",
    "address": "428 Victoria Ave, Chatswood NSW 2067, Australia",
    "suburb": "Chatswood NSW 2067",
    "state": "NSW",
    "rating": 4.2,
    "reviews": 40,
    "lat": -33.7968426,
    "lng": 151.1815245,
    "place_id": "ChIJyy9DcdSoEmsRZE2Ih_R-RNU",
    "maps_url": "https://www.google.com/maps/place/?q=place_id:ChIJyy9DcdSoEmsRZE2Ih_R-RNU"
  },
  {
    "name": "Chemist Warehouse Chatswood Central",
    "address": "451 Victoria Ave, Chatswood NSW 2067, Australia",
    "suburb": "Chatswood NSW 2067",
    "state": "NSW",
    "rating": 2.2,
    "reviews": 115,
    "lat": -33.7963829,
    "lng": 151.1817745,
    "place_id": "ChIJge81D-epEmsRsX12LJTcvO4",
    "maps_url": "https://www.google.com/maps/place/?q=place_id:ChIJge81D-epEmsRsX12LJTcvO4"
  },
  {
    "name": "Priceline Pharmacy Chatswood",
    "address": "Shop 252 Westfield Chatswood, 2 Spring St, Chatswood NSW 2067, Australia",
    "suburb": "2 Spring St",
    "state": "NSW",
    "rating": 4.2,
    "reviews": 139,
    "lat": -33.796617,
    "lng": 151.182873,
    "place_id": "ChIJj-yYy9WoEmsRxnPixFVg_8U",
    "maps_url": "https://www.google.com/maps/place/?q=place_id:ChIJj-yYy9WoEmsRxnPixFVg_8U"
  },
  {
    "name": "Chemist Warehouse Chatswood East",
    "address": "Ground Floor 141 to, 143 & 145, 143 Victoria Ave, Chatswood NSW 2067, Australia",
    "suburb": "143 & 145",
    "state": "NSW",
    "rating": 2.8,
    "reviews": 110,
    "lat": -33.7922902,
    "lng": 151.1952073,
    "place_id": "ChIJu4ChcdSoEmsRyBFaQg1g_Yc",
    "maps_url": "https://www.google.com/maps/place/?q=place_id:ChIJu4ChcdSoEmsRyBFaQg1g_Yc"
  },
  {
    "name": "Priceline Pharmacy Chatswood Chase",
    "address": "Chatswood Chase Shopping Centre, 345 Victoria Ave, Chatswood NSW 2067, Australia",
    "suburb": "345 Victoria Ave",
    "state": "NSW",
    "rating": 3.6,
    "reviews": 35,
    "lat": -33.7945647,
    "lng": 151.18613,
    "place_id": "ChIJ57qhJdaoEmsRfrZhb2sl-CI",
    "maps_url": "https://www.google.com/maps/place/?q=place_id:ChIJ57qhJdaoEmsRfrZhb2sl-CI"
  },
  {
    "name": "HealthSave+ Custom Made Medicine",
    "address": "Shop R05, the Mix at Chatswood Place, 260 Victoria Ave, Chatswood NSW 2067, Australia",
    "suburb": "the Mix at Chatswood Place",
    "state": "NSW",
    "rating": 4.1,
    "reviews": 41,
    "lat": -33.7953458,
    "lng": 151.188386,
    "place_id": "ChIJMzaeydupEmsRuYCLppyBuHQ",
    "maps_url": "https://www.google.com/maps/place/?q=place_id:ChIJMzaeydupEmsRuYCLppyBuHQ"
  },
  {
    "name": "LOTTO at BLOOMS THE CHEMIST CROWS NEST (former Day Night Chemist Crows Nest)",
    "address": "99 Willoughby Rd, Crows Nest NSW 2065, Australia",
    "suburb": "Crows Nest NSW 2065",
    "state": "NSW",
    "rating": 3.4,
    "reviews": 80,
    "lat": -33.8239593,
    "lng": 151.2010412,
    "place_id": "ChIJO66498KuEmsRYZy2sP_nsR4",
    "maps_url": "https://www.google.com/maps/place/?q=place_id:ChIJO66498KuEmsRYZy2sP_nsR4"
  },
  {
    "name": "Medical Centre Pharmacy Chatswood",
    "address": "LEVEL 1/270 Victoria Ave, Chatswood NSW 2067, Australia",
    "suburb": "Chatswood NSW 2067",
    "state": "NSW",
    "rating": 3.8,
    "reviews": 10,
    "lat": -33.79529280000001,
    "lng": 151.1873768,
    "place_id": "ChIJhd0qzGypEmsRBpZf2CXkbmM",
    "maps_url": "https://www.google.com/maps/place/?q=place_id:ChIJhd0qzGypEmsRBpZf2CXkbmM"
  },
  {
    "name": "Shands Pharmacy",
    "address": "428 Victoria Ave, Chatswood NSW 2067, Australia",
    "suburb": "Chatswood NSW 2067",
    "state": "NSW",
    "rating": 4.8,
    "reviews": 6,
    "lat": -33.7968426,
    "lng": 151.1815245,
    "place_id": "ChIJc64bcdSoEmsRr0JHcufAY6c",
    "maps_url": "https://www.google.com/maps/place/?q=place_id:ChIJc64bcdSoEmsRr0JHcufAY6c"
  },
  {
    "name": "Blooms The Chemist Crows Nest",
    "address": "99 Willoughby Rd, Crows Nest NSW 2065, Australia",
    "suburb": "Crows Nest NSW 2065",
    "state": "NSW",
    "rating": 4.4,
    "reviews": 45,
    "lat": -33.8239593,
    "lng": 151.2010412,
    "place_id": "ChIJ-2SHuuivEmsRsJvL-_Jo3tE",
    "maps_url": "https://www.google.com/maps/place/?q=place_id:ChIJ-2SHuuivEmsRsJvL-_Jo3tE"
  },
  {
    "name": "Chemist Warehouse Crows Nest",
    "address": "46 Willoughby Rd, Crows Nest NSW 2065, Australia",
    "suburb": "Crows Nest NSW 2065",
    "state": "NSW",
    "rating": 3.4,
    "reviews": 142,
    "lat": -33.8263346,
    "lng": 151.2006011,
    "place_id": "ChIJhUbyftWvEmsR-gEjyeFCo2s",
    "maps_url": "https://www.google.com/maps/place/?q=place_id:ChIJhUbyftWvEmsR-gEjyeFCo2s"
  },
  {
    "name": "Priceline Pharmacy Chatswood Upper",
    "address": "Chatswood NSW 2067, Australia",
    "suburb": "Australia",
    "state": "NSW",
    "rating": 3.7,
    "reviews": 12,
    "lat": -33.7974222,
    "lng": 151.184356,
    "place_id": "ChIJqxffypCpEmsRqKDQohNQCrw",
    "maps_url": "https://www.google.com/maps/place/?q=place_id:ChIJqxffypCpEmsRqKDQohNQCrw"
  },
  {
    "name": "Giovene",
    "address": "Sage Building, 67 Albert Ave, Chatswood NSW 2067, Australia",
    "suburb": "67 Albert Ave",
    "state": "NSW",
    "rating": null,
    "reviews": 0,
    "lat": -33.7980837,
    "lng": 151.181697,
    "place_id": "ChIJq6p6htSoEmsRoHSET4rL0hA",
    "maps_url": "https://www.google.com/maps/place/?q=place_id:ChIJq6p6htSoEmsRoHSET4rL0hA"
  },
  {
    "name": "Bloomers Pharmacy Chatswood- Plant-Based Dispensary",
    "address": "Level 1/7 Help St, Chatswood NSW 2067, Australia",
    "suburb": "Chatswood NSW 2067",
    "state": "NSW",
    "rating": 4.5,
    "reviews": 30,
    "lat": -33.7954364,
    "lng": 151.1797655,
    "place_id": "ChIJhaEItPWpEmsRiFHHq27CJ2w",
    "maps_url": "https://www.google.com/maps/place/?q=place_id:ChIJhaEItPWpEmsRiFHHq27CJ2w"
  },
  {
    "name": "Amcal High st day and night pharmacy",
    "address": "4/201 High St, North Willoughby NSW 2068, Australia",
    "suburb": "North Willoughby NSW 2068",
    "state": "NSW",
    "rating": 4.2,
    "reviews": 52,
    "lat": -33.7956392,
    "lng": 151.200597,
    "place_id": "ChIJyzKFaDCpEmsRjmo1A3fk-vA",
    "maps_url": "https://www.google.com/maps/place/?q=place_id:ChIJyzKFaDCpEmsRjmo1A3fk-vA"
  },
  {
    "name": "in2health Pharmacy Chatswood",
    "address": "8/409 Victoria Ave, Chatswood NSW 2067, Australia",
    "suburb": "Chatswood NSW 2067",
    "state": "NSW",
    "rating": 3.7,
    "reviews": 3,
    "lat": -33.7956614,
    "lng": 151.1833733,
    "place_id": "ChIJw676gdaoEmsRrhpbYfgWV_M",
    "maps_url": "https://www.google.com/maps/place/?q=place_id:ChIJw676gdaoEmsRrhpbYfgWV_M"
  },
  {
    "name": "Direct Chemist Outlet Hornsby",
    "address": "171 Peats Ferry Rd, Hornsby NSW 2077, Australia",
    "suburb": "Hornsby NSW 2077",
    "state": "NSW",
    "rating": 3.8,
    "reviews": 129,
    "lat": -33.7033788,
    "lng": 151.0974462,
    "place_id": "ChIJS7KNx4OnEmsRsda9caadvCs",
    "maps_url": "https://www.google.com/maps/place/?q=place_id:ChIJS7KNx4OnEmsRsda9caadvCs"
  },
  {
    "name": "Chemist Warehouse Hornsby",
    "address": "Sh 1/21 Hunter St, Hornsby NSW 2077, Australia",
    "suburb": "Hornsby NSW 2077",
    "state": "NSW",
    "rating": 2.5,
    "reviews": 209,
    "lat": -33.7035072,
    "lng": 151.1005162,
    "place_id": "ChIJ6ar7D4SnEmsRFSvp0pttrkY",
    "maps_url": "https://www.google.com/maps/place/?q=place_id:ChIJ6ar7D4SnEmsRFSvp0pttrkY"
  },
  {
    "name": "TerryWhite Chemmart Hornsby",
    "address": "Shop 1043/236 Pacific Hwy, Hornsby NSW 2077, Australia",
    "suburb": "Hornsby NSW 2077",
    "state": "NSW",
    "rating": 4.3,
    "reviews": 126,
    "lat": -33.7034721,
    "lng": 151.1014532,
    "place_id": "ChIJnVwt_POFEmsRo2POHlXpOa0",
    "maps_url": "https://www.google.com/maps/place/?q=place_id:ChIJnVwt_POFEmsRo2POHlXpOa0"
  },
  {
    "name": "Chemist Warehouse Westfield Hornsby",
    "address": "8 Westfield Hornsby, Shop 3107/236 Pacific Hwy, Hornsby NSW 2077, Australia",
    "suburb": "Shop 3107/236 Pacific Hwy",
    "state": "NSW",
    "rating": 2.5,
    "reviews": 138,
    "lat": -33.7051342,
    "lng": 151.1004782,
    "place_id": "ChIJizV6Y4SnEmsRORxUoFSUjy8",
    "maps_url": "https://www.google.com/maps/place/?q=place_id:ChIJizV6Y4SnEmsRORxUoFSUjy8"
  },
  {
    "name": "Florence Pharmacy",
    "address": "Shop 11/25-29 Hunter St, Hornsby NSW 2077, Australia",
    "suburb": "Hornsby NSW 2077",
    "state": "NSW",
    "rating": 4.3,
    "reviews": 39,
    "lat": -33.7032551,
    "lng": 151.1005748,
    "place_id": "ChIJzS2dHoSnEmsRb1mR5rVhvuU",
    "maps_url": "https://www.google.com/maps/place/?q=place_id:ChIJzS2dHoSnEmsRb1mR5rVhvuU"
  },
  {
    "name": "Hornsby Chempro Chemist",
    "address": "21/23 Florence St, Hornsby NSW 2077, Australia",
    "suburb": "Hornsby NSW 2077",
    "state": "NSW",
    "rating": 4.6,
    "reviews": 21,
    "lat": -33.7037701,
    "lng": 151.0999315,
    "place_id": "ChIJURL9DqynEmsRJklW3FI11fI",
    "maps_url": "https://www.google.com/maps/place/?q=place_id:ChIJURL9DqynEmsRJklW3FI11fI"
  },
  {
    "name": "Priceline Pharmacy Hornsby",
    "address": "Shop 1001 Westfield Shopping Centre, Priceline Pharmacy, 236 Pacific Hwy, Hornsby NSW 2077, Australia",
    "suburb": "Priceline Pharmacy",
    "state": "NSW",
    "rating": 3.9,
    "reviews": 110,
    "lat": -33.7046815,
    "lng": 151.099463,
    "place_id": "ChIJ0X4iFR6nEmsRdJ5aVf4tjn4",
    "maps_url": "https://www.google.com/maps/place/?q=place_id:ChIJ0X4iFR6nEmsRdJ5aVf4tjn4"
  },
  {
    "name": "Chemist Warehouse Turramurra",
    "address": "1337 Pacific Hwy, Turramurra NSW 2074, Australia",
    "suburb": "Turramurra NSW 2074",
    "state": "NSW",
    "rating": 2.8,
    "reviews": 313,
    "lat": -33.7325007,
    "lng": 151.1268416,
    "place_id": "ChIJeRtV4sSnEmsRsiDL-Y-_uxY",
    "maps_url": "https://www.google.com/maps/place/?q=place_id:ChIJeRtV4sSnEmsRsiDL-Y-_uxY"
  },
  {
    "name": "Hornsby Chemmart Pharmacy",
    "address": "Shop 1043 Westfield Shopping Town, Hornsby NSW 2077, Australia",
    "suburb": "Hornsby NSW 2077",
    "state": "NSW",
    "rating": 3.8,
    "reviews": 10,
    "lat": -33.703453,
    "lng": 151.1020739,
    "place_id": "ChIJPe-BKYSnEmsRvH1ycwTsK1Y",
    "maps_url": "https://www.google.com/maps/place/?q=place_id:ChIJPe-BKYSnEmsRvH1ycwTsK1Y"
  },
  {
    "name": "Coles Hornsby",
    "address": "Florence St &, Westfield Hornsby, Hunter St, Hornsby NSW 2077, Australia",
    "suburb": "Westfield Hornsby",
    "state": "NSW",
    "rating": 4,
    "reviews": 1143,
    "lat": -33.7032123,
    "lng": 151.1011888,
    "place_id": "ChIJcWOZjIOnEmsRNkwC1-Yw8s4",
    "maps_url": "https://www.google.com/maps/place/?q=place_id:ChIJcWOZjIOnEmsRNkwC1-Yw8s4"
  },
  {
    "name": "Curry Chemist",
    "address": "1/10 Edgeworth David Ave, Hornsby NSW 2077, Australia",
    "suburb": "Hornsby NSW 2077",
    "state": "NSW",
    "rating": 4.3,
    "reviews": 21,
    "lat": -33.7056068,
    "lng": 151.0997072,
    "place_id": "ChIJPX4rgoSnEmsRSl3QAeR7lcI",
    "maps_url": "https://www.google.com/maps/place/?q=place_id:ChIJPX4rgoSnEmsRSl3QAeR7lcI"
  },
  {
    "name": "Healthylife",
    "address": "2/57 Salisbury Rd, Asquith NSW 2077, Australia",
    "suburb": "Asquith NSW 2077",
    "state": "NSW",
    "rating": 4.4,
    "reviews": 175,
    "lat": -33.6926614,
    "lng": 151.1096464,
    "place_id": "ChIJabhTCYSnEmsREdXUqbWe-e4",
    "maps_url": "https://www.google.com/maps/place/?q=place_id:ChIJabhTCYSnEmsREdXUqbWe-e4"
  },
  {
    "name": "Healthylife Pharmacy - Hornsby Hospital",
    "address": "Hornsby Hospital, Ground Floor/38-76 Palmerston Rd, Hornsby NSW 2077, Australia",
    "suburb": "Ground Floor/38-76 Palmerston Rd",
    "state": "NSW",
    "rating": 4.6,
    "reviews": 11,
    "lat": -33.7025929,
    "lng": 151.1125782,
    "place_id": "ChIJTzmCr3inEmsRgqmo4sGra-0",
    "maps_url": "https://www.google.com/maps/place/?q=place_id:ChIJTzmCr3inEmsRgqmo4sGra-0"
  },
  {
    "name": "Hornsby Heights Pharmacy",
    "address": "Shop 2/110 Galston Rd, Hornsby Heights NSW 2077, Australia",
    "suburb": "Hornsby Heights NSW 2077",
    "state": "NSW",
    "rating": 4.1,
    "reviews": 32,
    "lat": -33.6764472,
    "lng": 151.0983363,
    "place_id": "ChIJ478cHF5YDWsRuXgBMEWukRE",
    "maps_url": "https://www.google.com/maps/place/?q=place_id:ChIJ478cHF5YDWsRuXgBMEWukRE"
  },
  {
    "name": "Turramurra Pharmacy",
    "address": "1293 Pacific Hwy, Turramurra NSW 2074, Australia",
    "suburb": "Turramurra NSW 2074",
    "state": "NSW",
    "rating": 4,
    "reviews": 44,
    "lat": -33.7333128,
    "lng": 151.1283056,
    "place_id": "ChIJw6pYKcWnEmsRYLsxlo11XvQ",
    "maps_url": "https://www.google.com/maps/place/?q=place_id:ChIJw6pYKcWnEmsRYLsxlo11XvQ"
  },
  {
    "name": "Chemist Warehouse Pennant Hills",
    "address": "3 Hillcrest Rd, Pennant Hills NSW 2120, Australia",
    "suburb": "Pennant Hills NSW 2120",
    "state": "NSW",
    "rating": 3.8,
    "reviews": 187,
    "lat": -33.7384486,
    "lng": 151.0705383,
    "place_id": "ChIJrX_oeeemEmsRYZeidpGxKbE",
    "maps_url": "https://www.google.com/maps/place/?q=place_id:ChIJrX_oeeemEmsRYZeidpGxKbE"
  },
  {
    "name": "Supersave Chemist",
    "address": "343 Pacific Hwy, Asquith NSW 2077, Australia",
    "suburb": "Asquith NSW 2077",
    "state": "NSW",
    "rating": 3.5,
    "reviews": 102,
    "lat": -33.688952,
    "lng": 151.106704,
    "place_id": "ChIJy15W4G9YDWsRoG2ukVW49Ao",
    "maps_url": "https://www.google.com/maps/place/?q=place_id:ChIJy15W4G9YDWsRoG2ukVW49Ao"
  },
  {
    "name": "Healthylife Pharmacy",
    "address": "154 George St, Hornsby NSW 2077, Australia",
    "suburb": "Hornsby NSW 2077",
    "state": "NSW",
    "rating": null,
    "reviews": 0,
    "lat": -33.6984338,
    "lng": 151.100762,
    "place_id": "ChIJkWuDNhxYHY8RXeWkilXe_Zs",
    "maps_url": "https://www.google.com/maps/place/?q=place_id:ChIJkWuDNhxYHY8RXeWkilXe_Zs"
  },
  {
    "name": "Chemist Warehouse Manly",
    "address": "52 to 58 The Corso, Manly NSW 2095, Australia",
    "suburb": "Manly NSW 2095",
    "state": "NSW",
    "rating": 2.7,
    "reviews": 202,
    "lat": -33.7982289,
    "lng": 151.2866228,
    "place_id": "ChIJE4hf0girEmsRnMPPpjo6sMw",
    "maps_url": "https://www.google.com/maps/place/?q=place_id:ChIJE4hf0girEmsRnMPPpjo6sMw"
  },
  {
    "name": "Manly Community Pharmacy MediAdvice (Rialto Square)",
    "address": "Shop 10/15/25 Wentworth St, Manly NSW 2095, Australia",
    "suburb": "Manly NSW 2095",
    "state": "NSW",
    "rating": 5,
    "reviews": 101,
    "lat": -33.7983599,
    "lng": 151.2876531,
    "place_id": "ChIJg0OmVO2rEmsRgWq8Bg6Vnv4",
    "maps_url": "https://www.google.com/maps/place/?q=place_id:ChIJg0OmVO2rEmsRgWq8Bg6Vnv4"
  },
  {
    "name": "Manly Corso Pharmacy",
    "address": "72 The Corso, Manly NSW 2095, Australia",
    "suburb": "Manly NSW 2095",
    "state": "NSW",
    "rating": 4.5,
    "reviews": 36,
    "lat": -33.7979814,
    "lng": 151.2871467,
    "place_id": "ChIJOQYbPA-rEmsR7GPMvEgSRZs",
    "maps_url": "https://www.google.com/maps/place/?q=place_id:ChIJOQYbPA-rEmsR7GPMvEgSRZs"
  },
  {
    "name": "Malouf Manly Pharmacy",
    "address": "15 The Corso, Manly NSW 2095, Australia",
    "suburb": "Manly NSW 2095",
    "state": "NSW",
    "rating": 4.4,
    "reviews": 70,
    "lat": -33.7983263,
    "lng": 151.2857076,
    "place_id": "ChIJn7KNdCiItAERKmc5xaXblbs",
    "maps_url": "https://www.google.com/maps/place/?q=place_id:ChIJn7KNdCiItAERKmc5xaXblbs"
  },
  {
    "name": "Manly Corso Pharmacy (TerryWhite Chemmart)",
    "address": "72 The Corso, Manly NSW 2095, Australia",
    "suburb": "Manly NSW 2095",
    "state": "NSW",
    "rating": 4.3,
    "reviews": 6,
    "lat": -33.7979814,
    "lng": 151.2871467,
    "place_id": "ChIJi6sACJurEmsRGlr3VGX0otY",
    "maps_url": "https://www.google.com/maps/place/?q=place_id:ChIJi6sACJurEmsRGlr3VGX0otY"
  },
  {
    "name": "Manly Tobacconist & Convenience Store",
    "address": "53 E Esplanade, Manly NSW 2095, Australia",
    "suburb": "Manly NSW 2095",
    "state": "NSW",
    "rating": 4.7,
    "reviews": 39,
    "lat": -33.7992552,
    "lng": 151.2848917,
    "place_id": "ChIJ6dyHdMSrEmsRVlq9JdeG9TA",
    "maps_url": "https://www.google.com/maps/place/?q=place_id:ChIJ6dyHdMSrEmsRVlq9JdeG9TA"
  },
  {
    "name": "Medical Centre Pharmacy Brookvale",
    "address": "10 Dale St, Brookvale NSW 2100, Australia",
    "suburb": "Brookvale NSW 2100",
    "state": "NSW",
    "rating": 3.8,
    "reviews": 65,
    "lat": -33.7649149,
    "lng": 151.2682717,
    "place_id": "ChIJ7etKSUOqEmsRD7_jyoHjJ5g",
    "maps_url": "https://www.google.com/maps/place/?q=place_id:ChIJ7etKSUOqEmsRD7_jyoHjJ5g"
  },
  {
    "name": "Manly Vale Pharmacy Pharmacist Advice",
    "address": "339 Condamine St, Manly Vale NSW 2093, Australia",
    "suburb": "Manly Vale NSW 2093",
    "state": "NSW",
    "rating": 4.8,
    "reviews": 33,
    "lat": -33.783232,
    "lng": 151.2673786,
    "place_id": "ChIJT3Y3jLKrEmsRrXDUY3KWbiM",
    "maps_url": "https://www.google.com/maps/place/?q=place_id:ChIJT3Y3jLKrEmsRrXDUY3KWbiM"
  },
  {
    "name": "Pittwater Rd Pharmacy",
    "address": "183 Pittwater Rd, Manly NSW 2095, Australia",
    "suburb": "Manly NSW 2095",
    "state": "NSW",
    "rating": 4.5,
    "reviews": 13,
    "lat": -33.7883358,
    "lng": 151.2843597,
    "place_id": "ChIJUe-VDAGrEmsRgaFZCvntxWk",
    "maps_url": "https://www.google.com/maps/place/?q=place_id:ChIJUe-VDAGrEmsRgaFZCvntxWk"
  },
  {
    "name": "Bondi Pharmacy",
    "address": "81 Hall St, Bondi Beach NSW 2026, Australia",
    "suburb": "Bondi Beach NSW 2026",
    "state": "NSW",
    "rating": 4.1,
    "reviews": 64,
    "lat": -33.889409,
    "lng": 151.271578,
    "place_id": "ChIJp35hf5mtEmsR05VHEX-0C_Q",
    "maps_url": "https://www.google.com/maps/place/?q=place_id:ChIJp35hf5mtEmsR05VHEX-0C_Q"
  },
  {
    "name": "Chemist Warehouse Bondi Beach",
    "address": "Shop 2/164 to 172 Campbell Parade, Bondi Beach NSW 2026, Australia",
    "suburb": "Bondi Beach NSW 2026",
    "state": "NSW",
    "rating": 3.5,
    "reviews": 59,
    "lat": -33.8900992,
    "lng": 151.2747165,
    "place_id": "ChIJByNZ95utEmsRX0Bo3Dg48Ik",
    "maps_url": "https://www.google.com/maps/place/?q=place_id:ChIJByNZ95utEmsRX0Bo3Dg48Ik"
  },
  {
    "name": "Hall Street Discount Pharmacy",
    "address": "62 Hall St, Bondi Beach NSW 2026, Australia",
    "suburb": "Bondi Beach NSW 2026",
    "state": "NSW",
    "rating": 4.1,
    "reviews": 31,
    "lat": -33.8896852,
    "lng": 151.2711487,
    "place_id": "ChIJydHeERqtEmsRMj2SGGhtZhk",
    "maps_url": "https://www.google.com/maps/place/?q=place_id:ChIJydHeERqtEmsRMj2SGGhtZhk"
  },
  {
    "name": "Chemist Warehouse Bondi Junction",
    "address": "Shop 1/133 to 135 Oxford St, Bondi Junction NSW 2022, Australia",
    "suburb": "Bondi Junction NSW 2022",
    "state": "NSW",
    "rating": 3.5,
    "reviews": 203,
    "lat": -33.8920569,
    "lng": 151.2475776,
    "place_id": "ChIJsSl2_fCtEmsRr05lx78gn5U",
    "maps_url": "https://www.google.com/maps/place/?q=place_id:ChIJsSl2_fCtEmsRr05lx78gn5U"
  },
  {
    "name": "Ramsay Pharmacy Bondi",
    "address": "165 Bondi Rd, Bondi NSW 2026, Australia",
    "suburb": "Bondi NSW 2026",
    "state": "NSW",
    "rating": 4.2,
    "reviews": 74,
    "lat": -33.894183,
    "lng": 151.2640606,
    "place_id": "ChIJNXK1ao6tEmsR6ru3djBt2y4",
    "maps_url": "https://www.google.com/maps/place/?q=place_id:ChIJNXK1ao6tEmsR6ru3djBt2y4"
  },
  {
    "name": "Ropers Seaside Pharmacy",
    "address": "31 Campbell Parade, North Bondi NSW 2026, Australia",
    "suburb": "North Bondi NSW 2026",
    "state": "NSW",
    "rating": 4.8,
    "reviews": 22,
    "lat": -33.8897128,
    "lng": 151.2834986,
    "place_id": "ChIJLVDD4nStEmsR_macU0_eqzc",
    "maps_url": "https://www.google.com/maps/place/?q=place_id:ChIJLVDD4nStEmsR_macU0_eqzc"
  },
  {
    "name": "Bondi Beach Chemist",
    "address": "14 Campbell Parade, Bondi Beach NSW 2026, Australia",
    "suburb": "Bondi Beach NSW 2026",
    "state": "NSW",
    "rating": 3.7,
    "reviews": 17,
    "lat": -33.894411,
    "lng": 151.273011,
    "place_id": "ChIJWYsGR5utEmsRzuffYiETURU",
    "maps_url": "https://www.google.com/maps/place/?q=place_id:ChIJWYsGR5utEmsRzuffYiETURU"
  },
  {
    "name": "Arkles Pharmacy",
    "address": "81 Bondi Rd, Bondi NSW 2026, Australia",
    "suburb": "Bondi NSW 2026",
    "state": "NSW",
    "rating": 4.6,
    "reviews": 44,
    "lat": -33.8936174,
    "lng": 151.2611011,
    "place_id": "ChIJZ1Opv42tEmsRMvEhgWek2kM",
    "maps_url": "https://www.google.com/maps/place/?q=place_id:ChIJZ1Opv42tEmsRMvEhgWek2kM"
  },
  {
    "name": "Blooms The Chemist Bondi Junction",
    "address": "Eastgate Shopping Centre, Shops 5-9/71-91 Spring St, Bondi Junction NSW 2022, Australia",
    "suburb": "Shops 5-9/71-91 Spring St",
    "state": "NSW",
    "rating": 3.9,
    "reviews": 94,
    "lat": -33.8928585,
    "lng": 151.2480278,
    "place_id": "ChIJYVAVGfGtEmsRcjuHE9bmViU",
    "maps_url": "https://www.google.com/maps/place/?q=place_id:ChIJYVAVGfGtEmsRcjuHE9bmViU"
  },
  {
    "name": "TerryWhite Chemmart Bondi",
    "address": "Shop 3071, Westfield Level 3/500 Oxford St, Bondi Junction NSW 2022, Australia",
    "suburb": "Westfield Level 3/500 Oxford St",
    "state": "NSW",
    "rating": 4,
    "reviews": 32,
    "lat": -33.8915531,
    "lng": 151.2516171,
    "place_id": "ChIJ6YOonPGtEmsR1EUdHeJt9Gw",
    "maps_url": "https://www.google.com/maps/place/?q=place_id:ChIJ6YOonPGtEmsR1EUdHeJt9Gw"
  },
  {
    "name": "Basgers Pharmacy",
    "address": "1 Mitchell St, North Bondi NSW 2026, Australia",
    "suburb": "North Bondi NSW 2026",
    "state": "NSW",
    "rating": 4.3,
    "reviews": 170,
    "lat": -33.8821883,
    "lng": 151.2763415,
    "place_id": "ChIJkVfkFqGtEmsRRBjadXgCBZA",
    "maps_url": "https://www.google.com/maps/place/?q=place_id:ChIJkVfkFqGtEmsRRBjadXgCBZA"
  },
  {
    "name": "TerryWhite Chemmart Gaslight Rose Bay",
    "address": "484 Old South Head Rd, Rose Bay NSW 2029, Australia",
    "suburb": "Rose Bay NSW 2029",
    "state": "NSW",
    "rating": 4.6,
    "reviews": 98,
    "lat": -33.875196,
    "lng": 151.2721063,
    "place_id": "ChIJX1i3mqWtEmsRmGIteMYziPE",
    "maps_url": "https://www.google.com/maps/place/?q=place_id:ChIJX1i3mqWtEmsRmGIteMYziPE"
  },
  {
    "name": "Glenayr Pharmacy",
    "address": "114 Glenayr Ave, Bondi Beach NSW 2026, Australia",
    "suburb": "Bondi Beach NSW 2026",
    "state": "NSW",
    "rating": 4.7,
    "reviews": 59,
    "lat": -33.886136,
    "lng": 151.2733472,
    "place_id": "ChIJh5JLuZitEmsRKSOjuC71AO0",
    "maps_url": "https://www.google.com/maps/place/?q=place_id:ChIJh5JLuZitEmsRKSOjuC71AO0"
  },
  {
    "name": "Bondi Junction Pharmacy",
    "address": "3A Bronte Rd, Bondi Junction NSW 2022, Australia",
    "suburb": "Bondi Junction NSW 2022",
    "state": "NSW",
    "rating": 5,
    "reviews": 13,
    "lat": -33.89276900000001,
    "lng": 151.249434,
    "place_id": "ChIJtUtKpvatEmsRTq_dOnYHYns",
    "maps_url": "https://www.google.com/maps/place/?q=place_id:ChIJtUtKpvatEmsRTq_dOnYHYns"
  },
  {
    "name": "Paul Fitzgerald Pharmacy",
    "address": "290 Bondi Rd, Bondi NSW 2026, Australia",
    "suburb": "Bondi NSW 2026",
    "state": "NSW",
    "rating": 3.4,
    "reviews": 19,
    "lat": -33.8943876,
    "lng": 151.2680603,
    "place_id": "ChIJKaJb-o-tEmsRlJ0VNaCwEiA",
    "maps_url": "https://www.google.com/maps/place/?q=place_id:ChIJKaJb-o-tEmsRlJ0VNaCwEiA"
  },
  {
    "name": "Advantage Pharmacy Bondi Junction",
    "address": "Shop 1010/500 Oxford St, Bondi Junction NSW 2022, Australia",
    "suburb": "Bondi Junction NSW 2022",
    "state": "NSW",
    "rating": 3,
    "reviews": 21,
    "lat": -33.8915695,
    "lng": 151.2505012,
    "place_id": "ChIJhzD-ePGtEmsR69Z3HEiQsdI",
    "maps_url": "https://www.google.com/maps/place/?q=place_id:ChIJhzD-ePGtEmsR69Z3HEiQsdI"
  },
  {
    "name": "Best wellness",
    "address": "44 Mill Hill Rd, Bondi Junction NSW 2022, Australia",
    "suburb": "Bondi Junction NSW 2022",
    "state": "NSW",
    "rating": null,
    "reviews": 0,
    "lat": -33.8922869,
    "lng": 151.2441591,
    "place_id": "ChIJKVgD4QutEmsRjB2hssVsq1w",
    "maps_url": "https://www.google.com/maps/place/?q=place_id:ChIJKVgD4QutEmsRjB2hssVsq1w"
  },
  {
    "name": "Blooms The Chemist Coogee",
    "address": "202 Coogee Bay Rd, Coogee NSW 2034, Australia",
    "suburb": "Coogee NSW 2034",
    "state": "NSW",
    "rating": 4.1,
    "reviews": 90,
    "lat": -33.9204277,
    "lng": 151.2546807,
    "place_id": "ChIJK5MGbhWyEmsRqS9ego515tk",
    "maps_url": "https://www.google.com/maps/place/?q=place_id:ChIJK5MGbhWyEmsRqS9ego515tk"
  },