[
  {
    "name": "Proximity Plumbing",
    "address": "2A Wentworth St, Point Piper NSW 2027, Australia",
    "suburb": "Point Piper NSW 2027",
    "state": "NSW",
    "rating": 4.9,
    "reviews": 2475,
    "lat": -33.8683434,
    "lng": 151.2513636,
    "place_id": "ChIJ13zKnCeyEmsRWh8T7K18mdA",
    "maps_url": "https://www.google.com/maps/place/?q=place_id:ChIJ13zKnCeyEmsRWh8T7K18mdA"
  },
  {
    "name": "The Clean Plumber Sydney - 40+ Years in Business",
    "address": "2 Millcroft Way, Kellyville NSW 2155, Australia",
    "suburb": "Kellyville NSW 2155",
    "state": "NSW",
    "rating": 4.9,
    "reviews": 701,
    "lat": -33.705205,
    "lng": 150.9342339,
    "place_id": "ChIJRdphTgafEmsREmDh0aAHTMg",
    "maps_url": "https://www.google.com/maps/place/?q=place_id:ChIJRdphTgafEmsREmDh0aAHTMg"
  },
  {
    "name": "Fix n Flow",
    "address": "D6/161 Arthur St, Homebush West NSW 2140, Australia",
    "suburb": "Homebush West NSW 2140",
    "state": "NSW",
    "rating": 4.8,
    "reviews": 878,
    "lat": -33.8652614,
    "lng": 151.0588106,
    "place_id": "ChIJJ8arvB27EmsRbyFxWhykxr8",
    "maps_url": "https://www.google.com/maps/place/?q=place_id:ChIJJ8arvB27EmsRbyFxWhykxr8"
  },
  {
    "name": "Plumbing Central Sydney",
    "address": "116 Bourke Rd, Alexandria NSW 2015, Australia",
    "suburb": "Alexandria NSW 2015",
    "state": "NSW",
    "rating": 4.9,
    "reviews": 70,
    "lat": -33.9129314,
    "lng": 151.1942447,
    "place_id": "ChIJo2uOIqOxEmsRUaDFYTVRoUs",
    "maps_url": "https://www.google.com/maps/place/?q=place_id:ChIJo2uOIqOxEmsRUaDFYTVRoUs"
  },
  {
    "name": "Sydney Plumbing and Drainage",
    "address": "57 Alt St, Ashfield NSW 2131, Australia",
    "suburb": "Ashfield NSW 2131",
    "state": "NSW",
    "rating": 4.9,
    "reviews": 93,
    "lat": -33.88300210000001,
    "lng": 151.1249595,
    "place_id": "ChIJ9VrKx5hBVoQRDVqDK5uXG9U",
    "maps_url": "https://www.google.com/maps/place/?q=place_id:ChIJ9VrKx5hBVoQRDVqDK5uXG9U"
  },
  {
    "name": "nGO Plumbing",
    "address": "566 Crown St, Surry Hills NSW 2010, Australia",
    "suburb": "Surry Hills NSW 2010",
    "state": "NSW",
    "rating": 5,
    "reviews": 204,
    "lat": -33.8890615,
    "lng": 151.2135284,
    "place_id": "ChIJc4uOTh_eRS4RrpPQ_7oKTag",
    "maps_url": "https://www.google.com/maps/place/?q=place_id:ChIJc4uOTh_eRS4RrpPQ_7oKTag"
  },
  {
    "name": "Newcastle Plumbing Kings",
    "address": "Unit 15/15 Pacific Hwy, Gateshead NSW 2290, Australia",
    "suburb": "Gateshead NSW 2290",
    "state": "NSW",
    "rating": 5,
    "reviews": 151,
    "lat": -32.9873494,
    "lng": 151.6927183,
    "place_id": "ChIJ30y9MoMVc2sRdExTXU5ISsA",
    "maps_url": "https://www.google.com/maps/place/?q=place_id:ChIJ30y9MoMVc2sRdExTXU5ISsA"
  },
  {
    "name": "The Plumbing Life Saver Newcastle",
    "address": "21 South St, Adamstown NSW 2289, Australia",
    "suburb": "Adamstown NSW 2289",
    "state": "NSW",
    "rating": 4.8,
    "reviews": 409,
    "lat": -32.9356546,
    "lng": 151.7284007,
    "place_id": "ChIJffpoKIIVc2sRuQq6YsVYwYg",
    "maps_url": "https://www.google.com/maps/place/?q=place_id:ChIJffpoKIIVc2sRuQq6YsVYwYg"
  },
  {
    "name": "Laser Plumbing and Roofing Newcastle",
    "address": "62 Orlando Rd, Lambton NSW 2299, Australia",
    "suburb": "Lambton NSW 2299",
    "state": "NSW",
    "rating": 4.8,
    "reviews": 490,
    "lat": -32.9129174,
    "lng": 151.72033,
    "place_id": "ChIJSTEzz5gVc2sR0Jm6f7mlwgk",
    "maps_url": "https://www.google.com/maps/place/?q=place_id:ChIJSTEzz5gVc2sR0Jm6f7mlwgk"
  },
  {
    "name": "Reactive Plumbing, Drains & Electrical Newcastle",
    "address": "13 Channel Rd, Mayfield West NSW 2304, Australia",
    "suburb": "Mayfield West NSW 2304",
    "state": "NSW",
    "rating": 4.9,
    "reviews": 209,
    "lat": -32.8806867,
    "lng": 151.7206349,
    "place_id": "ChIJ5-2jQY4Vc2sR4ifqCPf-5M0",
    "maps_url": "https://www.google.com/maps/place/?q=place_id:ChIJ5-2jQY4Vc2sR4ifqCPf-5M0"
  },
  {
    "name": "Fluid Plumbing, Electrical & Air Conditioning Newcastle",
    "address": "10 Ironbark Cl, Warabrook NSW 2304, Australia",
    "suburb": "Warabrook NSW 2304",
    "state": "NSW",
    "rating": 4.7,
    "reviews": 587,
    "lat": -32.8884001,
    "lng": 151.7136188,
    "place_id": "ChIJVfDWoYoVc2sRsHRTHonlgfY",
    "maps_url": "https://www.google.com/maps/place/?q=place_id:ChIJVfDWoYoVc2sRsHRTHonlgfY"
  },
  {
    "name": "Newcastle Plumbing Priority",
    "address": "2c/50 Northcott Dr, Kotara NSW 2289, Australia",
    "suburb": "Kotara NSW 2289",
    "state": "NSW",
    "rating": 4.9,
    "reviews": 35,
    "lat": -32.9395969,
    "lng": 151.7108334,
    "place_id": "ChIJoXyjZTgUc2sRyDqx3thF_P8",
    "maps_url": "https://www.google.com/maps/place/?q=place_id:ChIJoXyjZTgUc2sRyDqx3thF_P8"
  },
  {
    "name": "Newcastle Plumbing & Blocked Drain Specialist",
    "address": "Unit 6/17 Riverside Dr, Mayfield West NSW 2300, Australia",
    "suburb": "Mayfield West NSW 2300",
    "state": "NSW",
    "rating": 4.7,
    "reviews": 50,
    "lat": -32.877207,
    "lng": 151.7208662,
    "place_id": "ChIJdbFSd8sVc2sRnKH1ftuSTPk",
    "maps_url": "https://www.google.com/maps/place/?q=place_id:ChIJdbFSd8sVc2sRnKH1ftuSTPk"
  },
  {
    "name": "Level Up Plumbing And Gas",
    "address": "57 Dent St, North Lambton NSW 2299, Australia",
    "suburb": "North Lambton NSW 2299",
    "state": "NSW",
    "rating": 5,
    "reviews": 31,
    "lat": -32.90417559999999,
    "lng": 151.706251,
    "place_id": "ChIJacz3rkN6yAYR1SRIUnUOxRs",
    "maps_url": "https://www.google.com/maps/place/?q=place_id:ChIJacz3rkN6yAYR1SRIUnUOxRs"
  },
  {
    "name": "The Plumbing & Electrical Doctor",
    "address": "1/12 Metro Ct, Gateshead NSW 2290, Australia",
    "suburb": "Gateshead NSW 2290",
    "state": "NSW",
    "rating": 4.5,
    "reviews": 689,
    "lat": -32.9868228,
    "lng": 151.6957698,
    "place_id": "ChIJAQAAAGkUc2sRdVLbvedaUsY",
    "maps_url": "https://www.google.com/maps/place/?q=place_id:ChIJAQAAAGkUc2sRdVLbvedaUsY"
  },
  {
    "name": "Clarkies Plumbing",
    "address": "38 Dunbar St, Stockton NSW 2295, Australia",
    "suburb": "Stockton NSW 2295",
    "state": "NSW",
    "rating": 5,
    "reviews": 50,
    "lat": -32.913482,
    "lng": 151.7847629,
    "place_id": "ChIJE6PmjWJbeqIRcj55uuO8pyQ",
    "maps_url": "https://www.google.com/maps/place/?q=place_id:ChIJE6PmjWJbeqIRcj55uuO8pyQ"
  },
  {
    "name": "Jack Price Plumbing",
    "address": "10 Ferry Rd, Sandgate NSW 2304, Australia",
    "suburb": "Sandgate NSW 2304",
    "state": "NSW",
    "rating": 4.9,
    "reviews": 59,
    "lat": -32.8723252,
    "lng": 151.7124283,
    "place_id": "ChIJMY7yR-YVc2sRHDmjxbXpuXA",
    "maps_url": "https://www.google.com/maps/place/?q=place_id:ChIJMY7yR-YVc2sRHDmjxbXpuXA"
  },
  {
    "name": "Flowstate Plumbing Co",
    "address": "suite 9/12 Alma Rd, New Lambton NSW 2305, Australia",
    "suburb": "New Lambton NSW 2305",
    "state": "NSW",
    "rating": 5,
    "reviews": 62,
    "lat": -32.9224199,
    "lng": 151.7147975,
    "place_id": "ChIJc0JXJ5G0zEQRzNlYgjpl8DY",
    "maps_url": "https://www.google.com/maps/place/?q=place_id:ChIJc0JXJ5G0zEQRzNlYgjpl8DY"
  },
  {
    "name": "Murphy Plumbing",
    "address": "15 Saltspray Cl, Redhead NSW 2290, Australia",
    "suburb": "Redhead NSW 2290",
    "state": "NSW",
    "rating": 4,
    "reviews": 57,
    "lat": -33.0109273,
    "lng": 151.7036278,
    "place_id": "ChIJLWEpWVgjc2sR4zoGQGItcIs",
    "maps_url": "https://www.google.com/maps/place/?q=place_id:ChIJLWEpWVgjc2sR4zoGQGItcIs"
  },
  {
    "name": "Ausco Plumbing Plumbing and Hot Water Specialist",
    "address": "38 Blaxland Rd, Macquarie Hills NSW 2285, Australia",
    "suburb": "Macquarie Hills NSW 2285",
    "state": "NSW",
    "rating": 4.9,
    "reviews": 43,
    "lat": -32.9565905,
    "lng": 151.6514902,
    "place_id": "ChIJ88EhI_Q8c2sRfS3pGfRkkuU",
    "maps_url": "https://www.google.com/maps/place/?q=place_id:ChIJ88EhI_Q8c2sRfS3pGfRkkuU"
  },
  {
    "name": "Enviromate Plumbing & Roofing",
    "address": "36 Seasands Dr, Redhead NSW 2290, Australia",
    "suburb": "Redhead NSW 2290",
    "state": "NSW",
    "rating": 4.8,
    "reviews": 455,
    "lat": -33.0118769,
    "lng": 151.7037995,
    "place_id": "ChIJv_W_wNsic2sR7uLadVDvjfA",
    "maps_url": "https://www.google.com/maps/place/?q=place_id:ChIJv_W_wNsic2sR7uLadVDvjfA"
  },
  {
    "name": "Heat Pump Boys",
    "address": "60 Wilton St, Merewether NSW 2291, Australia",
    "suburb": "Merewether NSW 2291",
    "state": "NSW",
    "rating": 5,
    "reviews": 190,
    "lat": -32.940011,
    "lng": 151.7446332,
    "place_id": "ChIJyZJq6GRNFmsRJ8X2R0RxCbo",
    "maps_url": "https://www.google.com/maps/place/?q=place_id:ChIJyZJq6GRNFmsRJ8X2R0RxCbo"
  },
  {
    "name": "RAE.CO Plumbing",
    "address": "Unit 7/32 Kalaroo Rd, Redhead NSW 2290, Australia",
    "suburb": "Redhead NSW 2290",
    "state": "NSW",
    "rating": 4.9,
    "reviews": 491,
    "lat": -33.0140007,
    "lng": 151.702929,
    "place_id": "ChIJebxu1uopx6kRbkKEhUSOu-0",
    "maps_url": "https://www.google.com/maps/place/?q=place_id:ChIJebxu1uopx6kRbkKEhUSOu-0"
  },
  {
    "name": "The Clean Plumber Wollongong - 40+ Years in Business",
    "address": "49 Kenny St, Wollongong NSW 2500, Australia",
    "suburb": "Wollongong NSW 2500",
    "state": "NSW",
    "rating": 4.9,
    "reviews": 63,
    "lat": -34.430223,
    "lng": 150.8917334,
    "place_id": "ChIJNe6PkH8ZE2sRL9G2_ZEDyzA",
    "maps_url": "https://www.google.com/maps/place/?q=place_id:ChIJNe6PkH8ZE2sRL9G2_ZEDyzA"
  },
  {
    "name": "WillPlumb Plumbing Services",
    "address": "3 Wonson Ave, Coniston NSW 2500, Australia",
    "suburb": "Coniston NSW 2500",
    "state": "NSW",
    "rating": 5,
    "reviews": 163,
    "lat": -34.4356253,
    "lng": 150.8772344,
    "place_id": "ChIJHwDwn6kZE2sR3iJyGO9NPxc",
    "maps_url": "https://www.google.com/maps/place/?q=place_id:ChIJHwDwn6kZE2sR3iJyGO9NPxc"
  },
  {
    "name": "Illawara Plumbing & Drainer",
    "address": "42 Mary St, Shellharbour NSW 2529, Australia",
    "suburb": "Shellharbour NSW 2529",
    "state": "NSW",
    "rating": 4.9,
    "reviews": 240,
    "lat": -34.5771479,
    "lng": 150.8657175,
    "place_id": "ChIJqZMIXX8VE2sRT4CoVDOwwqc",
    "maps_url": "https://www.google.com/maps/place/?q=place_id:ChIJqZMIXX8VE2sRT4CoVDOwwqc"
  },
  {
    "name": "A.P Plumbing CO",
    "address": "8 Gooyong St, Keiraville NSW 2500, Australia",
    "suburb": "Keiraville NSW 2500",
    "state": "NSW",
    "rating": 5,
    "reviews": 28,
    "lat": -34.4161164,
    "lng": 150.8666537,
    "place_id": "ChIJbU6teitru2gRN4Hzk-nBC1A",
    "maps_url": "https://www.google.com/maps/place/?q=place_id:ChIJbU6teitru2gRN4Hzk-nBC1A"
  },
  {
    "name": "Corradini Plumbing Wollongong",
    "address": "76 William James Dr, Mount Kembla NSW 2526, Australia",
    "suburb": "Mount Kembla NSW 2526",
    "state": "NSW",
    "rating": 4.9,
    "reviews": 71,
    "lat": -34.4353704,
    "lng": 150.8261162,
    "place_id": "ChIJdbkUMwEbE2sR7IckOYrJLvM",
    "maps_url": "https://www.google.com/maps/place/?q=place_id:ChIJdbkUMwEbE2sR7IckOYrJLvM"
  },
  {
    "name": "CS Plumbing & Drainage Services",
    "address": "17 Bukari St, West Wollongong NSW 2500, Australia",
    "suburb": "West Wollongong NSW 2500",
    "state": "NSW",
    "rating": 5,
    "reviews": 145,
    "lat": -34.4259039,
    "lng": 150.863957,
    "place_id": "ChIJ__8vlI1tE2sR0Sp_rwRSlMY",
    "maps_url": "https://www.google.com/maps/place/?q=place_id:ChIJ__8vlI1tE2sR0Sp_rwRSlMY"
  },
  {
    "name": "Top Flow Plumbing Services Wollongong",
    "address": "46 Mirrabooka Rd, Lake Heights NSW 2500, Australia",
    "suburb": "Lake Heights NSW 2500",
    "state": "NSW",
    "rating": 5,
    "reviews": 62,
    "lat": -34.48494770000001,
    "lng": 150.8703576,
    "place_id": "ChIJu9kh9ljSZU4RgVQXzH76YFI",
    "maps_url": "https://www.google.com/maps/place/?q=place_id:ChIJu9kh9ljSZU4RgVQXzH76YFI"
  },
  {
    "name": "Wollongong Facilities Plumbing Pty Ltd",
    "address": "50 Montague St, North Wollongong NSW 2500, Australia",
    "suburb": "North Wollongong NSW 2500",
    "state": "NSW",
    "rating": 4.9,
    "reviews": 56,
    "lat": -34.4004817,
    "lng": 150.8947887,
    "place_id": "ChIJl1Wa1RP4xmIR7V16PWDGIHM",
    "maps_url": "https://www.google.com/maps/place/?q=place_id:ChIJl1Wa1RP4xmIR7V16PWDGIHM"
  },
  {
    "name": "Leisure Coast Plumbing",
    "address": "28 Glenlee Dr, Horsley NSW 2530, Australia",
    "suburb": "Horsley NSW 2530",
    "state": "NSW",
    "rating": 5,
    "reviews": 76,
    "lat": -34.4876796,
    "lng": 150.7681713,
    "place_id": "ChIJ969St-8fkQMRlylcQmUNpwQ",
    "maps_url": "https://www.google.com/maps/place/?q=place_id:ChIJ969St-8fkQMRlylcQmUNpwQ"
  },
  {
    "name": "BEACHLINE PLUMBING PTY LTD",
    "address": "23 Lassiter Ave, Woonona NSW 2500, Australia",
    "suburb": "Woonona NSW 2500",
    "state": "NSW",
    "rating": 4.9,
    "reviews": 36,
    "lat": -34.3552922,
    "lng": 150.9155323,
    "place_id": "ChIJpVMhIxsfE2sRsmXM2Z9EMw8",
    "maps_url": "https://www.google.com/maps/place/?q=place_id:ChIJpVMhIxsfE2sRsmXM2Z9EMw8"
  },
  {
    "name": "Dr Leak Wollongong Plumbing",
    "address": "Suite 3/336 Crown St, Wollongong NSW 2500, Australia",
    "suburb": "Wollongong NSW 2500",
    "state": "NSW",
    "rating": 4.8,
    "reviews": 16,
    "lat": -34.4250479,
    "lng": 150.8860621,
    "place_id": "ChIJeyUyndAZE2sRYYYMcb9Z9r4",
    "maps_url": "https://www.google.com/maps/place/?q=place_id:ChIJeyUyndAZE2sRYYYMcb9Z9r4"
  },
  {
    "name": "Ken Barnes Plumbing",
    "address": "97 Auburn St, Wollongong NSW 2500, Australia",
    "suburb": "Wollongong NSW 2500",
    "state": "NSW",
    "rating": 4.7,
    "reviews": 26,
    "lat": -34.4357316,
    "lng": 150.8882451,
    "place_id": "ChIJMWJK4r4ZE2sREVeEGBbmCRg",
    "maps_url": "https://www.google.com/maps/place/?q=place_id:ChIJMWJK4r4ZE2sREVeEGBbmCRg"
  },
  {
    "name": "Keira Plumbing",
    "address": "3 Marengo Ave, Figtree NSW 2525, Australia",
    "suburb": "Figtree NSW 2525",
    "state": "NSW",
    "rating": 5,
    "reviews": 18,
    "lat": -34.4210489,
    "lng": 150.8542803,
    "place_id": "ChIJs2F74eEbE2sRFTwUgSrkd-s",
    "maps_url": "https://www.google.com/maps/place/?q=place_id:ChIJs2F74eEbE2sRFTwUgSrkd-s"
  },
  {
    "name": "Parto's Plumbing & Drainage",
    "address": "67 Russell St, Woonona NSW 2517, Australia",
    "suburb": "Woonona NSW 2517",
    "state": "NSW",
    "rating": 5,
    "reviews": 101,
    "lat": -34.3415889,
    "lng": 150.9122218,
    "place_id": "ChIJP4SRmV0fE2sRhbsPo_gA7dM",
    "maps_url": "https://www.google.com/maps/place/?q=place_id:ChIJP4SRmV0fE2sRhbsPo_gA7dM"
  },
  {
    "name": "Wave Plumbing & Gas Fitting",
    "address": "15 Robert St, Corrimal NSW 2518, Australia",
    "suburb": "Corrimal NSW 2518",
    "state": "NSW",
    "rating": 5,
    "reviews": 63,
    "lat": -34.3690593,
    "lng": 150.9007093,
    "place_id": "ChIJJQaCe4-sTCsRrXXQwuLbw48",
    "maps_url": "https://www.google.com/maps/place/?q=place_id:ChIJJQaCe4-sTCsRrXXQwuLbw48"
  },
  {
    "name": "Ruttley Services Illawarra",
    "address": "5/21 Doyle Ave, Unanderra NSW 2526, Australia",
    "suburb": "Unanderra NSW 2526",
    "state": "NSW",
    "rating": 4.8,
    "reviews": 327,
    "lat": -34.4669008,
    "lng": 150.83928,
    "place_id": "ChIJCe1qwa1GS6QRgm1zmjKfM9A",
    "maps_url": "https://www.google.com/maps/place/?q=place_id:ChIJCe1qwa1GS6QRgm1zmjKfM9A"
  },
  {
    "name": "Turner & Co Plumbing and Drainage",
    "address": "Office 304/12 Pioneer Ave, Tuggerah NSW 2259, Australia",
    "suburb": "Tuggerah NSW 2259",
    "state": "NSW",
    "rating": 5,
    "reviews": 324,
    "lat": -33.3184146,
    "lng": 151.4248035,
    "place_id": "ChIJAdZL--PwECMRHBr-fTkbQq8",
    "maps_url": "https://www.google.com/maps/place/?q=place_id:ChIJAdZL--PwECMRHBr-fTkbQq8"
  },
  {
    "name": "Fluid Plumbing, Electrical & Air Conditioning Central Coast",
    "address": "5/5 Colony Cl, Tuggerah NSW 2259, Australia",
    "suburb": "Tuggerah NSW 2259",
    "state": "NSW",
    "rating": 4.8,
    "reviews": 1391,
    "lat": -33.318,
    "lng": 151.4204299,
    "place_id": "ChIJZfQtnXrKcmsRWsqDdqpIAuA",
    "maps_url": "https://www.google.com/maps/place/?q=place_id:ChIJZfQtnXrKcmsRWsqDdqpIAuA"
  },
  {
    "name": "Blocked Plumbing Services",
    "address": "11/6 Bon-Mace Cl, Berkeley Vale NSW 2261, Australia",
    "suburb": "Berkeley Vale NSW 2261",
    "state": "NSW",
    "rating": 5,
    "reviews": 257,
    "lat": -33.3593617,
    "lng": 151.4429546,
    "place_id": "ChIJLdQBvNPOcmsRr6_7y6tBAvk",
    "maps_url": "https://www.google.com/maps/place/?q=place_id:ChIJLdQBvNPOcmsRr6_7y6tBAvk"
  },
  {
    "name": "048 PLUMBER CENTRAL COAST",
    "address": "Unit 5/4 Dell Rd, West Gosford NSW 2250, Australia",
    "suburb": "West Gosford NSW 2250",
    "state": "NSW",
    "rating": 5,
    "reviews": 60,
    "lat": -33.4134111,
    "lng": 151.3323335,
    "place_id": "ChIJS1J-oS_LcmsRnRpVoUcoKPY",
    "maps_url": "https://www.google.com/maps/place/?q=place_id:ChIJS1J-oS_LcmsRnRpVoUcoKPY"
  },
  {
    "name": "Paul Byrnes Emergency Plumbing Services",
    "address": "8 Jindalee Ave, Point Clare NSW 2250, Australia",
    "suburb": "Point Clare NSW 2250",
    "state": "NSW",
    "rating": 5,
    "reviews": 114,
    "lat": -33.4398169,
    "lng": 151.3296331,
    "place_id": "ChIJRzSJfMS1cmsRd-shjxlUVUE",
    "maps_url": "https://www.google.com/maps/place/?q=place_id:ChIJRzSJfMS1cmsRd-shjxlUVUE"
  },
  {
    "name": "Viking Plumbing & Gas Services",
    "address": "18 Delaware Rd, Niagara Park NSW 2250, Australia",
    "suburb": "Niagara Park NSW 2250",
    "state": "NSW",
    "rating": 4.9,
    "reviews": 142,
    "lat": -33.381568,
    "lng": 151.3526693,
    "place_id": "ChIJK7XYztXPcmsR_sz4JjjhutA",
    "maps_url": "https://www.google.com/maps/place/?q=place_id:ChIJK7XYztXPcmsR_sz4JjjhutA"
  },
  {
    "name": "Beachside Plumbing and Gas",
    "address": "61 Mistview Cct, Forresters Beach NSW 2260, Australia",
    "suburb": "Forresters Beach NSW 2260",
    "state": "NSW",
    "rating": 4.9,
    "reviews": 131,
    "lat": -33.4032736,
    "lng": 151.4623895,
    "place_id": "ChIJrZj01rbRcmsRvc-lLFbx2KI",
    "maps_url": "https://www.google.com/maps/place/?q=place_id:ChIJrZj01rbRcmsRvc-lLFbx2KI"
  },
  {
    "name": "Olsen Plumbing",
    "address": "Lurline St, Ettalong Beach NSW 2257, Australia",
    "suburb": "Ettalong Beach NSW 2257",
    "state": "NSW",
    "rating": 5,
    "reviews": 35,
    "lat": -33.5117223,
    "lng": 151.3329598,
    "place_id": "ChIJrTFAalmzcmsR5s3frPKGGis",
    "maps_url": "https://www.google.com/maps/place/?q=place_id:ChIJrTFAalmzcmsR5s3frPKGGis"
  },
  {
    "name": "Parramatta Plumbing Services",
    "address": "32 Hunter St, Parramatta NSW 2150, Australia",
    "suburb": "Parramatta NSW 2150",
    "state": "NSW",
    "rating": 5,
    "reviews": 13,
    "lat": -33.8153919,
    "lng": 151.0010703,
    "place_id": "ChIJ2csiMgCjEmsRTozNhDAJw2Q",
    "maps_url": "https://www.google.com/maps/place/?q=place_id:ChIJ2csiMgCjEmsRTozNhDAJw2Q"
  },
  {
    "name": "Hydrolink Plumbing & Gas Heater Services Sydney",
    "address": "Level 14, 3 Parramatta Square, 153 Macquarie St, Parramatta NSW 2150, Australia",
    "suburb": "3 Parramatta Square",
    "state": "NSW",
    "rating": 4.9,
    "reviews": 553,
    "lat": -33.8156383,
    "lng": 151.0049259,
    "place_id": "ChIJBeh7wnujEmsR_kIZZje6GqA",
    "maps_url": "https://www.google.com/maps/place/?q=place_id:ChIJBeh7wnujEmsR_kIZZje6GqA"
  },
  {
    "name": "Graham and Sons Plumbing",
    "address": "28 Oak St, Rosehill NSW 2142, Australia",
    "suburb": "Rosehill NSW 2142",
    "state": "NSW",
    "rating": 4.4,
    "reviews": 61,
    "lat": -33.8197545,
    "lng": 151.0203357,
    "place_id": "ChIJr-yFmImjEmsR1F4DdcXF3ws",
    "maps_url": "https://www.google.com/maps/place/?q=place_id:ChIJr-yFmImjEmsR1F4DdcXF3ws"
  },
  {
    "name": "Pure Plumbing Professionals",
    "address": "47/7 Hoyle Ave, Castle Hill NSW 2154, Australia",
    "suburb": "Castle Hill NSW 2154",
    "state": "NSW",
    "rating": 4.9,
    "reviews": 420,
    "lat": -33.7317636,
    "lng": 150.9845133,
    "place_id": "ChIJ3-i0y5ynEmsRwxiRTbLJGuM",
    "maps_url": "https://www.google.com/maps/place/?q=place_id:ChIJ3-i0y5ynEmsRwxiRTbLJGuM"
  },
  {
    "name": "Sydney Supreme Plumbing | Blocked Drains | Hot Water Repair | Emergency Plumbing Services",
    "address": "Glen St, Granville NSW 2142, Australia",
    "suburb": "Granville NSW 2142",
    "state": "NSW",
    "rating": 4.9,
    "reviews": 43,
    "lat": -33.8369683,
    "lng": 151.0093675,
    "place_id": "ChIJJ-rl_h4vYwERT2w7nP9CgJc",
    "maps_url": "https://www.google.com/maps/place/?q=place_id:ChIJJ-rl_h4vYwERT2w7nP9CgJc"
  },
  {
    "name": "Gee Plumbing and Maintenance Pty Ltd",
    "address": "55 George St, Parramatta NSW 2150, Australia",
    "suburb": "Parramatta NSW 2150",
    "state": "NSW",
    "rating": 5,
    "reviews": 10,
    "lat": -33.814272,
    "lng": 151.004761,
    "place_id": "ChIJl0g_vFOjEmsRIUfe4nbylVg",
    "maps_url": "https://www.google.com/maps/place/?q=place_id:ChIJl0g_vFOjEmsRIUfe4nbylVg"
  },
  {
    "name": "JD Plumbing Service Group Pty Ltd",
    "address": "6 Speers Rd, North Rocks NSW 2151, Australia",
    "suburb": "North Rocks NSW 2151",
    "state": "NSW",
    "rating": 5,
    "reviews": 63,
    "lat": -33.7893744,
    "lng": 151.0024969,
    "place_id": "ChIJdzRBmoGjEmsR3NmLoyP4qbw",
    "maps_url": "https://www.google.com/maps/place/?q=place_id:ChIJdzRBmoGjEmsR3NmLoyP4qbw"
  },
  {
    "name": "Swish Plumbing",
    "address": "14 Sanders Rd, Baulkham Hills NSW 2153, Australia",
    "suburb": "Baulkham Hills NSW 2153",
    "state": "NSW",
    "rating": 5,
    "reviews": 155,
    "lat": -33.7588968,
    "lng": 150.975079,
    "place_id": "ChIJ6Sh_WLKjEmsRAOizojaQH2E",
    "maps_url": "https://www.google.com/maps/place/?q=place_id:ChIJ6Sh_WLKjEmsRAOizojaQH2E"
  },
  {
    "name": "Mr Splash Plumbing Western Sydney",
    "address": "Victoria Rd, Parramatta NSW 2150, Australia",
    "suburb": "Parramatta NSW 2150",
    "state": "NSW",
    "rating": 5,
    "reviews": 1,
    "lat": -33.8088041,
    "lng": 151.0156959,
    "place_id": "ChIJZVrbPb2jEmsR9TGW1zWPPu0",
    "maps_url": "https://www.google.com/maps/place/?q=place_id:ChIJZVrbPb2jEmsR9TGW1zWPPu0"
  },
  {
    "name": "High Quality Plumbing",
    "address": "14 Clyde St, Granville NSW 2142, Australia",
    "suburb": "Granville NSW 2142",
    "state": "NSW",
    "rating": 5,
    "reviews": 24,
    "lat": -33.8368324,
    "lng": 151.0145459,
    "place_id": "ChIJnQmenhejEmsRd5YhF22Cp90",
    "maps_url": "https://www.google.com/maps/place/?q=place_id:ChIJnQmenhejEmsRd5YhF22Cp90"
  },
  {
    "name": "Plumb Medic - Emergency Plumber Melbourne",
    "address": "3/394 Collins St, Melbourne VIC 3000, Australia",
    "suburb": "Melbourne VIC 3000",
    "state": "VIC",
    "rating": 4.9,
    "reviews": 337,
    "lat": -37.8168154,
    "lng": 144.961175,
    "place_id": "ChIJ81AlzZdj1moRNrTtFD9qbZk",
    "maps_url": "https://www.google.com/maps/place/?q=place_id:ChIJ81AlzZdj1moRNrTtFD9qbZk"
  },
  {
    "name": "Fix It Right Plumbing Melbourne",
    "address": "2 Insight Cct, Carrum Downs VIC 3201, Australia",
    "suburb": "Carrum Downs VIC 3201",
    "state": "VIC",
    "rating": 4.9,
    "reviews": 2374,
    "lat": -38.0853771,
    "lng": 145.1743108,
    "place_id": "ChIJBerMWeEM1moR522YLK3gZAo",
    "maps_url": "https://www.google.com/maps/place/?q=place_id:ChIJBerMWeEM1moR522YLK3gZAo"
  },
  {
    "name": "Your Pro Plumber - Blocked Drain & Emergency Plumber | Melbourne",
    "address": "24/139 Cardigan St, Carlton VIC 3053, Australia",
    "suburb": "Carlton VIC 3053",
    "state": "VIC",
    "rating": 4.9,
    "reviews": 169,
    "lat": -37.80339499999999,
    "lng": 144.9647181,
    "place_id": "ChIJPQXs00xF1moRg-fdIc7RuTY",
    "maps_url": "https://www.google.com/maps/place/?q=place_id:ChIJPQXs00xF1moRg-fdIc7RuTY"
  },
  {
    "name": "Melbourne Metro Plumbing Group",
    "address": "Level 19/644 Chapel St, South Yarra VIC 3141, Australia",
    "suburb": "South Yarra VIC 3141",
    "state": "VIC",
    "rating": 4.9,
    "reviews": 239,
    "lat": -37.8389144,
    "lng": 144.9964995,
    "place_id": "ChIJDbhrajL01moReDtm-Nsb4m8",
    "maps_url": "https://www.google.com/maps/place/?q=place_id:ChIJDbhrajL01moReDtm-Nsb4m8"
  },
  {
    "name": "Velaqua Plumbing",
    "address": "Floor G/87 Gladstone St, South Melbourne VIC 3205, Australia",
    "suburb": "South Melbourne VIC 3205",
    "state": "VIC",
    "rating": 5,
    "reviews": 184,
    "lat": -37.82973339999999,
    "lng": 144.9508156,
    "place_id": "ChIJ2_-mwIdn1moRBm7NhitDZa8",
    "maps_url": "https://www.google.com/maps/place/?q=place_id:ChIJ2_-mwIdn1moRBm7NhitDZa8"
  },
  {
    "name": "Neighbourhood Plumbing",
    "address": "5/492 Fullarton Rd, Airport West VIC 3043, Australia",
    "suburb": "Airport West VIC 3043",
    "state": "VIC",
    "rating": 4.6,
    "reviews": 849,
    "lat": -37.7282372,
    "lng": 144.8679189,
    "place_id": "ChIJwVmYq4xZ1moRjpwsWn9ca4Q",
    "maps_url": "https://www.google.com/maps/place/?q=place_id:ChIJwVmYq4xZ1moRjpwsWn9ca4Q"
  },
  {
    "name": "Melbourne Plumbing Co",
    "address": "Stanley St, Essendon VIC 3040, Australia",
    "suburb": "Essendon VIC 3040",
    "state": "VIC",
    "rating": 4.8,
    "reviews": 183,
    "lat": -37.7529398,
    "lng": 144.9157913,
    "place_id": "ChIJuYPfbmBc1moRZGIN6ILfSZA",
    "maps_url": "https://www.google.com/maps/place/?q=place_id:ChIJuYPfbmBc1moRZGIN6ILfSZA"
  },
  {
    "name": "Zebra Plumbing",
    "address": "L3/534 Church St, Richmond VIC 3121, Australia",
    "suburb": "Richmond VIC 3121",
    "state": "VIC",
    "rating": 5,
    "reviews": 322,
    "lat": -37.8285184,
    "lng": 144.997028,
    "place_id": "ChIJLWFkuRvrtgIRuh_BhruV69E",
    "maps_url": "https://www.google.com/maps/place/?q=place_id:ChIJLWFkuRvrtgIRuh_BhruV69E"
  },
  {
    "name": "Butler Plumbing Pty Ltd",
    "address": "366 Gore St, Fitzroy VIC 3065, Australia",
    "suburb": "Fitzroy VIC 3065",
    "state": "VIC",
    "rating": 4.7,
    "reviews": 357,
    "lat": -37.7979635,
    "lng": 144.9836938,
    "place_id": "ChIJJ6DJfB9D1moRWDKz84AsiDE",
    "maps_url": "https://www.google.com/maps/place/?q=place_id:ChIJJ6DJfB9D1moRWDKz84AsiDE"
  },
  {
    "name": "24 Hour Melbourne Plumber",
    "address": "540 Little Collins St, Melbourne VIC 3000, Australia",
    "suburb": "Melbourne VIC 3000",
    "state": "VIC",
    "rating": 4.2,
    "reviews": 218,
    "lat": -37.8170953,
    "lng": 144.956901,
    "place_id": "ChIJ_4JytAld1moReXZvKZMOP0U",
    "maps_url": "https://www.google.com/maps/place/?q=place_id:ChIJ_4JytAld1moReXZvKZMOP0U"
  },
  {
    "name": "OnCall Emergency Plumbers - Blocked Drains & Emergency Plumber Melbourne",
    "address": "890 Riversdale Rd, Camberwell VIC 3124, Australia",
    "suburb": "Camberwell VIC 3124",
    "state": "VIC",
    "rating": 5,
    "reviews": 493,
    "lat": -37.8353646,
    "lng": 145.0907129,
    "place_id": "ChIJt4b9YpRf1moRDvjQxMXh2wo",
    "maps_url": "https://www.google.com/maps/place/?q=place_id:ChIJt4b9YpRf1moRDvjQxMXh2wo"
  },
  {
    "name": "Plumb Active Plumber Melbourne",
    "address": "Suite 118/585 Little Collins St, Melbourne VIC 3000, Australia",
    "suburb": "Melbourne VIC 3000",
    "state": "VIC",
    "rating": 5,
    "reviews": 22,
    "lat": -37.8176866,
    "lng": 144.9553731,
    "place_id": "ChIJF-zXDwBd1moRBUTzAEEc9qk",
    "maps_url": "https://www.google.com/maps/place/?q=place_id:ChIJF-zXDwBd1moRBUTzAEEc9qk"
  },
  {
    "name": "Service Today Plumber Melbourne",
    "address": "250 Spencer St, Melbourne VIC 3000, Australia",
    "suburb": "Melbourne VIC 3000",
    "state": "VIC",
    "rating": 4.7,
    "reviews": 60,
    "lat": -37.8146345,
    "lng": 144.9526442,
    "place_id": "ChIJJSSJGnKWaYARVjnr99aqbGY",
    "maps_url": "https://www.google.com/maps/place/?q=place_id:ChIJJSSJGnKWaYARVjnr99aqbGY"
  },
  {
    "name": "247 Plumber",
    "address": "45A Chapel St, Windsor VIC 3181, Australia",
    "suburb": "Windsor VIC 3181",
    "state": "VIC",
    "rating": 4.7,
    "reviews": 70,
    "lat": -37.8556317,
    "lng": 144.9922835,
    "place_id": "ChIJKePPIkRp1moRpyMXe_u3oo8",
    "maps_url": "https://www.google.com/maps/place/?q=place_id:ChIJKePPIkRp1moRpyMXe_u3oo8"
  },
  {
    "name": "Advanced Melbourne Plumbers",
    "address": "Level 2/90 Maribyrnong St, Footscray VIC 3011, Australia",
    "suburb": "Footscray VIC 3011",
    "state": "VIC",
    "rating": 5,
    "reviews": 49,
    "lat": -37.8082247,
    "lng": 144.9052692,
    "place_id": "ChIJlSk1hnWN3AARUE0pC6Omx6s",
    "maps_url": "https://www.google.com/maps/place/?q=place_id:ChIJlSk1hnWN3AARUE0pC6Omx6s"
  },
  {
    "name": "VIC Plumbing Maintenance",
    "address": "17 Carson St, Kew VIC 3101, Australia",
    "suburb": "Kew VIC 3101",
    "state": "VIC",
    "rating": 4.9,
    "reviews": 138,
    "lat": -37.8090878,
    "lng": 145.0192617,
    "place_id": "ChIJ02Kd9ZyTa6oRwFkbbrKSMOQ",
    "maps_url": "https://www.google.com/maps/place/?q=place_id:ChIJ02Kd9ZyTa6oRwFkbbrKSMOQ"
  },
  {
    "name": "Bay Plumbing & Drainage",
    "address": "2 Wesley Pl, Geelong VIC 3220, Australia",
    "suburb": "Geelong VIC 3220",
    "state": "VIC",
    "rating": 5,
    "reviews": 402,
    "lat": -38.1482355,
    "lng": 144.3539695,
    "place_id": "ChIJsQWi7PET1GoR4Fl9IHmKxdI",
    "maps_url": "https://www.google.com/maps/place/?q=place_id:ChIJsQWi7PET1GoR4Fl9IHmKxdI"
  },
  {
    "name": "Act Fast Plumbing",
    "address": "20 Southcape Pl, South Geelong VIC 3220, Australia",
    "suburb": "South Geelong VIC 3220",
    "state": "VIC",
    "rating": 5,
    "reviews": 591,
    "lat": -38.1641958,
    "lng": 144.3603853,
    "place_id": "ChIJ98NV45AT1GoRyn5RsCPg1xw",
    "maps_url": "https://www.google.com/maps/place/?q=place_id:ChIJ98NV45AT1GoRyn5RsCPg1xw"
  },
  {
    "name": "Fix It Right Plumbing",
    "address": "21/3 Dyson Ct, Breakwater VIC 3219, Australia",
    "suburb": "Breakwater VIC 3219",
    "state": "VIC",
    "rating": 4.9,
    "reviews": 789,
    "lat": -38.1874927,
    "lng": 144.3759976,
    "place_id": "ChIJLWYhdDIU1GoRgGrdYSEnfxE",
    "maps_url": "https://www.google.com/maps/place/?q=place_id:ChIJLWYhdDIU1GoRgGrdYSEnfxE"
  },
  {
    "name": "Geelong Plumbing Co",
    "address": "1B/40 Gregory Ave, Newtown VIC 3220, Australia",
    "suburb": "Newtown VIC 3220",
    "state": "VIC",
    "rating": 4.8,
    "reviews": 52,
    "lat": -38.1624594,
    "lng": 144.3386197,
    "place_id": "ChIJ6yj9JaUT1GoRkfROk-ONhk0",
    "maps_url": "https://www.google.com/maps/place/?q=place_id:ChIJ6yj9JaUT1GoRkfROk-ONhk0"
  },
  {
    "name": "Complete Plumbing Co Pty Ltd",
    "address": "Newcomb VIC 3219, Australia",
    "suburb": "Australia",
    "state": "VIC",
    "rating": 5,
    "reviews": 136,
    "lat": -38.1701141,
    "lng": 144.3902883,
    "place_id": "ChIJN6AK3JgV1GoRQA3EJ925KxU",
    "maps_url": "https://www.google.com/maps/place/?q=place_id:ChIJN6AK3JgV1GoRQA3EJ925KxU"
  },
  {
    "name": "Extra Mile Plumbing",
    "address": "29 Seabright St, North Shore VIC 3214, Australia",
    "suburb": "North Shore VIC 3214",
    "state": "VIC",
    "rating": 4.9,
    "reviews": 348,
    "lat": -38.09742019999999,
    "lng": 144.3692216,
    "place_id": "ChIJkS_twc_ze6sRoXjVgAKQn6k",
    "maps_url": "https://www.google.com/maps/place/?q=place_id:ChIJkS_twc_ze6sRoXjVgAKQn6k"
  },
  {
    "name": "South Vic Plumbing",
    "address": "Shannon Ave, Geelong West VIC 3218, Australia",
    "suburb": "Geelong West VIC 3218",
    "state": "VIC",
    "rating": 5,
    "reviews": 49,
    "lat": -38.1370666,
    "lng": 144.33722,
    "place_id": "ChIJmbv7N-cV1GoR4x2JRbquv9U",
    "maps_url": "https://www.google.com/maps/place/?q=place_id:ChIJmbv7N-cV1GoR4x2JRbquv9U"
  },
  {
    "name": "John Drew Plumbing",
    "address": "3 Separation St, North Geelong VIC 3215, Australia",
    "suburb": "North Geelong VIC 3215",
    "state": "VIC",
    "rating": 4.4,
    "reviews": 50,
    "lat": -38.1120629,
    "lng": 144.3518645,
    "place_id": "ChIJNUO2vVQV1GoRXr60eAYZkiY",
    "maps_url": "https://www.google.com/maps/place/?q=place_id:ChIJNUO2vVQV1GoRXr60eAYZkiY"
  },
  {
    "name": "Direct Flow Plumbing",
    "address": "41 Seaside Parade, North Shore VIC 3214, Australia",
    "suburb": "North Shore VIC 3214",
    "state": "VIC",
    "rating": 5,
    "reviews": 27,
    "lat": -38.093141,
    "lng": 144.3691131,
    "place_id": "ChIJvRIFiYgR1GoRd600qeXNEF0",
    "maps_url": "https://www.google.com/maps/place/?q=place_id:ChIJvRIFiYgR1GoRd600qeXNEF0"
  },
  {
    "name": "Ocean Flow Plumbing",
    "address": "Coastside Dr, Armstrong Creek VIC 3217, Australia",
    "suburb": "Armstrong Creek VIC 3217",
    "state": "VIC",
    "rating": 5,
    "reviews": 104,
    "lat": -38.2424192,
    "lng": 144.3483812,
    "place_id": "ChIJvfj31pVr1GoRFQuqimc4yaE",
    "maps_url": "https://www.google.com/maps/place/?q=place_id:ChIJvfj31pVr1GoRFQuqimc4yaE"
  },
  {
    "name": "Clearwater Plumbing and Maintenance",
    "address": "FY 19/5 Bridge St, Newtown VIC 3220, Australia",
    "suburb": "Newtown VIC 3220",
    "state": "VIC",
    "rating": 5,
    "reviews": 149,
    "lat": -38.160139,
    "lng": 144.3365378,
    "place_id": "ChIJwxzbvrcT1GoRTqXkDrApGKU",
    "maps_url": "https://www.google.com/maps/place/?q=place_id:ChIJwxzbvrcT1GoRTqXkDrApGKU"
  },
  {
    "name": "Sewer Cure",
    "address": "78 Garden St, Geelong VIC 3220, Australia",
    "suburb": "Geelong VIC 3220",
    "state": "VIC",
    "rating": 5,
    "reviews": 39,
    "lat": -38.1554252,
    "lng": 144.3707406,
    "place_id": "ChIJ-b8Q4-zbdmURVIcw0WmbVBA",
    "maps_url": "https://www.google.com/maps/place/?q=place_id:ChIJ-b8Q4-zbdmURVIcw0WmbVBA"
  },
  {
    "name": "AWDW Plumbing & Gasfitting",
    "address": "7 Marshall St, Newtown VIC 3220, Australia",
    "suburb": "Newtown VIC 3220",
    "state": "VIC",
    "rating": 4.9,
    "reviews": 287,
    "lat": -38.159319,
    "lng": 144.3496354,
    "place_id": "ChIJk7IDKwsU1GoRxc2cNZkeyfw",
    "maps_url": "https://www.google.com/maps/place/?q=place_id:ChIJk7IDKwsU1GoRxc2cNZkeyfw"
  },
  {
    "name": "ANB Plumbing Geelong",
    "address": "Factory 5/100 Barwon Terrace, South Geelong VIC 3216, Australia",
    "suburb": "South Geelong VIC 3216",
    "state": "VIC",
    "rating": 5,
    "reviews": 49,
    "lat": -38.17222539999999,
    "lng": 144.3671664,
    "place_id": "ChIJSVB1Q3sT1GoRglU_Ri0O56E",
    "maps_url": "https://www.google.com/maps/place/?q=place_id:ChIJSVB1Q3sT1GoRglU_Ri0O56E"
  },
  {
    "name": "Sleep's Plumbing",
    "address": "13 Butt St, Canadian VIC 3350, Australia",
    "suburb": "Canadian VIC 3350",
    "state": "VIC",
    "rating": 4.8,
    "reviews": 151,
    "lat": -37.5819775,
    "lng": 143.8804331,
    "place_id": "ChIJ38YxD5dE0WoRah7V1vMFP6M",
    "maps_url": "https://www.google.com/maps/place/?q=place_id:ChIJ38YxD5dE0WoRah7V1vMFP6M"
  },
  {
    "name": "DJB Plumbing & Gas",
    "address": "10 Beaumont Dr, Delacombe VIC 3356, Australia",
    "suburb": "Delacombe VIC 3356",
    "state": "VIC",
    "rating": 4.7,
    "reviews": 91,
    "lat": -37.5772732,
    "lng": 143.8156179,
    "place_id": "ChIJJRgI_vNZ0WoRuZLlkS0cEi8",
    "maps_url": "https://www.google.com/maps/place/?q=place_id:ChIJJRgI_vNZ0WoRuZLlkS0cEi8"
  },
  {
    "name": "Ballarat Essential Plumbing",
    "address": "10 Daveyduke Dr, Mitchell Park VIC 3355, Australia",
    "suburb": "Mitchell Park VIC 3355",
    "state": "VIC",
    "rating": 5,
    "reviews": 59,
    "lat": -37.5121763,
    "lng": 143.8060288,
    "place_id": "ChIJXe15dwVF0WoR5fF_LXFjhyM",
    "maps_url": "https://www.google.com/maps/place/?q=place_id:ChIJXe15dwVF0WoR5fF_LXFjhyM"
  },
  {
    "name": "Dellore plumbing - plumber ballarat",
    "address": "29a Hotham St, Lake Wendouree VIC 3350, Australia",
    "suburb": "Lake Wendouree VIC 3350",
    "state": "VIC",
    "rating": 5,
    "reviews": 6,
    "lat": -37.550527,
    "lng": 143.8478068,
    "place_id": "ChIJpwjwLTdge4IRn_SC7oyu36Y",
    "maps_url": "https://www.google.com/maps/place/?q=place_id:ChIJpwjwLTdge4IRn_SC7oyu36Y"
  },
  {
    "name": "Quayle Plumbing",
    "address": "19 Ayrvale Ave, Lake Gardens VIC 3356, Australia",
    "suburb": "Lake Gardens VIC 3356",
    "state": "VIC",
    "rating": 5,
    "reviews": 1,
    "lat": -37.5456116,
    "lng": 143.8164642,
    "place_id": "ChIJy_38BR9F0WoRb0HIsjCQo6s",
    "maps_url": "https://www.google.com/maps/place/?q=place_id:ChIJy_38BR9F0WoRb0HIsjCQo6s"
  },
  {
    "name": "Scott's Plumbing and Maintenance Services",
    "address": "4763 Colac-Ballarat Rd, Napoleons VIC 3352, Australia",
    "suburb": "Napoleons VIC 3352",
    "state": "VIC",
    "rating": 5,
    "reviews": 7,
    "lat": -37.6753988,
    "lng": 143.8293138,
    "place_id": "ChIJM582d0BZ0WoRNZQkac5Ixeo",
    "maps_url": "https://www.google.com/maps/place/?q=place_id:ChIJM582d0BZ0WoRNZQkac5Ixeo"
  },
  {
    "name": "shane edwards plumbing",
    "address": "10 Builders Cl, Wendouree VIC 3355, Australia",
    "suburb": "Wendouree VIC 3355",
    "state": "VIC",
    "rating": null,
    "reviews": 0,
    "lat": -37.5293461,
    "lng": 143.8449344,
    "place_id": "ChIJKRnSdqBF0WoRy4UDuY8YwNQ",
    "maps_url": "https://www.google.com/maps/place/?q=place_id:ChIJKRnSdqBF0WoRy4UDuY8YwNQ"
  },
  {
    "name": "Michael Walsh Plumbing",
    "address": "13 Loch Ave, Ballarat Central VIC 3350, Australia",
    "suburb": "Ballarat Central VIC 3350",
    "state": "VIC",
    "rating": 5,
    "reviews": 1,
    "lat": -37.5554208,
    "lng": 143.8507225,
    "place_id": "ChIJ15gK1V5E0WoREHKZ7SeB09I",
    "maps_url": "https://www.google.com/maps/place/?q=place_id:ChIJ15gK1V5E0WoREHKZ7SeB09I"
  },
  {
    "name": "McPherson Commercial Plumbing",
    "address": "121 Learmonth St, Alfredton VIC 3350, Australia",
    "suburb": "Alfredton VIC 3350",
    "state": "VIC",
    "rating": 5,
    "reviews": 1,
    "lat": -37.5635348,
    "lng": 143.8122836,
    "place_id": "ChIJQ1G77xdE0WoRnTx5_Gg4Ifc",
    "maps_url": "https://www.google.com/maps/place/?q=place_id:ChIJQ1G77xdE0WoRnTx5_Gg4Ifc"
  },
  {
    "name": "LTR Plumbing",
    "address": "Unit 4/10 Matchett Dr, East Bendigo VIC 3550, Australia",
    "suburb": "East Bendigo VIC 3550",
    "state": "VIC",
    "rating": 4.9,
    "reviews": 505,
    "lat": -36.7526146,
    "lng": 144.3193857,
    "place_id": "ChIJHxeJaLNZ12oR6XBPQg94Oc8",
    "maps_url": "https://www.google.com/maps/place/?q=place_id:ChIJHxeJaLNZ12oR6XBPQg94Oc8"
  },
  {
    "name": "Plumb Plus Victoria Plumbing and Gas Specialist",
    "address": "9 Shelley St, Spring Gully VIC 3550, Australia",
    "suburb": "Spring Gully VIC 3550",
    "state": "VIC",
    "rating": 4.9,
    "reviews": 96,
    "lat": -36.7888458,
    "lng": 144.2815931,
    "place_id": "ChIJ6c_d_ut72GoRH1kMAt8ECZQ",
    "maps_url": "https://www.google.com/maps/place/?q=place_id:ChIJ6c_d_ut72GoRH1kMAt8ECZQ"
  },
  {
    "name": "Dunstone Bros. Plumbing & Roofing",
    "address": "179 Allies Rd, Maiden Gully VIC 3556, Australia",
    "suburb": "Maiden Gully VIC 3556",
    "state": "VIC",
    "rating": 4.9,
    "reviews": 195,
    "lat": -36.7175611,
    "lng": 144.2062252,
    "place_id": "ChIJr7EtyPpW12oRT4eXeRR322k",
    "maps_url": "https://www.google.com/maps/place/?q=place_id:ChIJr7EtyPpW12oRT4eXeRR322k"
  },
  {
    "name": "Jaycee Plumbing and Gas Fitting",
    "address": "87 MacKenzie St W, Golden Square VIC 3555, Australia",
    "suburb": "Golden Square VIC 3555",
    "state": "VIC",
    "rating": 5,
    "reviews": 88,
    "lat": -36.77450109999999,
    "lng": 144.2498004,
    "place_id": "ChIJlzaQ9VBb12oRLYyBInWOjlM",
    "maps_url": "https://www.google.com/maps/place/?q=place_id:ChIJlzaQ9VBb12oRLYyBInWOjlM"
  },
  {
    "name": "Pipe Doctor Australia",
    "address": "181 Allingham St, Golden Square VIC 3555, Australia",
    "suburb": "Golden Square VIC 3555",
    "state": "VIC",
    "rating": 4.8,
    "reviews": 259,
    "lat": -36.7896502,
    "lng": 144.2512329,
    "place_id": "ChIJ5XM1Ihpc12oRUVZv2F8xgsU",
    "maps_url": "https://www.google.com/maps/place/?q=place_id:ChIJ5XM1Ihpc12oRUVZv2F8xgsU"
  },
  {
    "name": "Rowe Plumbing Co",
    "address": "View St, Bendigo VIC 3550, Australia",
    "suburb": "Bendigo VIC 3550",
    "state": "VIC",
    "rating": 4.6,
    "reviews": 30,
    "lat": -36.7569715,
    "lng": 144.27559,
    "place_id": "ChIJ_QN0-sRZ12oRSnTMNrWfod0",
    "maps_url": "https://www.google.com/maps/place/?q=place_id:ChIJ_QN0-sRZ12oRSnTMNrWfod0"
  },
  {
    "name": "BLJ Plumbing Bendigo",
    "address": "Unit 4/10 Matchett Dr, East Bendigo VIC 3550, Australia",
    "suburb": "East Bendigo VIC 3550",
    "state": "VIC",
    "rating": 5,
    "reviews": 3,
    "lat": -36.7525773,
    "lng": 144.3189742,
    "place_id": "ChIJ_zhF5V5Z12oRSB8eBkvcvkg",
    "maps_url": "https://www.google.com/maps/place/?q=place_id:ChIJ_zhF5V5Z12oRSB8eBkvcvkg"
  },
  {
    "name": "O'Brien Electrical & Air Conditioning Bendigo",
    "address": "18 Mcdowalls Rd, East Bendigo VIC 3550, Australia",
    "suburb": "East Bendigo VIC 3550",
    "state": "VIC",
    "rating": 4.8,
    "reviews": 252,
    "lat": -36.7481561,
    "lng": 144.3167022,
    "place_id": "ChIJG-3uluFY12oR8vNvWioDvhE",
    "maps_url": "https://www.google.com/maps/place/?q=place_id:ChIJG-3uluFY12oR8vNvWioDvhE"
  },
  {
    "name": "Phoenix Plumbing",
    "address": "60 Powells Ave, Bendigo VIC 3550, Australia",
    "suburb": "Bendigo VIC 3550",
    "state": "VIC",
    "rating": 4.3,
    "reviews": 53,
    "lat": -36.7535835,
    "lng": 144.3178881,
    "place_id": "ChIJGQtGtBtZ12oReLV4tDkvJxo",
    "maps_url": "https://www.google.com/maps/place/?q=place_id:ChIJGQtGtBtZ12oReLV4tDkvJxo"
  },
  {
    "name": "PAV Plumbing & Roofing",
    "address": "Bendigo VIC 3550, Australia",
    "suburb": "Australia",
    "state": "VIC",
    "rating": 5,
    "reviews": 2,
    "lat": -36.75961960000001,
    "lng": 144.2785764,
    "place_id": "ChIJAT5mOeZX12oRpWR1U7x7Ih8",
    "maps_url": "https://www.google.com/maps/place/?q=place_id:ChIJAT5mOeZX12oRpWR1U7x7Ih8"
  },
  {
    "name": "Spiteri Plumbing",
    "address": "33 Bakewell St, Bendigo VIC 3550, Australia",
    "suburb": "Bendigo VIC 3550",
    "state": "VIC",
    "rating": 5,
    "reviews": 5,
    "lat": -36.7428064,
    "lng": 144.2860583,
    "place_id": "ChIJKRbKvOxZ12oR1Ng-Zo2Igao",
    "maps_url": "https://www.google.com/maps/place/?q=place_id:ChIJKRbKvOxZ12oR1Ng-Zo2Igao"
  },
  {
    "name": "DLO Plumbing",
    "address": "1/1 Whip Ct, Bendigo VIC 3550, Australia",
    "suburb": "Bendigo VIC 3550",
    "state": "VIC",
    "rating": 5,
    "reviews": 4,
    "lat": -36.7412812,
    "lng": 144.2632242,
    "place_id": "ChIJP9cga9lZ12oROdrfcFVIOXs",
    "maps_url": "https://www.google.com/maps/place/?q=place_id:ChIJP9cga9lZ12oROdrfcFVIOXs"
  },
  {
    "name": "2D Plumbing & Gas",
    "address": "100 Strickland Rd, East Bendigo VIC 3550, Australia",
    "suburb": "East Bendigo VIC 3550",
    "state": "VIC",
    "rating": 5,
    "reviews": 2,
    "lat": -36.7468604,
    "lng": 144.3075859,
    "place_id": "ChIJx6TQbgFZ12oRY-LpsezE0MM",
    "maps_url": "https://www.google.com/maps/place/?q=place_id:ChIJx6TQbgFZ12oRY-LpsezE0MM"
  },
  {
    "name": "Bendigo Plumbing",
    "address": "Office 2 Unit 4/39A Thunder St, Bendigo VIC 3550, Australia",
    "suburb": "Bendigo VIC 3550",
    "state": "VIC",
    "rating": null,
    "reviews": 0,
    "lat": -36.743569,
    "lng": 144.2882579,
    "place_id": "ChIJy9Plj_VZ12oRX0flMjTKgdA",
    "maps_url": "https://www.google.com/maps/place/?q=place_id:ChIJy9Plj_VZ12oRX0flMjTKgdA"
  },
  {
    "name": "Brisbane Plumbing and Drainage",
    "address": "Unit 9-11/23 Breene Pl, Morningside QLD 4170, Australia",
    "suburb": "Morningside QLD 4170",
    "state": "QLD",
    "rating": 4.8,
    "reviews": 3474,
    "lat": -27.4583857,
    "lng": 153.0833241,
    "place_id": "ChIJmbdDO0tnkWsRoxGWBcHuKLM",
    "maps_url": "https://www.google.com/maps/place/?q=place_id:ChIJmbdDO0tnkWsRoxGWBcHuKLM"
  },
  {
    "name": "A Grade Plumbing and Gas - Plumber Brisbane",
    "address": "8/6 Goodman Pl, Murarrie QLD 4172, Australia",
    "suburb": "Murarrie QLD 4172",
    "state": "QLD",
    "rating": 4.9,
    "reviews": 2688,
    "lat": -27.4633427,
    "lng": 153.1086258,
    "place_id": "ChIJudbuu8lDkWsRYzCLvAdjyVw",
    "maps_url": "https://www.google.com/maps/place/?q=place_id:ChIJudbuu8lDkWsRYzCLvAdjyVw"
  },
  {
    "name": "Mitchell Plumbing & Gas",
    "address": "2/45 Thorn St, Kangaroo Point QLD 4169, Australia",
    "suburb": "Kangaroo Point QLD 4169",
    "state": "QLD",
    "rating": 4.9,
    "reviews": 600,
    "lat": -27.4768052,
    "lng": 153.040024,
    "place_id": "ChIJfVI5VwRQkWsRnqt8OMKa3W4",
    "maps_url": "https://www.google.com/maps/place/?q=place_id:ChIJfVI5VwRQkWsRnqt8OMKa3W4"
  },
  {
    "name": "S&J Plumbing and Gasfitting Brisbane Northside",
    "address": "Unit 2/50 Parker Ct, Pinkenba QLD 4008, Australia",
    "suburb": "Pinkenba QLD 4008",
    "state": "QLD",
    "rating": 4.9,
    "reviews": 903,
    "lat": -27.4347295,
    "lng": 153.1093529,
    "place_id": "ChIJm3-yTyjjk2sRlwTIc1Y3eCc",
    "maps_url": "https://www.google.com/maps/place/?q=place_id:ChIJm3-yTyjjk2sRlwTIc1Y3eCc"
  },
  {
    "name": "The Plumbing Gang",
    "address": "Unit 47/36 Benhiam St, Calamvale QLD 4116, Australia",
    "suburb": "Calamvale QLD 4116",
    "state": "QLD",
    "rating": 4.8,
    "reviews": 1317,
    "lat": -27.6169158,
    "lng": 153.0484344,
    "place_id": "ChIJ6Z9D48NFkWsRD3U4rWv8DzU",
    "maps_url": "https://www.google.com/maps/place/?q=place_id:ChIJ6Z9D48NFkWsRD3U4rWv8DzU"
  },
  {
    "name": "Brisbane Plumbing Services Pty Ltd",
    "address": "28 Austin St, Newstead QLD 4006, Australia",
    "suburb": "Newstead QLD 4006",
    "state": "QLD",
    "rating": 4.9,
    "reviews": 111,
    "lat": -27.4458251,
    "lng": 153.0446894,
    "place_id": "ChIJo_KRtzxZkWsRAlMtj1zp0MA",
    "maps_url": "https://www.google.com/maps/place/?q=place_id:ChIJo_KRtzxZkWsRAlMtj1zp0MA"
  },
  {
    "name": "Aptus Plumbing & Gas",
    "address": "Unit 8/40 Leonard Cres, Brendale QLD 4500, Australia",
    "suburb": "Brendale QLD 4500",
    "state": "QLD",
    "rating": 4.9,
    "reviews": 826,
    "lat": -27.3134947,
    "lng": 152.9840641,
    "place_id": "ChIJ56iRq-D8k2sRkp2KO_vknk8",
    "maps_url": "https://www.google.com/maps/place/?q=place_id:ChIJ56iRq-D8k2sRkp2KO_vknk8"
  },
  {
    "name": "Clearline Plumbing Services | Plumber Brisbane",
    "address": "222 Margaret St, Brisbane City QLD 4000, Australia",
    "suburb": "Brisbane City QLD 4000",
    "state": "QLD",
    "rating": 5,
    "reviews": 50,
    "lat": -27.4718535,
    "lng": 153.0288312,
    "place_id": "ChIJuUpkr05XkWsRPzIAYObrS88",
    "maps_url": "https://www.google.com/maps/place/?q=place_id:ChIJuUpkr05XkWsRPzIAYObrS88"
  },
  {
    "name": "AMD PLUMBING & GAS",
    "address": "47 Archibald St, Fairfield QLD 4103, Australia",
    "suburb": "Fairfield QLD 4103",
    "state": "QLD",
    "rating": 5,
    "reviews": 517,
    "lat": -27.5119034,
    "lng": 153.0211257,
    "place_id": "ChIJPZeCKzBbkWsRBUplI3QM8Uw",
    "maps_url": "https://www.google.com/maps/place/?q=place_id:ChIJPZeCKzBbkWsRBUplI3QM8Uw"
  },
  {
    "name": "AC Plumbing Qld",
    "address": "Unit 9, 9/133 S Pine Rd, Brendale QLD 4500, Australia",
    "suburb": "9/133 S Pine Rd",
    "state": "QLD",
    "rating": 4.8,
    "reviews": 889,
    "lat": -27.3238645,
    "lng": 152.9848206,
    "place_id": "ChIJ27uqdaP8k2sRjl_OoTvhP18",
    "maps_url": "https://www.google.com/maps/place/?q=place_id:ChIJ27uqdaP8k2sRjl_OoTvhP18"
  },
  {
    "name": "Brisbane Taps Toilets and Drains",
    "address": "77/20 Donkin St, West End QLD 4101, Australia",
    "suburb": "West End QLD 4101",
    "state": "QLD",
    "rating": 5,
    "reviews": 177,
    "lat": -27.476111,
    "lng": 153.0075301,
    "place_id": "ChIJK8r5HhZRkWsRoq4FXRoqO9M",
    "maps_url": "https://www.google.com/maps/place/?q=place_id:ChIJK8r5HhZRkWsRoq4FXRoqO9M"
  },
  {
    "name": "K-Oz Plumbing & Gas",
    "address": "Shop 3/74 Secam St, Mansfield QLD 4122, Australia",
    "suburb": "Mansfield QLD 4122",
    "state": "QLD",
    "rating": 4.9,
    "reviews": 283,
    "lat": -27.5281129,
    "lng": 153.0986235,
    "place_id": "ChIJYW7OqOtbkWsRd5ijD9fCigs",
    "maps_url": "https://www.google.com/maps/place/?q=place_id:ChIJYW7OqOtbkWsRd5ijD9fCigs"
  },
  {
    "name": "Jim's Plumbing Chermside",
    "address": "Unit 3301/43 Herschel St, Brisbane City QLD 4000, Australia",
    "suburb": "Brisbane City QLD 4000",
    "state": "QLD",
    "rating": 4.9,
    "reviews": 75,
    "lat": -27.4677182,
    "lng": 153.0194016,
    "place_id": "ChIJkXkaGuVYy6gRE616NsGLryg",
    "maps_url": "https://www.google.com/maps/place/?q=place_id:ChIJkXkaGuVYy6gRE616NsGLryg"
  },
  {
    "name": "L&W Plumbing Solutions",
    "address": "83 Bridgewater St, Morningside QLD 4170, Australia",
    "suburb": "Morningside QLD 4170",
    "state": "QLD",
    "rating": 4.9,
    "reviews": 144,
    "lat": -27.4712637,
    "lng": 153.0766511,
    "place_id": "ChIJ34mQ2FBZkWsRz8BBdivVE00",
    "maps_url": "https://www.google.com/maps/place/?q=place_id:ChIJ34mQ2FBZkWsRz8BBdivVE00"
  },
  {
    "name": "Hop To It Plumbing",
    "address": "45 Oxley Dr, Holland Park QLD 4121, Australia",
    "suburb": "Holland Park QLD 4121",
    "state": "QLD",
    "rating": 5,
    "reviews": 141,
    "lat": -27.5121269,
    "lng": 153.0621556,
    "place_id": "ChIJQSPi8qyHk2sR6qXWv3t3oKc",
    "maps_url": "https://www.google.com/maps/place/?q=place_id:ChIJQSPi8qyHk2sR6qXWv3t3oKc"
  },
  {
    "name": "All Fix Plumbing Brisbane Plumber",
    "address": "24 Nemira St, Carseldine QLD 4034, Australia",
    "suburb": "Carseldine QLD 4034",
    "state": "QLD",
    "rating": 4.7,
    "reviews": 198,
    "lat": -27.3575722,
    "lng": 153.0086351,
    "place_id": "ChIJzbKVrk79k2sR6DEtQpZMJt8",
    "maps_url": "https://www.google.com/maps/place/?q=place_id:ChIJzbKVrk79k2sR6DEtQpZMJt8"
  },
  {
    "name": "Richmond Plumbing and Drainage - Brisbane Plumbers",
    "address": "Unit 1/24 Redcliffe Gardens Dr, Clontarf QLD 4019, Australia",
    "suburb": "Clontarf QLD 4019",
    "state": "QLD",
    "rating": 5,
    "reviews": 185,
    "lat": -27.2366766,
    "lng": 153.0793193,
    "place_id": "ChIJsd66WdDlk2sRg3J6qrJuzR8",
    "maps_url": "https://www.google.com/maps/place/?q=place_id:ChIJsd66WdDlk2sRg3J6qrJuzR8"
  },
  {
    "name": "Brisbane Flow Plumbing | Emergency Plumber",
    "address": "33 Remora Rd, Hamilton QLD 4007, Australia",
    "suburb": "Hamilton QLD 4007",
    "state": "QLD",
    "rating": 4.9,
    "reviews": 46,
    "lat": -27.4397369,
    "lng": 153.0713895,
    "place_id": "ChIJqUq4p2VZkWsRsYmo_XGtjvc",
    "maps_url": "https://www.google.com/maps/place/?q=place_id:ChIJqUq4p2VZkWsRsYmo_XGtjvc"
  },
  {
    "name": "Gold Coast Plumbing Experts",
    "address": "Unit 8/515 Olsen Ave, Southport QLD 4215, Australia",
    "suburb": "Southport QLD 4215",
    "state": "QLD",
    "rating": 4.9,
    "reviews": 1499,
    "lat": -27.9755249,
    "lng": 153.3809406,
    "place_id": "ChIJxRdFjwEOkWsR17AyFKwBroU",
    "maps_url": "https://www.google.com/maps/place/?q=place_id:ChIJxRdFjwEOkWsR17AyFKwBroU"
  },
  {
    "name": "The Plumbing Doctor",
    "address": "3-4/68 Kortum Dr, Burleigh Heads QLD 4220, Australia",
    "suburb": "Burleigh Heads QLD 4220",
    "state": "QLD",
    "rating": 5,
    "reviews": 988,
    "lat": -28.1023906,
    "lng": 153.4331864,
    "place_id": "ChIJvYfZsBsDkWsR1WDfHKGp3Pg",
    "maps_url": "https://www.google.com/maps/place/?q=place_id:ChIJvYfZsBsDkWsR1WDfHKGp3Pg"
  },
  {
    "name": "DCM Plumbing & Drainage Pty Ltd",
    "address": "Unit 3/24-30 Dover Dr, Burleigh Heads QLD 4220, Australia",
    "suburb": "Burleigh Heads QLD 4220",
    "state": "QLD",
    "rating": 4.9,
    "reviews": 1665,
    "lat": -28.1048701,
    "lng": 153.4269878,
    "place_id": "ChIJbfSIeRADkWsRf9VbKan9ptM",
    "maps_url": "https://www.google.com/maps/place/?q=place_id:ChIJbfSIeRADkWsRf9VbKan9ptM"
  },
  {
    "name": "QLD Coastal Plumbing",
    "address": "4/14 Rothcote Ct, Burleigh Heads QLD 4220, Australia",
    "suburb": "Burleigh Heads QLD 4220",
    "state": "QLD",
    "rating": 4.9,
    "reviews": 312,
    "lat": -28.1022326,
    "lng": 153.4187664,
    "place_id": "ChIJc9ed_RgDkWsRHillcSU7J4k",
    "maps_url": "https://www.google.com/maps/place/?q=place_id:ChIJc9ed_RgDkWsRHillcSU7J4k"
  },
  {
    "name": "Jetset Plumbing",
    "address": "14/475 Scottsdale Dr, Varsity Lakes QLD 4227, Australia",
    "suburb": "Varsity Lakes QLD 4227",
    "state": "QLD",
    "rating": 4.8,
    "reviews": 4835,
    "lat": -28.0997821,
    "lng": 153.4045123,
    "place_id": "ChIJ_eqHfrAckWsRun_gKeQDUHA",
    "maps_url": "https://www.google.com/maps/place/?q=place_id:ChIJ_eqHfrAckWsRun_gKeQDUHA"
  },
  {
    "name": "Capital Plumbing",
    "address": "Unit 1/46 Smith St, Southport QLD 4215, Australia",
    "suburb": "Southport QLD 4215",
    "state": "QLD",
    "rating": 4.7,
    "reviews": 759,
    "lat": -27.9635943,
    "lng": 153.4050126,
    "place_id": "ChIJ0XJSgt0PkWsRKMHBZgNT-i4",
    "maps_url": "https://www.google.com/maps/place/?q=place_id:ChIJ0XJSgt0PkWsRKMHBZgNT-i4"
  },
  {
    "name": "Coastal Plumbing Professionals",
    "address": "16/9 Greg Chappell Dr, Burleigh Heads QLD 4220, Australia",
    "suburb": "Burleigh Heads QLD 4220",
    "state": "QLD",
    "rating": 5,
    "reviews": 198,
    "lat": -28.1049605,
    "lng": 153.4126647,
    "place_id": "ChIJQ43qp74DkWsRKxPKQPqnuUs",
    "maps_url": "https://www.google.com/maps/place/?q=place_id:ChIJQ43qp74DkWsRKxPKQPqnuUs"
  },
  {
    "name": "Local Plumbing & Gas Company",
    "address": "BOX 410/30 Bay St, Southport QLD 4215, Australia",
    "suburb": "Southport QLD 4215",
    "state": "QLD",
    "rating": 5,
    "reviews": 120,
    "lat": -27.9681261,
    "lng": 153.4104312,
    "place_id": "ChIJzaOUoY4ZP4kRAfO2DmQfhZM",
    "maps_url": "https://www.google.com/maps/place/?q=place_id:ChIJzaOUoY4ZP4kRAfO2DmQfhZM"
  },
  {
    "name": "Service Today Plumber Gold Coast",
    "address": "22 Columbine Way, Gaven QLD 4211, Australia",
    "suburb": "Gaven QLD 4211",
    "state": "QLD",
    "rating": 4.9,
    "reviews": 222,
    "lat": -27.9571824,
    "lng": 153.3379813,
    "place_id": "ChIJqdriPdLrykQRobvlCxau-hE",
    "maps_url": "https://www.google.com/maps/place/?q=place_id:ChIJqdriPdLrykQRobvlCxau-hE"
  },
  {
    "name": "Cooly Plumbing | Gold Coast | Tweed Plumber",
    "address": "46 McLean St, Coolangatta QLD 4225, Australia",
    "suburb": "Coolangatta QLD 4225",
    "state": "QLD",
    "rating": 5,
    "reviews": 231,
    "lat": -28.1695487,
    "lng": 153.5355,
    "place_id": "ChIJ3R_HdJYBkWsRCQqsaXZkqr8",
    "maps_url": "https://www.google.com/maps/place/?q=place_id:ChIJ3R_HdJYBkWsRCQqsaXZkqr8"
  },
  {
    "name": "Gold Coast Plumbing Company",
    "address": "32 Sandalwood Terrace, Nerang QLD 4211, Australia",
    "suburb": "Nerang QLD 4211",
    "state": "QLD",
    "rating": 4.7,
    "reviews": 1052,
    "lat": -28.0069946,
    "lng": 153.3224883,
    "place_id": "ChIJfRhnFX0ZkWsR6gekYohu-gQ",
    "maps_url": "https://www.google.com/maps/place/?q=place_id:ChIJfRhnFX0ZkWsR6gekYohu-gQ"
  },
  {
    "name": "Reactive Plumbing & Drains",
    "address": "Unit 7/90 Kortum Dr, Burleigh Heads QLD 4220, Australia",
    "suburb": "Burleigh Heads QLD 4220",
    "state": "QLD",
    "rating": 4.8,
    "reviews": 937,
    "lat": -28.1026875,
    "lng": 153.4295951,
    "place_id": "ChIJOX8jLl8DkWsRQ5pEOUmpd48",
    "maps_url": "https://www.google.com/maps/place/?q=place_id:ChIJOX8jLl8DkWsRQ5pEOUmpd48"
  },
  {
    "name": "Complete Plumbing Qld",
    "address": "Shed 10/54 Bundall Rd, Bundall QLD 4217, Australia",
    "suburb": "Bundall QLD 4217",
    "state": "QLD",
    "rating": 4.9,
    "reviews": 132,
    "lat": -28.0094644,
    "lng": 153.4119152,
    "place_id": "ChIJawPKSyMFkWsRKWIGimB_csQ",
    "maps_url": "https://www.google.com/maps/place/?q=place_id:ChIJawPKSyMFkWsRKWIGimB_csQ"
  },
  {
    "name": "Bond Plumbing",
    "address": "Office 11/10 Technology Dr, Arundel QLD 4214, Australia",
    "suburb": "Arundel QLD 4214",
    "state": "QLD",
    "rating": 4.8,
    "reviews": 319,
    "lat": -27.9314766,
    "lng": 153.3709805,
    "place_id": "ChIJWxBbkQMRkWsRuD1E14mzgXk",
    "maps_url": "https://www.google.com/maps/place/?q=place_id:ChIJWxBbkQMRkWsRuD1E14mzgXk"
  },
  {
    "name": "High Tide Plumbing & Gas Gold Coast",
    "address": "27 Niche Glade Cct, Maudsland QLD 4210, Australia",
    "suburb": "Maudsland QLD 4210",
    "state": "QLD",
    "rating": 5,
    "reviews": 213,
    "lat": -27.923481,
    "lng": 153.2924165,
    "place_id": "ChIJIdfoAftsOU8RgeBMUfcHGOk",
    "maps_url": "https://www.google.com/maps/place/?q=place_id:ChIJIdfoAftsOU8RgeBMUfcHGOk"
  },
  {
    "name": "EVR Plumbing - Plumber Gold Coast & Surrounds",
    "address": "9 Monza Dr, Oxenford QLD 4210, Australia",
    "suburb": "Oxenford QLD 4210",
    "state": "QLD",
    "rating": 4.9,
    "reviews": 112,
    "lat": -27.9173093,
    "lng": 153.2919118,
    "place_id": "ChIJk_hYULArYA0RwyTR28tSwTk",
    "maps_url": "https://www.google.com/maps/place/?q=place_id:ChIJk_hYULArYA0RwyTR28tSwTk"
  },
  {
    "name": "Shark Plumbing Pty Ltd",
    "address": "2 Eighth Ave, Palm Beach QLD 4221, Australia",
    "suburb": "Palm Beach QLD 4221",
    "state": "QLD",
    "rating": 4.9,
    "reviews": 1169,
    "lat": -28.1189323,
    "lng": 153.4703679,
    "place_id": "ChIJo0bN3mMDkWsRKghxRna1PPk",
    "maps_url": "https://www.google.com/maps/place/?q=place_id:ChIJo0bN3mMDkWsRKghxRna1PPk"
  },
  {
    "name": "Charlie The Plumber",
    "address": "Servicing the Gold Coast for 40 Years, 2/11 Hinde St, Ashmore QLD 4214, Australia",
    "suburb": "2/11 Hinde St",
    "state": "QLD",
    "rating": 4.6,
    "reviews": 167,
    "lat": -27.978921,
    "lng": 153.387327,
    "place_id": "ChIJReAqW6obkWsRc6OTXMwWc2o",
    "maps_url": "https://www.google.com/maps/place/?q=place_id:ChIJReAqW6obkWsRc6OTXMwWc2o"
  },
  {
    "name": "My Drain Doctor (Flow-On Plumbing Services)",
    "address": "1 Willow St, Biggera Waters QLD 4216, Australia",
    "suburb": "Biggera Waters QLD 4216",
    "state": "QLD",
    "rating": 5,
    "reviews": 154,
    "lat": -27.9317476,
    "lng": 153.3972586,
    "place_id": "ChIJD5cvnchmkWsRZCXKRSxICCQ",
    "maps_url": "https://www.google.com/maps/place/?q=place_id:ChIJD5cvnchmkWsRZCXKRSxICCQ"
  },
  {
    "name": "In Deep Plumbing Gold Coast",
    "address": "2 Wanneroo Ct, Mermaid Waters QLD 4218, Australia",
    "suburb": "Mermaid Waters QLD 4218",
    "state": "QLD",
    "rating": 4.8,
    "reviews": 48,
    "lat": -28.0586891,
    "lng": 153.418699,
    "place_id": "ChIJBZJuA5kEkWsRhH_muRfUglY",
    "maps_url": "https://www.google.com/maps/place/?q=place_id:ChIJBZJuA5kEkWsRhH_muRfUglY"
  },
  {
    "name": "HJ plumbing",
    "address": "4/28- 30 Karome St, Pacific Paradise QLD 4564, Australia",
    "suburb": "Pacific Paradise QLD 4564",
    "state": "QLD",
    "rating": 5,
    "reviews": 152,
    "lat": -26.6188282,
    "lng": 153.0769433,
    "place_id": "ChIJL6muv7Njk2sR2-HmyasM5WU",
    "maps_url": "https://www.google.com/maps/place/?q=place_id:ChIJL6muv7Njk2sR2-HmyasM5WU"
  },
  {
    "name": "Sunshine Coast Plumbing and Hot Water",
    "address": "Unit 2/9 Allen St, Moffat Beach QLD 4551, Australia",
    "suburb": "Moffat Beach QLD 4551",
    "state": "QLD",
    "rating": 4.8,
    "reviews": 478,
    "lat": -26.7919463,
    "lng": 153.1342835,
    "place_id": "ChIJN1dPlfuZk2sROBWzaLDzA6c",
    "maps_url": "https://www.google.com/maps/place/?q=place_id:ChIJN1dPlfuZk2sROBWzaLDzA6c"
  },
  {
    "name": "McArthur Plumbing",
    "address": "8 Deefa St, Caloundra West QLD 4551, Australia",
    "suburb": "Caloundra West QLD 4551",
    "state": "QLD",
    "rating": 4.9,
    "reviews": 207,
    "lat": -26.793716,
    "lng": 153.1104932,
    "place_id": "ChIJ71Gky1eZk2sR30hGUGAKSxw",
    "maps_url": "https://www.google.com/maps/place/?q=place_id:ChIJ71Gky1eZk2sR30hGUGAKSxw"
  },
  {
    "name": "DYFA Plumbing",
    "address": "6/10 Enterprise St, Kunda Park QLD 4556, Australia",
    "suburb": "Kunda Park QLD 4556",
    "state": "QLD",
    "rating": 4.9,
    "reviews": 275,
    "lat": -26.6648976,
    "lng": 153.029962,
    "place_id": "ChIJjYcNozN3k2sRj__dPhv24NA",
    "maps_url": "https://www.google.com/maps/place/?q=place_id:ChIJjYcNozN3k2sRj__dPhv24NA"
  },
  {
    "name": "Platinum Plumbing QLD Group",
    "address": "Unit 1/17 Premier Cct, Warana QLD 4575, Australia",
    "suburb": "Warana QLD 4575",
    "state": "QLD",
    "rating": 4.9,
    "reviews": 172,
    "lat": -26.726664,
    "lng": 153.1182142,
    "place_id": "ChIJnfnSrpGek2sR-HA2hg2JRMw",
    "maps_url": "https://www.google.com/maps/place/?q=place_id:ChIJnfnSrpGek2sR-HA2hg2JRMw"
  },
  {
    "name": "All Sunshine Plumbing",
    "address": "Unit 1/8 Wallum St, Peregian Springs QLD 4573, Australia",
    "suburb": "Peregian Springs QLD 4573",
    "state": "QLD",
    "rating": 5,
    "reviews": 152,
    "lat": -26.507773,
    "lng": 153.069231,
    "place_id": "ChIJy7miT1RBJQ8R9tz00yARiVA",
    "maps_url": "https://www.google.com/maps/place/?q=place_id:ChIJy7miT1RBJQ8R9tz00yARiVA"
  },
  {
    "name": "kLEEN PLUMBING",
    "address": "Shed 4/4 Tectonic Cres, Kunda Park QLD 4556, Australia",
    "suburb": "Kunda Park QLD 4556",
    "state": "QLD",
    "rating": 4.8,
    "reviews": 163,
    "lat": -26.6699468,
    "lng": 153.0319161,
    "place_id": "ChIJ2w7KxmF2k2sR4SC4NmxfaL8",
    "maps_url": "https://www.google.com/maps/place/?q=place_id:ChIJ2w7KxmF2k2sR4SC4NmxfaL8"
  },
  {
    "name": "Sunny Coast Plumbing And Gas",
    "address": "Unit 6/39 Dacmar Rd, Coolum Beach QLD 4573, Australia",
    "suburb": "Coolum Beach QLD 4573",
    "state": "QLD",
    "rating": 5,
    "reviews": 145,
    "lat": -26.5228057,
    "lng": 153.0583892,
    "place_id": "ChIJd1t43wubk2sR7lhFYanO6yE",
    "maps_url": "https://www.google.com/maps/place/?q=place_id:ChIJd1t43wubk2sR7lhFYanO6yE"
  },
  {
    "name": "ND Plumbing Sunshine Coast",
    "address": "23 Koorin Dr, Buddina QLD 4575, Australia",
    "suburb": "Buddina QLD 4575",
    "state": "QLD",
    "rating": 5,
    "reviews": 63,
    "lat": -26.708733,
    "lng": 153.1312129,
    "place_id": "ChIJwVZhI2iek2sRRPopATvc9Ok",
    "maps_url": "https://www.google.com/maps/place/?q=place_id:ChIJwVZhI2iek2sRRPopATvc9Ok"
  },
  {
    "name": "Mario's Plumbing & Drainage",
    "address": "6/7 Kelly Ct, Maroochydore QLD 4556, Australia",
    "suburb": "Maroochydore QLD 4556",
    "state": "QLD",
    "rating": 4.8,
    "reviews": 239,
    "lat": -26.670079,
    "lng": 153.0874902,
    "place_id": "ChIJmwhVlSObk2sRYenv6hJiVxA",
    "maps_url": "https://www.google.com/maps/place/?q=place_id:ChIJmwhVlSObk2sRYenv6hJiVxA"
  },
  {
    "name": "Water Smart Plumbing & Maintenance",
    "address": "29 Sam White Dr, Buderim QLD 4556, Australia",
    "suburb": "Buderim QLD 4556",
    "state": "QLD",
    "rating": 5,
    "reviews": 100,
    "lat": -26.669974,
    "lng": 153.0339543,
    "place_id": "ChIJS-PSR_t3k2sRTO-kAdDQnh8",
    "maps_url": "https://www.google.com/maps/place/?q=place_id:ChIJS-PSR_t3k2sRTO-kAdDQnh8"
  },
  {
    "name": "Ripple Plumbing & Gas - Sunshine Coast Plumber",
    "address": "9 Murdoch Ct, Sippy Downs QLD 4556, Australia",
    "suburb": "Sippy Downs QLD 4556",
    "state": "QLD",
    "rating": 5,
    "reviews": 67,
    "lat": -26.7188234,
    "lng": 153.0568427,
    "place_id": "ChIJb0EhWO1XmkkRBkRahDGurIg",
    "maps_url": "https://www.google.com/maps/place/?q=place_id:ChIJb0EhWO1XmkkRBkRahDGurIg"
  },
  {
    "name": "JLB Plumbing and Leak Detection",
    "address": "2/47 Karome St, Pacific Paradise QLD 4564, Australia",
    "suburb": "Pacific Paradise QLD 4564",
    "state": "QLD",
    "rating": 5,
    "reviews": 43,
    "lat": -26.6157328,
    "lng": 153.0758181,
    "place_id": "ChIJD0R2e8V2k2sRQ_Ay0sWXZMQ",
    "maps_url": "https://www.google.com/maps/place/?q=place_id:ChIJD0R2e8V2k2sRQ_Ay0sWXZMQ"
  },
  {
    "name": "Wurtulla Plumbing & Drainage",
    "address": "4b/4 Lynne St, Caloundra West QLD 4551, Australia",
    "suburb": "Caloundra West QLD 4551",
    "state": "QLD",
    "rating": 4.7,
    "reviews": 244,
    "lat": -26.7933818,
    "lng": 153.110988,
    "place_id": "ChIJIQAyRlaZk2sRKdy4z0bQdzw",
    "maps_url": "https://www.google.com/maps/place/?q=place_id:ChIJIQAyRlaZk2sRKdy4z0bQdzw"
  },
  {
    "name": "CIM Plumbing",
    "address": "113 Sugar Rd, Maroochydore QLD 4572, Australia",
    "suburb": "Maroochydore QLD 4572",
    "state": "QLD",
    "rating": 5,
    "reviews": 50,
    "lat": -26.6697732,
    "lng": 153.0956985,
    "place_id": "ChIJJ6bM8pV3k2sRwwTzd72no3k",
    "maps_url": "https://www.google.com/maps/place/?q=place_id:ChIJJ6bM8pV3k2sRwwTzd72no3k"
  },
  {
    "name": "BCJ Plumbing",
    "address": "Unit 7/38-40 Enterprise St, Kunda Park QLD 4556, Australia",
    "suburb": "Kunda Park QLD 4556",
    "state": "QLD",
    "rating": 4.7,
    "reviews": 86,
    "lat": -26.6672815,
    "lng": 153.0284134,
    "place_id": "ChIJRaP_ku53k2sRTWDytpfrCeM",
    "maps_url": "https://www.google.com/maps/place/?q=place_id:ChIJRaP_ku53k2sRTWDytpfrCeM"
  },
  {
    "name": "Static Plumbing Sunshine Coast",
    "address": "Unit 13/62/72 Empire Cres, Chevallum QLD 4555, Australia",
    "suburb": "Chevallum QLD 4555",
    "state": "QLD",
    "rating": 4.9,
    "reviews": 39,
    "lat": -26.6980034,
    "lng": 153.0048866,
    "place_id": "ChIJ0bUjawODk2sRr44I0fnvpZ4",
    "maps_url": "https://www.google.com/maps/place/?q=place_id:ChIJ0bUjawODk2sRr44I0fnvpZ4"
  },
  {
    "name": "Top to Bottom Plumbing Townsville",
    "address": "1 Corporate Cres, Garbutt QLD 4814, Australia",
    "suburb": "Garbutt QLD 4814",
    "state": "QLD",
    "rating": 4.9,
    "reviews": 752,
    "lat": -19.2669052,
    "lng": 146.779187,
    "place_id": "ChIJ1VLcYL_51WsRhMBG6aB_VZg",
    "maps_url": "https://www.google.com/maps/place/?q=place_id:ChIJ1VLcYL_51WsRhMBG6aB_VZg"
  },
  {
    "name": "1touch Plumbing Townsville",
    "address": "Unit 1/34 Auscan Cres, Garbutt QLD 4818, Australia",
    "suburb": "Garbutt QLD 4818",
    "state": "QLD",
    "rating": 4.9,
    "reviews": 925,
    "lat": -19.2692789,
    "lng": 146.7522966,
    "place_id": "ChIJeWkyPJn51WsR6LdGmsJLQWA",
    "maps_url": "https://www.google.com/maps/place/?q=place_id:ChIJeWkyPJn51WsR6LdGmsJLQWA"
  },
  {
    "name": "Tropical Coast Plumbing Townsville",
    "address": "43 Pilkington St, Garbutt QLD 4814, Australia",
    "suburb": "Garbutt QLD 4814",
    "state": "QLD",
    "rating": 4.8,
    "reviews": 543,
    "lat": -19.2692341,
    "lng": 146.7668062,
    "place_id": "ChIJPQK24tUsNikR_pL_pVtjNSs",
    "maps_url": "https://www.google.com/maps/place/?q=place_id:ChIJPQK24tUsNikR_pL_pVtjNSs"
  },
  {
    "name": "Convenient Plumbing Services",
    "address": "109 Boundary St, Railway Estate QLD 4810, Australia",
    "suburb": "Railway Estate QLD 4810",
    "state": "QLD",
    "rating": 4.9,
    "reviews": 737,
    "lat": -19.2708276,
    "lng": 146.815861,
    "place_id": "ChIJ3UM4fN_51WsRF8d7br3eB8A",
    "maps_url": "https://www.google.com/maps/place/?q=place_id:ChIJ3UM4fN_51WsRF8d7br3eB8A"
  },
  {
    "name": "JMACK Plumbing",
    "address": "14 Silverdale St, Bohle Plains QLD 4817, Australia",
    "suburb": "Bohle Plains QLD 4817",
    "state": "QLD",
    "rating": 5,
    "reviews": 134,
    "lat": -19.3085819,
    "lng": 146.6996239,
    "place_id": "ChIJEar4JLLICKIR_lCzj1UFjTc",
    "maps_url": "https://www.google.com/maps/place/?q=place_id:ChIJEar4JLLICKIR_lCzj1UFjTc"
  },
  {
    "name": "Northern Plumbing",
    "address": "17 Sharp St, Mount Louisa QLD 4814, Australia",
    "suburb": "Mount Louisa QLD 4814",
    "state": "QLD",
    "rating": 5,
    "reviews": 160,
    "lat": -19.2831691,
    "lng": 146.7446112,
    "place_id": "ChIJy4b3wfz51WsRPdDEgfrQedw",
    "maps_url": "https://www.google.com/maps/place/?q=place_id:ChIJy4b3wfz51WsRPdDEgfrQedw"
  },
  {
    "name": "Plumber To Your Door",
    "address": "10 Haynes Rd, Jensen QLD 4818, Australia",
    "suburb": "Jensen QLD 4818",
    "state": "QLD",
    "rating": 4.4,
    "reviews": 89,
    "lat": -19.2540809,
    "lng": 146.6524663,
    "place_id": "ChIJqS7z8_P51WsRarQ4lrOuksk",
    "maps_url": "https://www.google.com/maps/place/?q=place_id:ChIJqS7z8_P51WsRarQ4lrOuksk"
  },
  {
    "name": "C Vella Plumbing",
    "address": "43 Pilkington St, Townsville City QLD 4182, Australia",
    "suburb": "Townsville City QLD 4182",
    "state": "QLD",
    "rating": 4.6,
    "reviews": 64,
    "lat": -19.2692463,
    "lng": 146.7668135,
    "place_id": "ChIJh770p7n51WsRh_qa_pLu6C8",
    "maps_url": "https://www.google.com/maps/place/?q=place_id:ChIJh770p7n51WsRh_qa_pLu6C8"
  },
  {
    "name": "1STOP Plumbing",
    "address": "35 Wangoom Rd, Warrnambool VIC 3280, Australia",
    "suburb": "Warrnambool VIC 3280",
    "state": "QLD",
    "rating": 5,
    "reviews": 41,
    "lat": -38.356694,
    "lng": 142.505618,
    "place_id": "ChIJAcGWHML51WsReRcDgjIkY04",
    "maps_url": "https://www.google.com/maps/place/?q=place_id:ChIJAcGWHML51WsReRcDgjIkY04"
  },
  {
    "name": "All Plumbing NQ",
    "address": "35 Fleming St, Aitkenvale QLD 4814, Australia",
    "suburb": "Aitkenvale QLD 4814",
    "state": "QLD",
    "rating": 4.4,
    "reviews": 9,
    "lat": -19.2932699,
    "lng": 146.7705961,
    "place_id": "ChIJJb6-4N351WsRoRizDxMl9Ug",
    "maps_url": "https://www.google.com/maps/place/?q=place_id:ChIJJb6-4N351WsRoRizDxMl9Ug"
  },
  {
    "name": "Horizon Plumbing NQ",
    "address": "7 Batten Rd, Mount Low QLD 4818, Australia",
    "suburb": "Mount Low QLD 4818",
    "state": "QLD",
    "rating": 4.9,
    "reviews": 69,
    "lat": -19.2375279,
    "lng": 146.6680232,
    "place_id": "ChIJMyu1we731WsRQVRQnc9g4HY",
    "maps_url": "https://www.google.com/maps/place/?q=place_id:ChIJMyu1we731WsRQVRQnc9g4HY"
  },
  {
    "name": "JNF Plumbing Cairns",
    "address": "17 Gardiner Cl, Brinsmead QLD 4870, Australia",
    "suburb": "Brinsmead QLD 4870",
    "state": "QLD",
    "rating": 4.9,
    "reviews": 74,
    "lat": -16.9025689,
    "lng": 145.7123711,
    "place_id": "ChIJaQ5_CAdleGkRqQLWyGTZP7w",
    "maps_url": "https://www.google.com/maps/place/?q=place_id:ChIJaQ5_CAdleGkRqQLWyGTZP7w"
  },
  {
    "name": "Ross Weber Plumbing Pty Ltd",
    "address": "Unit 26/170 Mayers St, Manunda QLD 4870, Australia",
    "suburb": "Manunda QLD 4870",
    "state": "QLD",
    "rating": 4.9,
    "reviews": 583,
    "lat": -16.9140143,
    "lng": 145.7436119,
    "place_id": "ChIJubr9ZHFkeGkR0kyNjWkuGQQ",
    "maps_url": "https://www.google.com/maps/place/?q=place_id:ChIJubr9ZHFkeGkR0kyNjWkuGQQ"
  },
  {
    "name": "DJ Mackie Plumbing Cairns Region",
    "address": "76 Wistaria St, Holloways Beach QLD 4878, Australia",
    "suburb": "Holloways Beach QLD 4878",
    "state": "QLD",
    "rating": 5,
    "reviews": 20,
    "lat": -16.844502,
    "lng": 145.7354001,
    "place_id": "ChIJa742eGpveGkRfGtUeWNK-Ww",
    "maps_url": "https://www.google.com/maps/place/?q=place_id:ChIJa742eGpveGkRfGtUeWNK-Ww"
  },
  {
    "name": "Tropical Coast Plumbing Cairns",
    "address": "19 Muir St, Bungalow QLD 4870, Australia",
    "suburb": "Bungalow QLD 4870",
    "state": "QLD",
    "rating": 4.4,
    "reviews": 7,
    "lat": -16.9398965,
    "lng": 145.754584,
    "place_id": "ChIJsYIaXn1leGkR1kHvO0qrzxw",
    "maps_url": "https://www.google.com/maps/place/?q=place_id:ChIJsYIaXn1leGkR1kHvO0qrzxw"
  },
  {
    "name": "Oakland Plumbing",
    "address": "12 Delaney Cl, Kanimbla QLD 4870, Australia",
    "suburb": "Kanimbla QLD 4870",
    "state": "QLD",
    "rating": 4.9,
    "reviews": 77,
    "lat": -16.9168993,
    "lng": 145.717647,
    "place_id": "ChIJQ2sq70KjKY0R-2zkjcEuHfk",
    "maps_url": "https://www.google.com/maps/place/?q=place_id:ChIJQ2sq70KjKY0R-2zkjcEuHfk"
  },
  {
    "name": "AVS PLUMBING AND GAS PTY LTD",
    "address": "9 Howie Cl, Kewarra Beach QLD 4879, Australia",
    "suburb": "Kewarra Beach QLD 4879",
    "state": "QLD",
    "rating": 4.9,
    "reviews": 47,
    "lat": -16.7886329,
    "lng": 145.6778343,
    "place_id": "ChIJPysUoRJveGkRsYq-CCIJszA",
    "maps_url": "https://www.google.com/maps/place/?q=place_id:ChIJPysUoRJveGkRsYq-CCIJszA"
  },
  {
    "name": "Tomkins Plumbing",
    "address": "205 Aumuller St, Bungalow QLD 4870, Australia",
    "suburb": "Bungalow QLD 4870",
    "state": "QLD",
    "rating": 5,
    "reviews": 60,
    "lat": -16.9312412,
    "lng": 145.7587544,
    "place_id": "ChIJ73ph_VkN4EsRwXydkJlPnhI",
    "maps_url": "https://www.google.com/maps/place/?q=place_id:ChIJ73ph_VkN4EsRwXydkJlPnhI"
  },
  {
    "name": "Coral Sea Plumbing",
    "address": "3/8 Magazine St, Stratford QLD 4870, Australia",
    "suburb": "Stratford QLD 4870",
    "state": "QLD",
    "rating": 4.5,
    "reviews": 79,
    "lat": -16.876066,
    "lng": 145.7421024,
    "place_id": "ChIJu6f0DZNleGkRdpPu9ylOjrM",
    "maps_url": "https://www.google.com/maps/place/?q=place_id:ChIJu6f0DZNleGkRdpPu9ylOjrM"
  },
  {
    "name": "Mackie Plumbing",
    "address": "5/23 Johnston St, Stratford QLD 4870, Australia",
    "suburb": "Stratford QLD 4870",
    "state": "QLD",
    "rating": 4.5,
    "reviews": 45,
    "lat": -16.8747883,
    "lng": 145.7412343,
    "place_id": "ChIJ8UI3dO5leGkRYWKma_a8xXw",
    "maps_url": "https://www.google.com/maps/place/?q=place_id:ChIJ8UI3dO5leGkRYWKma_a8xXw"
  },
  {
    "name": "Acacia Plumbing",
    "address": "34 Hannam St, Cairns QLD 4870, Australia",
    "suburb": "Cairns QLD 4870",
    "state": "QLD",
    "rating": 4.7,
    "reviews": 41,
    "lat": -16.9354077,
    "lng": 145.7573239,
    "place_id": "ChIJvdWf1_tjeGkRgdKj1AKJF-Q",
    "maps_url": "https://www.google.com/maps/place/?q=place_id:ChIJvdWf1_tjeGkRgdKj1AKJF-Q"
  },
  {
    "name": "Chapman Plumbing",
    "address": "13 Emperor St, Kanimbla QLD 4870, Australia",
    "suburb": "Kanimbla QLD 4870",
    "state": "QLD",
    "rating": 5,
    "reviews": 6,
    "lat": -16.92347,
    "lng": 145.7223745,
    "place_id": "ChIJR19gi-5leGkRD8vDHirVvtg",
    "maps_url": "https://www.google.com/maps/place/?q=place_id:ChIJR19gi-5leGkRD8vDHirVvtg"
  },
  {
    "name": "Raymond Plumbing",
    "address": "7 Pease St, Manoora QLD 4870, Australia",
    "suburb": "Manoora QLD 4870",
    "state": "QLD",
    "rating": 4.5,
    "reviews": 50,
    "lat": -16.9219201,
    "lng": 145.7398591,
    "place_id": "ChIJA8bQ6UdleGkREQEWgZA7SL4",
    "maps_url": "https://www.google.com/maps/place/?q=place_id:ChIJA8bQ6UdleGkREQEWgZA7SL4"
  },
  {
    "name": "Cairns Plumbing & Property Maintenance",
    "address": "59 Collinson St, Westcourt QLD 4870, Australia",
    "suburb": "Westcourt QLD 4870",
    "state": "QLD",
    "rating": 4.2,
    "reviews": 9,
    "lat": -16.955782,
    "lng": 145.6898719,
    "place_id": "ChIJOfTbH6lleGkRVMuVTahAPVU",
    "maps_url": "https://www.google.com/maps/place/?q=place_id:ChIJOfTbH6lleGkRVMuVTahAPVU"
  },
  {
    "name": "Plumbnorth- Plumbing Gas Fitting and Sheetmetal",
    "address": "19 Knight St, Portsmith QLD 4870, Australia",
    "suburb": "Portsmith QLD 4870",
    "state": "QLD",
    "rating": 4.8,
    "reviews": 76,
    "lat": -16.940853,
    "lng": 145.7626816,
    "place_id": "ChIJJ1fEuxNueGkRm9Dww5EJrPY",
    "maps_url": "https://www.google.com/maps/place/?q=place_id:ChIJJ1fEuxNueGkRm9Dww5EJrPY"
  },
  {
    "name": "Mr Leak detection and Plumbing",
    "address": "Red Ochre St, Redlynch QLD 4870, Australia",
    "suburb": "Redlynch QLD 4870",
    "state": "QLD",
    "rating": 4.5,
    "reviews": 11,
    "lat": -16.9470429,
    "lng": 145.6932393,
    "place_id": "ChIJvZ3dYZxjeGkRwdxs-RnZ9Bw",
    "maps_url": "https://www.google.com/maps/place/?q=place_id:ChIJvZ3dYZxjeGkRwdxs-RnZ9Bw"
  },
  {
    "name": "Stop Leak Plumbing Cairns",
    "address": "187 Harvey Rd, Redlynch QLD 4870, Australia",
    "suburb": "Redlynch QLD 4870",
    "state": "QLD",
    "rating": 5,
    "reviews": 18,
    "lat": -16.8879576,
    "lng": 145.692802,
    "place_id": "ChIJZYdU-A5leGkRVHQAce4-thc",
    "maps_url": "https://www.google.com/maps/place/?q=place_id:ChIJZYdU-A5leGkRVHQAce4-thc"
  },
  {
    "name": "Python Plumbing",
    "address": "40-42 Mayers St, Manunda QLD 4870, Australia",
    "suburb": "Manunda QLD 4870",
    "state": "QLD",
    "rating": 4.7,
    "reviews": 23,
    "lat": -16.9226262,
    "lng": 145.7424462,
    "place_id": "ChIJdY6yHhlleGkRKeNwHaI94zY",
    "maps_url": "https://www.google.com/maps/place/?q=place_id:ChIJdY6yHhlleGkRKeNwHaI94zY"
  },
  {
    "name": "Cairns Leak Detection",
    "address": "4-6 Plantation Rd, Edmonton QLD 4869, Australia",
    "suburb": "Edmonton QLD 4869",
    "state": "QLD",
    "rating": 4.9,
    "reviews": 114,
    "lat": -17.0322845,
    "lng": 145.7336832,
    "place_id": "ChIJ8WPOqZOJeGkR48_sN68CQe4",
    "maps_url": "https://www.google.com/maps/place/?q=place_id:ChIJ8WPOqZOJeGkR48_sN68CQe4"
  },
  {
    "name": "Plumbdog",
    "address": "59/50 St Georges Terrace, Perth WA 6000, Australia",
    "suburb": "Perth WA 6000",
    "state": "WA",
    "rating": 4.5,
    "reviews": 1245,
    "lat": -31.9550981,
    "lng": 115.8590398,
    "place_id": "ChIJgaK6ENa6MioRQSe7F2CUqGY",
    "maps_url": "https://www.google.com/maps/place/?q=place_id:ChIJgaK6ENa6MioRQSe7F2CUqGY"
  },
  {
    "name": "Tap Doctor Plumbing Perth",
    "address": "44 Kings Park Rd, West Perth WA 6005, Australia",
    "suburb": "West Perth WA 6005",
    "state": "WA",
    "rating": 4.6,
    "reviews": 1823,
    "lat": -31.951277,
    "lng": 115.837102,
    "place_id": "ChIJxxlP4SSlMioRp4T_eFbuRbo",
    "maps_url": "https://www.google.com/maps/place/?q=place_id:ChIJxxlP4SSlMioRp4T_eFbuRbo"
  },
  {
    "name": "Alkimos Plumbing and Gas",
    "address": "3/6 Glenrothes Cres, Yanchep WA 6035, Australia",
    "suburb": "Yanchep WA 6035",
    "state": "WA",
    "rating": 4.9,
    "reviews": 578,
    "lat": -31.5445233,
    "lng": 115.6411996,
    "place_id": "ChIJGVRawSyn0isR8C1IDy4wN0k",
    "maps_url": "https://www.google.com/maps/place/?q=place_id:ChIJGVRawSyn0isR8C1IDy4wN0k"
  },
  {
    "name": "TPR Plumbing & Gas",
    "address": "64B Sorrento St, North Beach WA 6020, Australia",
    "suburb": "North Beach WA 6020",
    "state": "WA",
    "rating": 5,
    "reviews": 348,
    "lat": -31.86008289999999,
    "lng": 115.7583991,
    "place_id": "ChIJkbCC1xivMioRWS9Y0ew-wMM",
    "maps_url": "https://www.google.com/maps/place/?q=place_id:ChIJkbCC1xivMioRWS9Y0ew-wMM"
  },
  {
    "name": "Oceania Plumbing and Gas",
    "address": "Unit 1/27 Caloundra Rd, Clarkson WA 6030, Australia",
    "suburb": "Clarkson WA 6030",
    "state": "WA",
    "rating": 4.9,
    "reviews": 711,
    "lat": -31.6925894,
    "lng": 115.725068,
    "place_id": "ChIJ9yTaJQNVzSsRWXUhva7nuLc",
    "maps_url": "https://www.google.com/maps/place/?q=place_id:ChIJ9yTaJQNVzSsRWXUhva7nuLc"
  },
  {
    "name": "Casotti Plumbers",
    "address": "U3/5 Beneficial Way, Wangara WA 6065, Australia",
    "suburb": "Wangara WA 6065",
    "state": "WA",
    "rating": 4.6,
    "reviews": 551,
    "lat": -31.79738,
    "lng": 115.8377059,
    "place_id": "ChIJ-WmPoJutMioR4jx9FRMlFRo",
    "maps_url": "https://www.google.com/maps/place/?q=place_id:ChIJ-WmPoJutMioR4jx9FRMlFRo"
  },
  {
    "name": "Swan's Professional Plumbing",
    "address": "110 Oats St, Carlisle WA 6101, Australia",
    "suburb": "Carlisle WA 6101",
    "state": "WA",
    "rating": 4.9,
    "reviews": 217,
    "lat": -31.983123,
    "lng": 115.9216068,
    "place_id": "ChIJ0x2CGqR-MioRbcUqOlthAKo",
    "maps_url": "https://www.google.com/maps/place/?q=place_id:ChIJ0x2CGqR-MioRbcUqOlthAKo"
  },
  {
    "name": "A2Z Plumbing Gas And Hotwater",
    "address": "4 Fulton Ln, Currambine WA 6028, Australia",
    "suburb": "Currambine WA 6028",
    "state": "WA",
    "rating": 5,
    "reviews": 109,
    "lat": -31.734926,
    "lng": 115.7378542,
    "place_id": "ChIJwz7NTYxUzSsR9RzKHCsag6w",
    "maps_url": "https://www.google.com/maps/place/?q=place_id:ChIJwz7NTYxUzSsR9RzKHCsag6w"
  },
  {
    "name": "Dorrington Plumbing, Gas & Electrical",
    "address": "34 Jersey St, Jolimont WA 6014, Australia",
    "suburb": "Jolimont WA 6014",
    "state": "WA",
    "rating": 4.8,
    "reviews": 658,
    "lat": -31.9463625,
    "lng": 115.8118574,
    "place_id": "ChIJ698Cj3OlMioRnlUznY71rLE",
    "maps_url": "https://www.google.com/maps/place/?q=place_id:ChIJ698Cj3OlMioRnlUznY71rLE"
  },
  {
    "name": "BG Plumbing & Gas Services Perth",
    "address": "6 Gillon Rd, Noranda WA 6062, Australia",
    "suburb": "Noranda WA 6062",
    "state": "WA",
    "rating": 4.9,
    "reviews": 119,
    "lat": -31.8780494,
    "lng": 115.9102027,
    "place_id": "ChIJaUQWv3GwMioRYAbHSHwDGN4",
    "maps_url": "https://www.google.com/maps/place/?q=place_id:ChIJaUQWv3GwMioRYAbHSHwDGN4"
  },
  {
    "name": "Best Coast Plumbing and Gas",
    "address": "26 Lynn St, Trigg WA 6029, Australia",
    "suburb": "Trigg WA 6029",
    "state": "WA",
    "rating": 4.9,
    "reviews": 359,
    "lat": -31.8687145,
    "lng": 115.7550927,
    "place_id": "ChIJI9ZhNUxVW2wR63J_jcBPxXQ",
    "maps_url": "https://www.google.com/maps/place/?q=place_id:ChIJI9ZhNUxVW2wR63J_jcBPxXQ"
  },
  {
    "name": "Future Plumbing and Gas WA",
    "address": "4 Gilbreth Bend, Tapping WA 6065, Australia",
    "suburb": "Tapping WA 6065",
    "state": "WA",
    "rating": 5,
    "reviews": 61,
    "lat": -31.717803,
    "lng": 115.8027018,
    "place_id": "ChIJra8FkAFTzSsRpmWBpQkSIoY",
    "maps_url": "https://www.google.com/maps/place/?q=place_id:ChIJra8FkAFTzSsRpmWBpQkSIoY"
  },
  {
    "name": "Johnny Blue Plumbing",
    "address": "135 Shakespeare St, Mount Hawthorn WA 6016, Australia",
    "suburb": "Mount Hawthorn WA 6016",
    "state": "WA",
    "rating": 5,
    "reviews": 30,
    "lat": -31.9156612,
    "lng": 115.8419405,
    "place_id": "ChIJLWnJrCJrWaIRfGivUEDfopo",
    "maps_url": "https://www.google.com/maps/place/?q=place_id:ChIJLWnJrCJrWaIRfGivUEDfopo"
  },
  {
    "name": "G.X.R Plumbing",
    "address": "191 St Georges Terrace, Perth WA 6000, Australia",
    "suburb": "Perth WA 6000",
    "state": "WA",
    "rating": 4.9,
    "reviews": 651,
    "lat": -31.9539505,
    "lng": 115.8531876,
    "place_id": "ChIJq4WWB6mVMioR-S9oEWhPI3E",
    "maps_url": "https://www.google.com/maps/place/?q=place_id:ChIJq4WWB6mVMioR-S9oEWhPI3E"
  },
  {
    "name": "Ember Plumbing & Gas",
    "address": "5B Barnett Ct, Morley WA 6062, Australia",
    "suburb": "Morley WA 6062",
    "state": "WA",
    "rating": 4.9,
    "reviews": 369,
    "lat": -31.901982,
    "lng": 115.903264,
    "place_id": "ChIJt01s_deuMioRpMjaxqzQZq0",
    "maps_url": "https://www.google.com/maps/place/?q=place_id:ChIJt01s_deuMioRpMjaxqzQZq0"
  },
  {
    "name": "Tap Tech Plumbing and Gas",
    "address": "35 Westminster St, East Victoria Park WA 6101, Australia",
    "suburb": "East Victoria Park WA 6101",
    "state": "WA",
    "rating": 5,
    "reviews": 110,
    "lat": -31.9883719,
    "lng": 115.9022414,
    "place_id": "ChIJ1Y_PzmnMBIURPE0w_if7vys",
    "maps_url": "https://www.google.com/maps/place/?q=place_id:ChIJ1Y_PzmnMBIURPE0w_if7vys"
  },
  {
    "name": "Plumbing Bros",
    "address": "436 Vincent St W, West Leederville WA 6007, Australia",
    "suburb": "West Leederville WA 6007",
    "state": "WA",
    "rating": 4.5,
    "reviews": 359,
    "lat": -31.9345679,
    "lng": 115.8328133,
    "place_id": "ChIJw203NF-lMioRxYDjJRwEAnI",
    "maps_url": "https://www.google.com/maps/place/?q=place_id:ChIJw203NF-lMioRxYDjJRwEAnI"
  },
  {
    "name": "Fremantle Plumbing Service",
    "address": "107 Garling St, O'Connor WA 6163, Australia",
    "suburb": "O'Connor WA 6163",
    "state": "WA",
    "rating": 4.8,
    "reviews": 84,
    "lat": -32.0571254,
    "lng": 115.7993794,
    "place_id": "ChIJR-4xd1SiMioRhPNEs9PM5Hc",
    "maps_url": "https://www.google.com/maps/place/?q=place_id:ChIJR-4xd1SiMioRhPNEs9PM5Hc"
  },
  {
    "name": "Youngs Plumbing & Gas",
    "address": "8 Stack St, Fremantle WA 6160, Australia",
    "suburb": "Fremantle WA 6160",
    "state": "WA",
    "rating": 4.9,
    "reviews": 269,
    "lat": -32.0555084,
    "lng": 115.7635356,
    "place_id": "ChIJZ-JR1nGhMioRUIAHXByHkAM",
    "maps_url": "https://www.google.com/maps/place/?q=place_id:ChIJZ-JR1nGhMioRUIAHXByHkAM"
  },
  {
    "name": "Urban Hot Water, Plumbing and Gas",
    "address": "15 Petra St, East Fremantle WA 6158, Australia",
    "suburb": "East Fremantle WA 6158",
    "state": "WA",
    "rating": 4.9,
    "reviews": 55,
    "lat": -32.0456975,
    "lng": 115.7758749,
    "place_id": "ChIJ1z2Ye8ajMioR0DLF49ne4Tw",
    "maps_url": "https://www.google.com/maps/place/?q=place_id:ChIJ1z2Ye8ajMioR0DLF49ne4Tw"
  },
  {
    "name": "Pirate Plumbing",
    "address": "72 Forrest St, Fremantle WA 6160, Australia",
    "suburb": "Fremantle WA 6160",
    "state": "WA",
    "rating": 5,
    "reviews": 6,
    "lat": -32.0481466,
    "lng": 115.7667439,
    "place_id": "ChIJjU7J5c-jMioRw4M9nZhajSs",
    "maps_url": "https://www.google.com/maps/place/?q=place_id:ChIJjU7J5c-jMioRw4M9nZhajSs"
  },
  {
    "name": "McMahon Plumbing & Gas",
    "address": "21a Paget St, Hilton WA 6163, Australia",
    "suburb": "Hilton WA 6163",
    "state": "WA",
    "rating": 5,
    "reviews": 221,
    "lat": -32.06581070000001,
    "lng": 115.7806667,
    "place_id": "ChIJNaePN-yjMioR-57dwMLPhMo",
    "maps_url": "https://www.google.com/maps/place/?q=place_id:ChIJNaePN-yjMioR-57dwMLPhMo"
  },
  {
    "name": "Superior Plumbing Drainage & Gas",
    "address": "5/64 McCoy St, Myaree WA 6154, Australia",
    "suburb": "Myaree WA 6154",
    "state": "WA",
    "rating": 4.9,
    "reviews": 142,
    "lat": -32.0433407,
    "lng": 115.8171231,
    "place_id": "ChIJe8IxihqjMioRwWHUJKoIUok",
    "maps_url": "https://www.google.com/maps/place/?q=place_id:ChIJe8IxihqjMioRwWHUJKoIUok"
  },
  {
    "name": "Browns Plumbing",
    "address": "Unit 2/2 Pitt Way, Booragoon WA 6154, Australia",
    "suburb": "Booragoon WA 6154",
    "state": "WA",
    "rating": 4.8,
    "reviews": 243,
    "lat": -32.0426218,
    "lng": 115.8237551,
    "place_id": "ChIJBSxAMJSjMioRTXcWGbkx8KI",
    "maps_url": "https://www.google.com/maps/place/?q=place_id:ChIJBSxAMJSjMioRTXcWGbkx8KI"
  },
  {
    "name": "R & H Plumbing and Gas",
    "address": "Canning Hwy, Bicton WA 6157, Australia",
    "suburb": "Bicton WA 6157",
    "state": "WA",
    "rating": 5,
    "reviews": 30,
    "lat": -32.0397444,
    "lng": 115.7758093,
    "place_id": "ChIJszjc1uyjMioRa6Db30BDuTk",
    "maps_url": "https://www.google.com/maps/place/?q=place_id:ChIJszjc1uyjMioRa6Db30BDuTk"
  },
  {
    "name": "Woolf Plumbing & Gas",
    "address": "5/29 Remisko Dr, Forrestdale WA 6112, Australia",
    "suburb": "Forrestdale WA 6112",
    "state": "WA",
    "rating": 4.9,
    "reviews": 616,
    "lat": -32.1428601,
    "lng": 115.9683615,
    "place_id": "ChIJYWgFR4mWMioRAGQ3R4Pyv4Y",
    "maps_url": "https://www.google.com/maps/place/?q=place_id:ChIJYWgFR4mWMioRAGQ3R4Pyv4Y"
  },
  {
    "name": "Hilton Plumbing",
    "address": "38 Sphinx Way, Bibra Lake WA 6163, Australia",
    "suburb": "Bibra Lake WA 6163",
    "state": "WA",
    "rating": 4.9,
    "reviews": 3943,
    "lat": -32.0990295,
    "lng": 115.8134033,
    "place_id": "ChIJbVAcg0m9MioRSQuAWw0m5vc",
    "maps_url": "https://www.google.com/maps/place/?q=place_id:ChIJbVAcg0m9MioRSQuAWw0m5vc"
  },
  {
    "name": "Tap Doctor Plumbing Booragoon",
    "address": "500 Marmion St, Booragoon WA 6154, Australia",
    "suburb": "Booragoon WA 6154",
    "state": "WA",
    "rating": 4.8,
    "reviews": 603,
    "lat": -32.0394162,
    "lng": 115.8239866,
    "place_id": "ChIJV1WbmBmjMioRDxIfzMCYmlw",
    "maps_url": "https://www.google.com/maps/place/?q=place_id:ChIJV1WbmBmjMioRDxIfzMCYmlw"
  },
  {
    "name": "Maslen plumbing and gas",
    "address": "48B Elvira St, Palmyra WA 6157, Australia",
    "suburb": "Palmyra WA 6157",
    "state": "WA",
    "rating": 5,
    "reviews": 3,
    "lat": -32.0405859,
    "lng": 115.7852438,
    "place_id": "ChIJhX6Z5k6jMioR-xNgLT4D9HU",
    "maps_url": "https://www.google.com/maps/place/?q=place_id:ChIJhX6Z5k6jMioR-xNgLT4D9HU"
  },
  {
    "name": "Lakeside Plumbing & Gas",
    "address": "5/10 Franklin Ln, Joondalup WA 6027, Australia",
    "suburb": "Joondalup WA 6027",
    "state": "WA",
    "rating": 4.9,
    "reviews": 149,
    "lat": -31.7414999,
    "lng": 115.7620454,
    "place_id": "ChIJEbfE6GBTzSsRAihljmG9ySM",
    "maps_url": "https://www.google.com/maps/place/?q=place_id:ChIJEbfE6GBTzSsRAihljmG9ySM"
  },
  {
    "name": "Capricorn Plumbing & Piping Services",
    "address": "16 Arrow Pl, Joondalup WA 6027, Australia",
    "suburb": "Joondalup WA 6027",
    "state": "WA",
    "rating": 4.9,
    "reviews": 62,
    "lat": -31.7219351,
    "lng": 115.766811,
    "place_id": "ChIJIet-9FRRrwERYc_u4EAxNTA",
    "maps_url": "https://www.google.com/maps/place/?q=place_id:ChIJIet-9FRRrwERYc_u4EAxNTA"
  },
  {
    "name": "Pipe Domain",
    "address": "79 Wildflower Dr, Carramar WA 6031, Australia",
    "suburb": "Carramar WA 6031",
    "state": "WA",
    "rating": 5,
    "reviews": 220,
    "lat": -31.699516,
    "lng": 115.7851852,
    "place_id": "ChIJCRZdNdRVzSsRdya3zKeYi64",
    "maps_url": "https://www.google.com/maps/place/?q=place_id:ChIJCRZdNdRVzSsRdya3zKeYi64"
  },
  {
    "name": "ScottCare Plumbing.",
    "address": "22 Tallow Ramble, Edgewater WA 6027, Australia",
    "suburb": "Edgewater WA 6027",
    "state": "WA",
    "rating": 5,
    "reviews": 76,
    "lat": -31.7700825,
    "lng": 115.7871327,
    "place_id": "ChIJYRP_VlOtMioRM5-VXZfCEw0",
    "maps_url": "https://www.google.com/maps/place/?q=place_id:ChIJYRP_VlOtMioRM5-VXZfCEw0"
  },
  {
    "name": "Brightside WA Plumbing and Gas",
    "address": "Mullaloo WA 6027, Australia",
    "suburb": "Australia",
    "state": "WA",
    "rating": 5,
    "reviews": 4,
    "lat": -31.7762769,
    "lng": 115.7431865,
    "place_id": "ChIJZZNBMLSrMioRNAWzop-3PVM",
    "maps_url": "https://www.google.com/maps/place/?q=place_id:ChIJZZNBMLSrMioRNAWzop-3PVM"
  },
  {
    "name": "CRYSTAL PLUMBING & GAS PTY LTD",
    "address": "34 Romano Cres, Iluka WA 6028, Australia",
    "suburb": "Iluka WA 6028",
    "state": "WA",
    "rating": 4.9,
    "reviews": 76,
    "lat": -31.7369154,
    "lng": 115.7273688,
    "place_id": "ChIJq8Y-sw9VzSsRiPSznAotmBQ",
    "maps_url": "https://www.google.com/maps/place/?q=place_id:ChIJq8Y-sw9VzSsRiPSznAotmBQ"
  },
  {
    "name": "Waterloo Plumbing and Gas",
    "address": "18 Fontelina Parade, Iluka WA 6028, Australia",
    "suburb": "Iluka WA 6028",
    "state": "WA",
    "rating": 5,
    "reviews": 22,
    "lat": -31.73073949999999,
    "lng": 115.7257874,
    "place_id": "ChIJDb0aW1VVzSsRncq1_RCF1aU",
    "maps_url": "https://www.google.com/maps/place/?q=place_id:ChIJDb0aW1VVzSsRncq1_RCF1aU"
  },
  {
    "name": "Westplumb",
    "address": "Unit 1/36 Warman St, Neerabup WA 6031, Australia",
    "suburb": "Neerabup WA 6031",
    "state": "WA",
    "rating": 4.9,
    "reviews": 49,
    "lat": -31.68466459999999,
    "lng": 115.7849269,
    "place_id": "ChIJTd2qNrP042cR391tU8zju70",
    "maps_url": "https://www.google.com/maps/place/?q=place_id:ChIJTd2qNrP042cR391tU8zju70"
  },
  {
    "name": "iConnect Plumbing & Gas",
    "address": "Glengoil Cl, Madora Bay WA 6210, Australia",
    "suburb": "Madora Bay WA 6210",
    "state": "WA",
    "rating": 5,
    "reviews": 51,
    "lat": -32.4740234,
    "lng": 115.7553446,
    "place_id": "ChIJAYDh3sVDLIIRdwNp6qBi638",
    "maps_url": "https://www.google.com/maps/place/?q=place_id:ChIJAYDh3sVDLIIRdwNp6qBi638"
  },
  {
    "name": "AJW Plumbing Gas & Air",
    "address": "9 Longmeadow Vista, Meadow Springs WA 6210, Australia",
    "suburb": "Meadow Springs WA 6210",
    "state": "WA",
    "rating": 5,
    "reviews": 179,
    "lat": -32.487384,
    "lng": 115.7631504,
    "place_id": "ChIJqekz6PxdqwERg-G_BbeAJ8k",
    "maps_url": "https://www.google.com/maps/place/?q=place_id:ChIJqekz6PxdqwERg-G_BbeAJ8k"
  },
  {
    "name": "Plumbing Bros Mandurah",
    "address": "Unit 1/42 Reserve Dr, Mandurah WA 6210, Australia",
    "suburb": "Mandurah WA 6210",
    "state": "WA",
    "rating": 4.6,
    "reviews": 112,
    "lat": -32.515744,
    "lng": 115.7426314,
    "place_id": "ChIJYZfmkcR_MioRPCdn-aaZvSw",
    "maps_url": "https://www.google.com/maps/place/?q=place_id:ChIJYZfmkcR_MioRPCdn-aaZvSw"
  },
  {
    "name": "SCG Plumbing and Gas mandurah plumber",
    "address": "Unit 2/12 Tindale St, Mandurah WA 6210, Australia",
    "suburb": "Mandurah WA 6210",
    "state": "WA",
    "rating": 4.7,
    "reviews": 63,
    "lat": -32.5183791,
    "lng": 115.7396227,
    "place_id": "ChIJ_8BMW5mHLSoRIPRkeTamKIw",
    "maps_url": "https://www.google.com/maps/place/?q=place_id:ChIJ_8BMW5mHLSoRIPRkeTamKIw"
  },
  {
    "name": "Whitewater Plumbing Services",
    "address": "37 Cornwallis Rd, Madora Bay WA 6210, Australia",
    "suburb": "Madora Bay WA 6210",
    "state": "WA",
    "rating": 5,
    "reviews": 100,
    "lat": -32.46495590000001,
    "lng": 115.7502849,
    "place_id": "ChIJ07_8Rzp_MioRa8mxwGUH05Y",
    "maps_url": "https://www.google.com/maps/place/?q=place_id:ChIJ07_8Rzp_MioRa8mxwGUH05Y"
  },
  {
    "name": "Wizard Leak Detection Mandurah",
    "address": "7 Adonis Rd, Silver Sands WA 6210, Australia",
    "suburb": "Silver Sands WA 6210",
    "state": "WA",
    "rating": 5,
    "reviews": 112,
    "lat": -32.5172447,
    "lng": 115.7292507,
    "place_id": "ChIJgZGmPQE0lYYRRcsTsH1-boE",
    "maps_url": "https://www.google.com/maps/place/?q=place_id:ChIJgZGmPQE0lYYRRcsTsH1-boE"
  },
  {
    "name": "Tap Doctor Plumbing Mandurah",
    "address": "22 Ormsby Terrace, Mandurah WA 6210, Australia",
    "suburb": "Mandurah WA 6210",
    "state": "WA",
    "rating": 4.3,
    "reviews": 4,
    "lat": -32.5274357,
    "lng": 115.7177015,
    "place_id": "ChIJsbXRILx_MioRwH5JFJUCfkY",
    "maps_url": "https://www.google.com/maps/place/?q=place_id:ChIJsbXRILx_MioRwH5JFJUCfkY"
  },
  {
    "name": "Mandurah Plumbing & Gas Services",
    "address": "15 Creon Way, Silver Sands WA 6210, Australia",
    "suburb": "Silver Sands WA 6210",
    "state": "WA",
    "rating": 4.9,
    "reviews": 99,
    "lat": -32.5117928,
    "lng": 115.7335497,
    "place_id": "ChIJSX7lXpl_MioRpB42iy964qo",
    "maps_url": "https://www.google.com/maps/place/?q=place_id:ChIJSX7lXpl_MioRpB42iy964qo"
  },
  {
    "name": "Watson Services",
    "address": "By Appointment Only, 83 Anstruther Rd, Mandurah WA 6210, Australia",
    "suburb": "83 Anstruther Rd",
    "state": "WA",
    "rating": 4.9,
    "reviews": 176,
    "lat": -32.5248604,
    "lng": 115.73281,
    "place_id": "ChIJT10cEDZ5MioRmVai7WWPEHc",
    "maps_url": "https://www.google.com/maps/place/?q=place_id:ChIJT10cEDZ5MioRmVai7WWPEHc"
  },
  {
    "name": "Total Plumbing WA",
    "address": "15 Murdoch Dr, Singleton WA 6175, Australia",
    "suburb": "Singleton WA 6175",
    "state": "WA",
    "rating": 5,
    "reviews": 62,
    "lat": -32.4496887,
    "lng": 115.7521951,
    "place_id": "ChIJNyb6UgF-MioRA37QLfrIIcY",
    "maps_url": "https://www.google.com/maps/place/?q=place_id:ChIJNyb6UgF-MioRA37QLfrIIcY"
  },
  {
    "name": "SDJ Plumbing and Gas Pty Ltd",
    "address": "2/17 Rafferty Rd, Mandurah WA 6210, Australia",
    "suburb": "Mandurah WA 6210",
    "state": "WA",
    "rating": 4.7,
    "reviews": 63,
    "lat": -32.5487794,
    "lng": 115.7752196,
    "place_id": "ChIJs1xFRqV-MioRO5knuMToz-k",
    "maps_url": "https://www.google.com/maps/place/?q=place_id:ChIJs1xFRqV-MioRO5knuMToz-k"
  },
  {
    "name": "BMC Plumbing & Gas Peel",
    "address": "22 Ormsby Terrace, Mandurah WA 6210, Australia",
    "suburb": "Mandurah WA 6210",
    "state": "WA",
    "rating": 5,
    "reviews": 23,
    "lat": -32.5274357,
    "lng": 115.7177015,
    "place_id": "ChIJDastYeqdzg4RUkduk1_r9aY",
    "maps_url": "https://www.google.com/maps/place/?q=place_id:ChIJDastYeqdzg4RUkduk1_r9aY"
  },
  {
    "name": "iPlumb WA",
    "address": "33 Gibla St, Mandurah WA 6210, Australia",
    "suburb": "Mandurah WA 6210",
    "state": "WA",
    "rating": 4.3,
    "reviews": 23,
    "lat": -32.516909,
    "lng": 115.7380055,
    "place_id": "ChIJhSrxCjuBMioROdm98kpOBfk",
    "maps_url": "https://www.google.com/maps/place/?q=place_id:ChIJhSrxCjuBMioROdm98kpOBfk"
  },
  {
    "name": "Aquasonic Plumbing and Gas",
    "address": "330 Mandurah Rd, Mandurah WA 6210, Australia",
    "suburb": "Mandurah WA 6210",
    "state": "WA",
    "rating": 5,
    "reviews": 44,
    "lat": -32.5359945,
    "lng": 115.7450713,
    "place_id": "ChIJ7WYNRgR5MioRfES9PFliJhQ",
    "maps_url": "https://www.google.com/maps/place/?q=place_id:ChIJ7WYNRgR5MioRfES9PFliJhQ"
  },
  {
    "name": "QA Plumbing",
    "address": "8 Rafferty Rd, Mandurah WA 6210, Australia",
    "suburb": "Mandurah WA 6210",
    "state": "WA",
    "rating": 4.2,
    "reviews": 35,
    "lat": -32.5173386,
    "lng": 115.7450738,
    "place_id": "ChIJ7WExKLt-MioRtrmAVXXNDZ8",
    "maps_url": "https://www.google.com/maps/place/?q=place_id:ChIJ7WExKLt-MioRtrmAVXXNDZ8"
  },
  {
    "name": "Mainline Plumbing",
    "address": "144 Forrest Ave, Bunbury WA 6230, Australia",
    "suburb": "Bunbury WA 6230",
    "state": "WA",
    "rating": 4.8,
    "reviews": 348,
    "lat": -33.3454913,
    "lng": 115.6570429,
    "place_id": "ChIJuRGOzH4dLioRCyKKODT2LFE",
    "maps_url": "https://www.google.com/maps/place/?q=place_id:ChIJuRGOzH4dLioRCyKKODT2LFE"
  },
  {
    "name": "Gilmour Plumbing",
    "address": "2 Poat St, Picton WA 6229, Australia",
    "suburb": "Picton WA 6229",
    "state": "WA",
    "rating": 4.8,
    "reviews": 284,
    "lat": -33.351562,
    "lng": 115.687767,
    "place_id": "ChIJe9VVi_rjMSoR6-4vAqTnnak",
    "maps_url": "https://www.google.com/maps/place/?q=place_id:ChIJe9VVi_rjMSoR6-4vAqTnnak"
  },
  {
    "name": "Bunbury Plumbing Services",
    "address": "13 Craigie St, Davenport WA 6230, Australia",
    "suburb": "Davenport WA 6230",
    "state": "WA",
    "rating": 4.6,
    "reviews": 49,
    "lat": -33.3529415,
    "lng": 115.6695018,
    "place_id": "ChIJ7xBHCXDiMSoR6FRzZHKjL58",
    "maps_url": "https://www.google.com/maps/place/?q=place_id:ChIJ7xBHCXDiMSoR6FRzZHKjL58"
  },
  {
    "name": "Plumbers & Gasfitters Bunbury",
    "address": "22 Strickland St, Bunbury WA 6230, Australia",
    "suburb": "Bunbury WA 6230",
    "state": "WA",
    "rating": 4.3,
    "reviews": 24,
    "lat": -33.3361089,
    "lng": 115.6436616,
    "place_id": "ChIJmy2HTOwdLioRBc9DfXQJe8Y",
    "maps_url": "https://www.google.com/maps/place/?q=place_id:ChIJmy2HTOwdLioRBc9DfXQJe8Y"
  },
  {
    "name": "Plumbers & Gasfitters Davenport",
    "address": "Unit 1/2 Shanahan Rd, Davenport WA 6230, Australia",
    "suburb": "Davenport WA 6230",
    "state": "WA",
    "rating": 4.8,
    "reviews": 28,
    "lat": -33.3637516,
    "lng": 115.6707095,
    "place_id": "ChIJ-bRIifL8MSoReUIxwkCKX_g",
    "maps_url": "https://www.google.com/maps/place/?q=place_id:ChIJ-bRIifL8MSoReUIxwkCKX_g"
  },