[
  {
    "name": "Lamrock Cafe Bondi Beach",
    "address": "shop 1/72 Campbell Parade, Bondi Beach",
    "suburb": "Sydney CBD",
    "state": "NSW",
    "lat": -33.8921605,
    "lng": 151.2728753,
    "place_id": "ChIJaU5Rn5utEmsRHLtFJMIfbnM",
    "maps_url": "https://www.google.com/maps/place/?q=place_id:ChIJaU5Rn5utEmsRHLtFJMIfbnM",
    "rating": 4.4,
    "total_ratings": 1422
  },
  {
    "name": "Cafe Sydney Restaurant",
    "address": "Level 5 Customs House, 31 Alfred St, Sydney",
    "suburb": "Sydney CBD",
    "state": "NSW",
    "lat": -33.862079,
    "lng": 151.2108919,
    "place_id": "ChIJOahrAxKuEmsRiJOniUNkOZY",
    "maps_url": "https://www.google.com/maps/place/?q=place_id:ChIJOahrAxKuEmsRiJOniUNkOZY",
    "rating": 4.5,
    "total_ratings": 4020
  },
  {
    "name": "Bubble Nini Cafe",
    "address": "10 Ebsworth St, Zetland",
    "suburb": "Sydney CBD",
    "state": "NSW",
    "lat": -33.9054289,
    "lng": 151.2040196,
    "place_id": "ChIJw4HXAuixEmsR_pdpyzB0fFM",
    "maps_url": "https://www.google.com/maps/place/?q=place_id:ChIJw4HXAuixEmsR_pdpyzB0fFM",
    "rating": 4.2,
    "total_ratings": 492
  },
  {
    "name": "The Bistro 19",
    "address": "19 B Lime St, Sydney",
    "suburb": "Sydney CBD",
    "state": "NSW",
    "lat": -33.8667617,
    "lng": 151.2015932,
    "place_id": "ChIJowd5Te2vEmsRsb4kIHY2QBc",
    "maps_url": "https://www.google.com/maps/place/?q=place_id:ChIJowd5Te2vEmsRsb4kIHY2QBc",
    "rating": 4.5,
    "total_ratings": 313
  },
  {
    "name": "Silk Cafe & Restaurant",
    "address": "World Square, Shop 18/123 Liverpool St, Sydney",
    "suburb": "Sydney CBD",
    "state": "NSW",
    "lat": -33.8771069,
    "lng": 151.2071587,
    "place_id": "ChIJu_uH4DyuEmsR9ksx7-Deguw",
    "maps_url": "https://www.google.com/maps/place/?q=place_id:ChIJu_uH4DyuEmsR9ksx7-Deguw",
    "rating": 4.5,
    "total_ratings": 1956
  },
  {
    "name": "Blackbird Cafe",
    "address": "Wheat Road Balcony Level 1, Cockle Bay Wharf Darling Harbour, Sydney",
    "suburb": "Sydney CBD",
    "state": "NSW",
    "lat": -33.8721453,
    "lng": 151.202164,
    "place_id": "ChIJB99QujiuEmsRxWtAQpPHraE",
    "maps_url": "https://www.google.com/maps/place/?q=place_id:ChIJB99QujiuEmsRxWtAQpPHraE",
    "rating": 4.1,
    "total_ratings": 3704
  },
  {
    "name": "BOON Restaurant and café",
    "address": "425 Pitt St, Haymarket",
    "suburb": "Sydney CBD",
    "state": "NSW",
    "lat": -33.878688,
    "lng": 151.2071157,
    "place_id": "ChIJl6jmKyOuEmsRszeMb_NOntk",
    "maps_url": "https://www.google.com/maps/place/?q=place_id:ChIJl6jmKyOuEmsRszeMb_NOntk",
    "rating": 4.3,
    "total_ratings": 1585
  },
  {
    "name": "Bluewater Cafe",
    "address": "28 S Steyne, Manly",
    "suburb": "Sydney CBD",
    "state": "NSW",
    "lat": -33.797898,
    "lng": 151.288367,
    "place_id": "ChIJOSYFcw-rEmsRQMN0M8wbspI",
    "maps_url": "https://www.google.com/maps/place/?q=place_id:ChIJOSYFcw-rEmsRQMN0M8wbspI",
    "rating": 4,
    "total_ratings": 1307
  },
  {
    "name": "Cafe Lost and Found - North Sydney Cafe, Coffee Nearby",
    "address": "Retail Shop, Ground floor/223 Miller St, North Sydney",
    "suburb": "Sydney CBD",
    "state": "NSW",
    "lat": -33.8357999,
    "lng": 151.2078179,
    "place_id": "ChIJyzmCjbmvEmsRFMtxEC867x4",
    "maps_url": "https://www.google.com/maps/place/?q=place_id:ChIJyzmCjbmvEmsRFMtxEC867x4",
    "rating": 4.3,
    "total_ratings": 750
  },
  {
    "name": "The Bistro by Wolfgang Puck",
    "address": "Departure Plaza, Sydney",
    "suburb": "Sydney CBD",
    "state": "NSW",
    "lat": -33.9366399,
    "lng": 151.1683203,
    "place_id": "ChIJ74tLweuwEmsR08cv0_Ve_J4",
    "maps_url": "https://www.google.com/maps/place/?q=place_id:ChIJ74tLweuwEmsR08cv0_Ve_J4",
    "rating": 3.3,
    "total_ratings": 563
  },
  {
    "name": "St Jude Cafe",
    "address": "Unit 1/728 Bourke St, Redfern",
    "suburb": "Sydney CBD",
    "state": "NSW",
    "lat": -33.8942917,
    "lng": 151.2140778,
    "place_id": "ChIJfTUWGOGxEmsRdwn4Oz5twtc",
    "maps_url": "https://www.google.com/maps/place/?q=place_id:ChIJfTUWGOGxEmsRdwn4Oz5twtc",
    "rating": 4.5,
    "total_ratings": 680
  },
  {
    "name": "Spice Alley",
    "address": "Kensington St, Chippendale",
    "suburb": "Sydney CBD",
    "state": "NSW",
    "lat": -33.8848988,
    "lng": 151.2017296,
    "place_id": "ChIJMWdcBCeuEmsRpr9CDsS4-nc",
    "maps_url": "https://www.google.com/maps/place/?q=place_id:ChIJMWdcBCeuEmsRpr9CDsS4-nc",
    "rating": 4.4,
    "total_ratings": 4940
  },
  {
    "name": "Bennie’s Cafe · Bistro",
    "address": "Opera Quays, Shop 10/3 Macquarie St, Sydney",
    "suburb": "Sydney CBD",
    "state": "NSW",
    "lat": -33.8596253,
    "lng": 151.2129905,
    "place_id": "ChIJiW8JdwCvEmsR0RUnrkAdZu8",
    "maps_url": "https://www.google.com/maps/place/?q=place_id:ChIJiW8JdwCvEmsR0RUnrkAdZu8",
    "rating": 4.1,
    "total_ratings": 753
  },
  {
    "name": "Blackbird & Co",
    "address": "1/177 Mitchell Rd, Erskineville",
    "suburb": "Sydney CBD",
    "state": "NSW",
    "lat": -33.9066429,
    "lng": 151.1876856,
    "place_id": "ChIJZWmyKkuwEmsRCOwHRxTqKOA",
    "maps_url": "https://www.google.com/maps/place/?q=place_id:ChIJZWmyKkuwEmsRCOwHRxTqKOA",
    "rating": 4.3,
    "total_ratings": 536
  },
  {
    "name": "Uliveto Sydney Italian Restaurant",
    "address": "35 Tumbalong Bvd, Haymarket",
    "suburb": "Sydney CBD",
    "state": "NSW",
    "lat": -33.87809,
    "lng": 151.2016878,
    "place_id": "ChIJBxXsg7KvEmsRHIzzH8nrZo4",
    "maps_url": "https://www.google.com/maps/place/?q=place_id:ChIJBxXsg7KvEmsRHIzzH8nrZo4",
    "rating": 4.2,
    "total_ratings": 926
  },
  {
    "name": "Bomonti Cafe & Restaurant",
    "address": "101 York St, Sydney",
    "suburb": "Sydney CBD",
    "state": "NSW",
    "lat": -33.8703226,
    "lng": 151.2059898,
    "place_id": "ChIJKdaKHbmvEmsRSdxq_1O05bU",
    "maps_url": "https://www.google.com/maps/place/?q=place_id:ChIJKdaKHbmvEmsRSdxq_1O05bU",
    "rating": 4.6,
    "total_ratings": 767
  },
  {
    "name": "Gram Cafe & Pancakes The Galeries",
    "address": "Shop RG016, 500 George St, Sydney",
    "suburb": "Sydney CBD",
    "state": "NSW",
    "lat": -33.8721608,
    "lng": 151.2077315,
    "place_id": "ChIJ_QiXVcevEmsRahj61Z42_JU",
    "maps_url": "https://www.google.com/maps/place/?q=place_id:ChIJ_QiXVcevEmsRahj61Z42_JU",
    "rating": 4.1,
    "total_ratings": 985
  },
  {
    "name": "Cafe Kentaro",
    "address": "616 Bourke St, Surry Hills",
    "suburb": "Sydney CBD",
    "state": "NSW",
    "lat": -33.890698,
    "lng": 151.21488,
    "place_id": "ChIJiYYc4uGxEmsRVY1PsxoKvP4",
    "maps_url": "https://www.google.com/maps/place/?q=place_id:ChIJiYYc4uGxEmsRVY1PsxoKvP4",
    "rating": 4.4,
    "total_ratings": 799
  },
  {
    "name": "Envoy Cafe",
    "address": "Shop 17/259 George St, Sydney",
    "suburb": "Sydney CBD",
    "state": "NSW",
    "lat": -33.8634117,
    "lng": 151.206755,
    "place_id": "ChIJC7BrbTyuEmsRZs4aIQjXDDA",
    "maps_url": "https://www.google.com/maps/place/?q=place_id:ChIJC7BrbTyuEmsRZs4aIQjXDDA",
    "rating": 4.5,
    "total_ratings": 273
  },
  {
    "name": "Bistro Rex Restaurant",
    "address": "Shop 1, 50/58 Macleay St, Potts Point",
    "suburb": "Sydney CBD",
    "state": "NSW",
    "lat": -33.8717141,
    "lng": 151.2252005,
    "place_id": "ChIJ16MQahuvEmsRnqEQ8r_fxV0",
    "maps_url": "https://www.google.com/maps/place/?q=place_id:ChIJ16MQahuvEmsRnqEQ8r_fxV0",
    "rating": 4.7,
    "total_ratings": 1458
  },
  {
    "name": "Bondi Icebergs Swimming CLUB - The Bergs Bistro",
    "address": "1 Notts Ave, Bondi Beach",
    "suburb": "Sydney CBD",
    "state": "NSW",
    "lat": -33.895098,
    "lng": 151.2742734,
    "place_id": "ChIJUe0dVputEmsRvvpUhmPaCVM",
    "maps_url": "https://www.google.com/maps/place/?q=place_id:ChIJUe0dVputEmsRvvpUhmPaCVM",
    "rating": 4.4,
    "total_ratings": 2380
  },
  {
    "name": "G’day Bondi Cafe",
    "address": "30A Hastings Parade, North Bondi",
    "suburb": "Sydney CBD",
    "state": "NSW",
    "lat": -33.8864675,
    "lng": 151.2796992,
    "place_id": "ChIJaUzuhEetEmsR0DOMFlBMG_M",
    "maps_url": "https://www.google.com/maps/place/?q=place_id:ChIJaUzuhEetEmsR0DOMFlBMG_M",
    "rating": 4.6,
    "total_ratings": 294
  },
  {
    "name": "Glider Garden",
    "address": "Shop 15/24 Springfield Avenue on, Llankelly Pl, Potts Point",
    "suburb": "Sydney CBD",
    "state": "NSW",
    "lat": -33.8729579,
    "lng": 151.2240246,
    "place_id": "ChIJGzPBgEivEmsRIaolk2flFEo",
    "maps_url": "https://www.google.com/maps/place/?q=place_id:ChIJGzPBgEivEmsRIaolk2flFEo",
    "rating": 4.7,
    "total_ratings": 390
  },
  {
    "name": "Chiswick Woollahra",
    "address": "65 Ocean St, Woollahra",
    "suburb": "Sydney CBD",
    "state": "NSW",
    "lat": -33.8860284,
    "lng": 151.2400342,
    "place_id": "ChIJOSjbpeStEmsR7gjJMS8oqWM",
    "maps_url": "https://www.google.com/maps/place/?q=place_id:ChIJOSjbpeStEmsR7gjJMS8oqWM",
    "rating": 4.6,
    "total_ratings": 1791
  },
  {
    "name": "Eastbank Cafe.bar.pizzeria",
    "address": "61-69 Macquarie St, Sydney",
    "suburb": "Sydney CBD",
    "state": "NSW",
    "lat": -33.8606445,
    "lng": 151.2128248,
    "place_id": "ChIJddg0XmiuEmsRYNsrcjCrD8k",
    "maps_url": "https://www.google.com/maps/place/?q=place_id:ChIJddg0XmiuEmsRYNsrcjCrD8k",
    "rating": 4.1,
    "total_ratings": 2746
  },
  {
    "name": "Two Fives Cafe",
    "address": "355 Gardeners Rd, Rosebery",
    "suburb": "Sydney CBD",
    "state": "NSW",
    "lat": -33.9226641,
    "lng": 151.204389,
    "place_id": "ChIJFz6E7KOxEmsRs5-sZa1c9oo",
    "maps_url": "https://www.google.com/maps/place/?q=place_id:ChIJFz6E7KOxEmsRs5-sZa1c9oo",
    "rating": 4.5,
    "total_ratings": 533
  },
  {
    "name": "Restaurant 233",
    "address": "233-235 Botany Rd, Waterloo",
    "suburb": "Sydney CBD",
    "state": "NSW",
    "lat": -33.903635,
    "lng": 151.2026059,
    "place_id": "ChIJjQyjqrKxEmsRcyghis6tLRs",
    "maps_url": "https://www.google.com/maps/place/?q=place_id:ChIJjQyjqrKxEmsRcyghis6tLRs",
    "rating": 4.6,
    "total_ratings": 200
  },
  {
    "name": "Bistro Papillon",
    "address": "98 Clarence St, Sydney",
    "suburb": "Sydney CBD",
    "state": "NSW",
    "lat": -33.8679688,
    "lng": 151.2053027,
    "place_id": "ChIJywXDWT-uEmsRxyuZ0Inwi04",
    "maps_url": "https://www.google.com/maps/place/?q=place_id:ChIJywXDWT-uEmsRxyuZ0Inwi04",
    "rating": 4.6,
    "total_ratings": 1033
  },
  {
    "name": "Cellinis",
    "address": "Queen Victoria Building, 46/48 George St, Sydney",
    "suburb": "Sydney CBD",
    "state": "NSW",
    "lat": -33.872344,
    "lng": 151.206859,
    "place_id": "ChIJqYGajj6uEmsRiyUqev2xPsM",
    "maps_url": "https://www.google.com/maps/place/?q=place_id:ChIJqYGajj6uEmsRiyUqev2xPsM",
    "rating": 4.2,
    "total_ratings": 546
  },
  {
    "name": "Garçon Restaurant & Cafe Lane Cove",
    "address": "The Canopy, Shop 5/2 Rosenthal Ave, Lane Cove",
    "suburb": "Sydney CBD",
    "state": "NSW",
    "lat": -33.8135613,
    "lng": 151.1694463,
    "place_id": "ChIJU2z1fW6vEmsRabriVzEZnhY",
    "maps_url": "https://www.google.com/maps/place/?q=place_id:ChIJU2z1fW6vEmsRabriVzEZnhY",
    "rating": 4.2,
    "total_ratings": 990
  },
  {
    "name": "Blue 36 Cafe",
    "address": "Opposite North Sydney Train Station, Shop P02/36 Blue St, North Sydney",
    "suburb": "Sydney CBD",
    "state": "NSW",
    "lat": -33.840893,
    "lng": 151.2072944,
    "place_id": "ChIJVVVFAPOuEmsRFrNWI90CE4E",
    "maps_url": "https://www.google.com/maps/place/?q=place_id:ChIJVVVFAPOuEmsRFrNWI90CE4E",
    "rating": 4.7,
    "total_ratings": 501
  },
  {
    "name": "Gibbons Street Cafe Redfern",
    "address": "Shop 1/7-9 Gibbons St, Redfern",
    "suburb": "Sydney CBD",
    "state": "NSW",
    "lat": -33.892767,
    "lng": 151.199546,
    "place_id": "ChIJE1xtEdqxEmsRUBXA-uHdTkc",
    "maps_url": "https://www.google.com/maps/place/?q=place_id:ChIJE1xtEdqxEmsRUBXA-uHdTkc",
    "rating": 4.5,
    "total_ratings": 567
  },
  {
    "name": "Cafe Rafaele",
    "address": "19 Havelock Ave, Coogee",
    "suburb": "Sydney CBD",
    "state": "NSW",
    "lat": -33.9242604,
    "lng": 151.2554907,
    "place_id": "ChIJaSDRdD-yEmsRyqM5QkgaXNQ",
    "maps_url": "https://www.google.com/maps/place/?q=place_id:ChIJaSDRdD-yEmsRyqM5QkgaXNQ",
    "rating": 4.6,
    "total_ratings": 430
  },
  {
    "name": "Lumiere Cafe.",
    "address": "13/425 Bourke St, Surry Hills",
    "suburb": "Sydney CBD",
    "state": "NSW",
    "lat": -33.8826598,
    "lng": 151.2160288,
    "place_id": "ChIJ6WsdIRquEmsRZY8Qq5k3vcU",
    "maps_url": "https://www.google.com/maps/place/?q=place_id:ChIJ6WsdIRquEmsRZY8Qq5k3vcU",
    "rating": 4.3,
    "total_ratings": 519
  },
  {
    "name": "Something for Jess - SFJ Cafe & Coffee",
    "address": "27 Abercrombie St, Chippendale",
    "suburb": "Sydney CBD",
    "state": "NSW",
    "lat": -33.8860474,
    "lng": 151.1985881,
    "place_id": "ChIJJRBH_CeuEmsRBgN2XsXnJgo",
    "maps_url": "https://www.google.com/maps/place/?q=place_id:ChIJJRBH_CeuEmsRBgN2XsXnJgo",
    "rating": 4.7,
    "total_ratings": 537
  },
  {
    "name": "Piato Restaurant",
    "address": "123 Blues Point Rd, McMahons Point",
    "suburb": "Sydney CBD",
    "state": "NSW",
    "lat": -33.8445833,
    "lng": 151.2044676,
    "place_id": "ChIJQ8g91fWuEmsRGyALFwP5MYo",
    "maps_url": "https://www.google.com/maps/place/?q=place_id:ChIJQ8g91fWuEmsRGyALFwP5MYo",
    "rating": 4.4,
    "total_ratings": 980
  },
  {
    "name": "City Extra 24 Hour Restaurant",
    "address": "E4 East Podium Between Wharf 3 and 4 (Where the Manly Ferry Pulls in, 2 Alfred St, Sydney",
    "suburb": "Sydney CBD",
    "state": "NSW",
    "lat": -33.8613018,
    "lng": 151.2112834,
    "place_id": "ChIJp-X0MWiuEmsR5k38ahXMlCs",
    "maps_url": "https://www.google.com/maps/place/?q=place_id:ChIJp-X0MWiuEmsR5k38ahXMlCs",
    "rating": 4,
    "total_ratings": 2759
  },
  {
    "name": "Soho Cafe Bondi",
    "address": "Shop 7 12/4 Waverley St, Bondi Junction",
    "suburb": "Sydney CBD",
    "state": "NSW",
    "lat": -33.8924813,
    "lng": 151.2515601,
    "place_id": "ChIJn3-cMvKtEmsRstkEHDHjNpU",
    "maps_url": "https://www.google.com/maps/place/?q=place_id:ChIJn3-cMvKtEmsRstkEHDHjNpU",
    "rating": 4.1,
    "total_ratings": 167
  },
  {
    "name": "Loulou Bistro, Boulangerie & Traiteur",
    "address": "61 Lavender St, Milsons Point",
    "suburb": "Sydney CBD",
    "state": "NSW",
    "lat": -33.8436731,
    "lng": 151.20995,
    "place_id": "ChIJ-2nhVT-vEmsRnIpRFqTEJt4",
    "maps_url": "https://www.google.com/maps/place/?q=place_id:ChIJ-2nhVT-vEmsRnIpRFqTEJt4",
    "rating": 4.3,
    "total_ratings": 1269
  },
  {
    "name": "Bellagio Cafe",
    "address": "285 Bronte Rd, Waverley",
    "suburb": "Sydney CBD",
    "state": "NSW",
    "lat": -33.9026633,
    "lng": 151.2550199,
    "place_id": "ChIJf_xC7wqyEmsRi2aDh_Yf-gc",
    "maps_url": "https://www.google.com/maps/place/?q=place_id:ChIJf_xC7wqyEmsRi2aDh_Yf-gc",
    "rating": 4.4,
    "total_ratings": 486
  },
  {
    "name": "Sub-Station Cafe Rosebery",
    "address": "128-130 Rothschild Ave, Rosebery",
    "suburb": "Sydney CBD",
    "state": "NSW",
    "lat": -33.9193819,
    "lng": 151.203216,
    "place_id": "ChIJqVzo8KSxEmsRlkmvfiLynf8",
    "maps_url": "https://www.google.com/maps/place/?q=place_id:ChIJqVzo8KSxEmsRlkmvfiLynf8",
    "rating": 4.2,
    "total_ratings": 300
  },
  {
    "name": "Bootsdarling",
    "address": "333 South Dowling St, Darlinghurst",
    "suburb": "Sydney CBD",
    "state": "NSW",
    "lat": -33.8821227,
    "lng": 151.2187491,
    "place_id": "ChIJ5_pDfRquEmsRTpHHwJiiZ1I",
    "maps_url": "https://www.google.com/maps/place/?q=place_id:ChIJ5_pDfRquEmsRTpHHwJiiZ1I",
    "rating": 4.5,
    "total_ratings": 397
  },
  {
    "name": "Four Six Eight Cafe",
    "address": "468 Oxford St, Paddington",
    "suburb": "Sydney CBD",
    "state": "NSW",
    "lat": -33.8881937,
    "lng": 151.2318539,
    "place_id": "ChIJnQ-WEweuEmsRi6tNSnuu8HM",
    "maps_url": "https://www.google.com/maps/place/?q=place_id:ChIJnQ-WEweuEmsRi6tNSnuu8HM",
    "rating": 4.6,
    "total_ratings": 126
  },
  {
    "name": "Two Good Eggs Cafe",
    "address": "Shop 2/148 Goulburn St, Surry Hills",
    "suburb": "Sydney CBD",
    "state": "NSW",
    "lat": -33.8785625,
    "lng": 151.211764,
    "place_id": "ChIJI7Na6xeuEmsRLVE-Rr15N4M",
    "maps_url": "https://www.google.com/maps/place/?q=place_id:ChIJI7Na6xeuEmsRLVE-Rr15N4M",
    "rating": 4.3,
    "total_ratings": 1368
  },
  {
    "name": "Bistro Mosman",
    "address": "76 Middle Head Rd, Mosman",
    "suburb": "Sydney CBD",
    "state": "NSW",
    "lat": -33.8322569,
    "lng": 151.2447076,
    "place_id": "ChIJx_O19L6tEmsRMRcUkM_AcAA",
    "maps_url": "https://www.google.com/maps/place/?q=place_id:ChIJx_O19L6tEmsRMRcUkM_AcAA",
    "rating": 4.7,
    "total_ratings": 580
  },
  {
    "name": "La Bomba Cafe & Restaurant Potts Point",
    "address": "35 Challis Ave, Potts Point",
    "suburb": "Sydney CBD",
    "state": "NSW",
    "lat": -33.8690915,
    "lng": 151.2253141,
    "place_id": "ChIJN0Ro63WvEmsR8dblkd6OIAg",
    "maps_url": "https://www.google.com/maps/place/?q=place_id:ChIJN0Ro63WvEmsR8dblkd6OIAg",
    "rating": 4.5,
    "total_ratings": 225
  },
  {
    "name": "Calico - Cafe, Restaurant, Pizzeria & Bar",
    "address": "146 Abercrombie St, Redfern",
    "suburb": "Sydney CBD",
    "state": "NSW",
    "lat": -33.8890121,
    "lng": 151.1986331,
    "place_id": "ChIJsyHPcsOxEmsR09gBGupaRQ0",
    "maps_url": "https://www.google.com/maps/place/?q=place_id:ChIJsyHPcsOxEmsR09gBGupaRQ0",
    "rating": 4.7,
    "total_ratings": 529
  },
  {
    "name": "Planar Restaurant",
    "address": "ICC Sydney, Shop C08, Ground Floor/14 Darling Dr, Darling Harbour",
    "suburb": "Sydney CBD",
    "state": "NSW",
    "lat": -33.8739704,
    "lng": 151.1998897,
    "place_id": "ChIJIaQv9j-uEmsRIsohwZsdLzI",
    "maps_url": "https://www.google.com/maps/place/?q=place_id:ChIJIaQv9j-uEmsRIsohwZsdLzI",
    "rating": 4.1,
    "total_ratings": 4044
  },
  {
    "name": "Macleay St Bistro",
    "address": "71A Macleay St, Potts Point",
    "suburb": "Sydney CBD",
    "state": "NSW",
    "lat": -33.8693698,
    "lng": 151.2252281,
    "place_id": "ChIJY8mysXOuEmsRn0pT2Yo6mQc",
    "maps_url": "https://www.google.com/maps/place/?q=place_id:ChIJY8mysXOuEmsRn0pT2Yo6mQc",
    "rating": 4.5,
    "total_ratings": 453
  },
  {
    "name": "Brasserie@156",
    "address": "156 A40, Gladesville",
    "suburb": "Sydney CBD",
    "state": "NSW",
    "lat": -33.8330851,
    "lng": 151.1268174,
    "place_id": "ChIJiXuJSwClEmsRhErrn_coKyc",
    "maps_url": "https://www.google.com/maps/place/?q=place_id:ChIJiXuJSwClEmsRhErrn_coKyc",
    "rating": 4.7,
    "total_ratings": 142
  },
  {
    "name": "ABODE Bistro. Bar",
    "address": "150 Day St, Sydney",
    "suburb": "Sydney CBD",
    "state": "NSW",
    "lat": -33.873608,
    "lng": 151.2035571,
    "place_id": "ChIJ38Ev7TuuEmsRDxqyvSp1dXU",
    "maps_url": "https://www.google.com/maps/place/?q=place_id:ChIJ38Ev7TuuEmsRDxqyvSp1dXU",
    "rating": 4.3,
    "total_ratings": 292
  },
  {
    "name": "Bistro St Jacques",
    "address": "96 Pitt St, Redfern",
    "suburb": "Sydney CBD",
    "state": "NSW",
    "lat": -33.8931117,
    "lng": 151.2036072,
    "place_id": "ChIJLd4i49uxEmsReKdXgaTmbZ0",
    "maps_url": "https://www.google.com/maps/place/?q=place_id:ChIJLd4i49uxEmsReKdXgaTmbZ0",
    "rating": 4.5,
    "total_ratings": 635
  },
  {
    "name": "Miss Carter Cafe",
    "address": "267-277 Castlereagh St, Sydney",
    "suburb": "Sydney CBD",
    "state": "NSW",
    "lat": -33.87749489999999,
    "lng": 151.2083686,
    "place_id": "ChIJDSMRPz2uEmsRiI9fUi4xJeI",
    "maps_url": "https://www.google.com/maps/place/?q=place_id:ChIJDSMRPz2uEmsRiI9fUi4xJeI",
    "rating": 4.8,
    "total_ratings": 363
  },
  {
    "name": "Cafe Claire",
    "address": "Shop 3/2 Young St, Annandale",
    "suburb": "Sydney CBD",
    "state": "NSW",
    "lat": -33.8877182,
    "lng": 151.1648902,
    "place_id": "ChIJF276tiKwEmsRuXZeezNG_q4",
    "maps_url": "https://www.google.com/maps/place/?q=place_id:ChIJF276tiKwEmsRuXZeezNG_q4",
    "rating": 4.5,
    "total_ratings": 330
  },
  {
    "name": "Catmosphere Cat Cafe",
    "address": "66 Foveaux St, Surry Hills",
    "suburb": "Sydney CBD",
    "state": "NSW",
    "lat": -33.8845085,
    "lng": 151.2113093,
    "place_id": "ChIJZaRMsxiuEmsR2oMYzcLJo9I",
    "maps_url": "https://www.google.com/maps/place/?q=place_id:ChIJZaRMsxiuEmsR2oMYzcLJo9I",
    "rating": 4.3,
    "total_ratings": 1048
  },
  {
    "name": "Copo Cafe",
    "address": "56 Formosa St, Drummoyne",
    "suburb": "Sydney CBD",
    "state": "NSW",
    "lat": -33.8532929,
    "lng": 151.1559195,
    "place_id": "ChIJ3XFac5OvEmsRKgFbF9Y5Vf8",
    "maps_url": "https://www.google.com/maps/place/?q=place_id:ChIJ3XFac5OvEmsRKgFbF9Y5Vf8",
    "rating": 4.3,
    "total_ratings": 517
  },
  {
    "name": "Cafe Cre Asion",
    "address": "3/310 Harris St, Pyrmont",
    "suburb": "Sydney CBD",
    "state": "NSW",
    "lat": -33.873194,
    "lng": 151.196206,
    "place_id": "ChIJF_MU3heuEmsRlJT3c_gPvRI",
    "maps_url": "https://www.google.com/maps/place/?q=place_id:ChIJF_MU3heuEmsRlJT3c_gPvRI",
    "rating": 4.5,
    "total_ratings": 602
  },
  {
    "name": "The Foliage Cafe",
    "address": "173 Blues Point Rd, North Sydney",
    "suburb": "Sydney CBD",
    "state": "NSW",
    "lat": -33.8425664,
    "lng": 151.2053077,
    "place_id": "ChIJw4m6DvSuEmsRSYalA87pzjw",
    "maps_url": "https://www.google.com/maps/place/?q=place_id:ChIJw4m6DvSuEmsRSYalA87pzjw",
    "rating": 4.8,
    "total_ratings": 310
  },
  {
    "name": "Market Lane Cafe",
    "address": "Entry via, Shop 9-11, 37 The Corso, Market Ln, Manly",
    "suburb": "Sydney CBD",
    "state": "NSW",
    "lat": -33.7976731,
    "lng": 151.2862995,
    "place_id": "ChIJRZF9Mw-rEmsRGpNLuvG65Ag",
    "maps_url": "https://www.google.com/maps/place/?q=place_id:ChIJRZF9Mw-rEmsRGpNLuvG65Ag",
    "rating": 3.9,
    "total_ratings": 397
  },
  {
    "name": "Medan Ciak SUSSEX ST SYDNEY Indonesian Restaurant",
    "address": "10/339 Sussex St, Sydney",
    "suburb": "Sydney CBD",
    "state": "NSW",
    "lat": -33.8756832,
    "lng": 151.2043611,
    "place_id": "ChIJZeWwDj2uEmsRGiAXvN2_-dE",
    "maps_url": "https://www.google.com/maps/place/?q=place_id:ChIJZeWwDj2uEmsRGiAXvN2_-dE",
    "rating": 4.5,
    "total_ratings": 2402
  },
  {
    "name": "Cafe Markus Chatswood",
    "address": "16/9 Spring St, Chatswood",
    "suburb": "North Sydney",
    "state": "NSW",
    "lat": -33.796732,
    "lng": 151.1850685,
    "place_id": "ChIJ08NRxNWoEmsRCWNqXpUeO5U",
    "maps_url": "https://www.google.com/maps/place/?q=place_id:ChIJ08NRxNWoEmsRCWNqXpUeO5U",
    "rating": 4.7,
    "total_ratings": 666
  },
  {
    "name": "Helm Bar & Bistro",
    "address": "Aquarium Wharf, 7 Wheat Rd, Sydney",
    "suburb": "North Sydney",
    "state": "NSW",
    "lat": -33.870619,
    "lng": 151.202648,
    "place_id": "ChIJvbd54TiuEmsRBv97LbjK0vo",
    "maps_url": "https://www.google.com/maps/place/?q=place_id:ChIJvbd54TiuEmsRBv97LbjK0vo",
    "rating": 3.8,
    "total_ratings": 2176
  },
  {
    "name": "Bistro Sydney",
    "address": "7/11 Talavera Rd, North Ryde",
    "suburb": "North Sydney",
    "state": "NSW",
    "lat": -33.7830236,
    "lng": 151.1298827,
    "place_id": "ChIJk0YDlVinEmsRki2WbVvQq3w",
    "maps_url": "https://www.google.com/maps/place/?q=place_id:ChIJk0YDlVinEmsRki2WbVvQq3w",
    "rating": 4.2,
    "total_ratings": 52
  },
  {
    "name": "Mae - Ong Thai @Broadway",
    "address": "Off Broadway Hotel, Ground The Broadway Shopping Centre, 31/33 Bay St, Ultimo",
    "suburb": "North Sydney",
    "state": "NSW",
    "lat": -33.8837083,
    "lng": 151.1948015,
    "place_id": "ChIJl6SBsSmvEmsRAP5zlNux8W8",
    "maps_url": "https://www.google.com/maps/place/?q=place_id:ChIJl6SBsSmvEmsRAP5zlNux8W8",
    "rating": 4.3,
    "total_ratings": 219
  },
  {
    "name": "Courtyard Restaurant & Bar",
    "address": "Holme Building, Level 3 Science Rd, Camperdown",
    "suburb": "North Sydney",
    "state": "NSW",
    "lat": -33.8849647,
    "lng": 151.1870991,
    "place_id": "ChIJsZUTzSqwEmsRcs5wA7ZW8ps",
    "maps_url": "https://www.google.com/maps/place/?q=place_id:ChIJsZUTzSqwEmsRcs5wA7ZW8ps",
    "rating": 4.1,
    "total_ratings": 263
  },
  {
    "name": "De Vine Food & Wine",
    "address": "32 Market St, Sydney",
    "suburb": "North Sydney",
    "state": "NSW",
    "lat": -33.870778,
    "lng": 151.2053429,
    "place_id": "ChIJ156y2z6uEmsRAnJxPipDzXs",
    "maps_url": "https://www.google.com/maps/place/?q=place_id:ChIJ156y2z6uEmsRAnJxPipDzXs",
    "rating": 4.5,
    "total_ratings": 831
  },
  {
    "name": "I Maccheroni, Italian Osteria, Paddington",
    "address": "3 Jersey Rd, Woollahra",
    "suburb": "North Sydney",
    "state": "NSW",
    "lat": -33.8884083,
    "lng": 151.2325178,
    "place_id": "ChIJRXlLJa-tEmsRvtYG4uquSto",
    "maps_url": "https://www.google.com/maps/place/?q=place_id:ChIJRXlLJa-tEmsRvtYG4uquSto",
    "rating": 4.7,
    "total_ratings": 1065
  },
  {
    "name": "Restaurant Hubert",
    "address": "15 Bligh St, Sydney",
    "suburb": "North Sydney",
    "state": "NSW",
    "lat": -33.8651348,
    "lng": 151.2104647,
    "place_id": "ChIJF5-RdGquEmsR5rN_H74uSqQ",
    "maps_url": "https://www.google.com/maps/place/?q=place_id:ChIJF5-RdGquEmsR5rN_H74uSqQ",
    "rating": 4.6,
    "total_ratings": 5024
  },
  {
    "name": "CATALINA Restaurant",
    "address": "Lyne Park, 596F New South Head Rd, Rose Bay",
    "suburb": "North Sydney",
    "state": "NSW",
    "lat": -33.8704584,
    "lng": 151.2628539,
    "place_id": "ChIJNQy2NLetEmsRFDh-uUIyFS4",
    "maps_url": "https://www.google.com/maps/place/?q=place_id:ChIJNQy2NLetEmsRFDh-uUIyFS4",
    "rating": 4.7,
    "total_ratings": 3904
  },
  {
    "name": "Cafe Elation",
    "address": "226 Victoria Rd, Gladesville",
    "suburb": "North Sydney",
    "state": "NSW",
    "lat": -33.8301539,
    "lng": 151.1264224,
    "place_id": "ChIJPZL32ASlEmsRRdC35CGvobU",
    "maps_url": "https://www.google.com/maps/place/?q=place_id:ChIJPZL32ASlEmsRRdC35CGvobU",
    "rating": 4.6,
    "total_ratings": 520
  },
  {
    "name": "Bistro Manly",
    "address": "55 N Steyne, Manly",
    "suburb": "North Sydney",
    "state": "NSW",
    "lat": -33.7953923,
    "lng": 151.2871601,
    "place_id": "ChIJ5U2Uh3arEmsRhx8oao_bvHo",
    "maps_url": "https://www.google.com/maps/place/?q=place_id:ChIJ5U2Uh3arEmsRhx8oao_bvHo",
    "rating": 4.1,
    "total_ratings": 187
  },
  {
    "name": "Mr. Wong",
    "address": "3 Bridge Ln, Sydney",
    "suburb": "North Sydney",
    "state": "NSW",
    "lat": -33.8640567,
    "lng": 151.2078521,
    "place_id": "ChIJT2CGg0GuEmsRYLRNCFoOvv4",
    "maps_url": "https://www.google.com/maps/place/?q=place_id:ChIJT2CGg0GuEmsRYLRNCFoOvv4",
    "rating": 4.4,
    "total_ratings": 5724
  },
  {
    "name": "The Rocks Cafe",
    "address": "99 George St, The Rocks",
    "suburb": "Chatswood",
    "state": "NSW",
    "lat": -33.8594463,
    "lng": 151.2086593,
    "place_id": "ChIJkxf4qwCoEmsRHQXs73axPI8",
    "maps_url": "https://www.google.com/maps/place/?q=place_id:ChIJkxf4qwCoEmsRHQXs73axPI8",
    "rating": 4.3,
    "total_ratings": 2214
  },
  {
    "name": "Maisys - Restaurant & Cafe",
    "address": "shop 1/164 Military Rd, Neutral Bay",
    "suburb": "Chatswood",
    "state": "NSW",
    "lat": -33.8310905,
    "lng": 151.2215515,
    "place_id": "ChIJY93e_ZeuEmsRtVvZ4uZt4VY",
    "maps_url": "https://www.google.com/maps/place/?q=place_id:ChIJY93e_ZeuEmsRtVvZ4uZt4VY",
    "rating": 4.3,
    "total_ratings": 874
  },
  {
    "name": "The Fox Cafe",
    "address": "2/178 Fox Valley Rd, Wahroonga",
    "suburb": "Chatswood",
    "state": "NSW",
    "lat": -33.7366409,
    "lng": 151.1003723,
    "place_id": "ChIJobF5j6ynEmsRnRH0ckZJVPg",
    "maps_url": "https://www.google.com/maps/place/?q=place_id:ChIJobF5j6ynEmsRnRH0ckZJVPg",
    "rating": 4.4,
    "total_ratings": 654
  },
  {
    "name": "Gram Cafe & Pancakes Chatswood",
    "address": "Chatswood Interchange, Shop 67, Level 3/436 Victoria Ave, Chatswood",
    "suburb": "Chatswood",
    "state": "NSW",
    "lat": -33.7971836,
    "lng": 151.1813693,
    "place_id": "ChIJv8HMnmypEmsRv7pAueaaOMM",
    "maps_url": "https://www.google.com/maps/place/?q=place_id:ChIJv8HMnmypEmsRv7pAueaaOMM",
    "rating": 4,
    "total_ratings": 1144
  },
  {
    "name": "Cafe Portico",
    "address": "Entrance at 42-44 Margaret Street, 2 York St, Sydney",
    "suburb": "Chatswood",
    "state": "NSW",
    "lat": -33.8649667,
    "lng": 151.2057141,
    "place_id": "ChIJAfmRgmWvEmsRmc85iRXig2I",
    "maps_url": "https://www.google.com/maps/place/?q=place_id:ChIJAfmRgmWvEmsRmc85iRXig2I",
    "rating": 4.3,
    "total_ratings": 740
  },
  {
    "name": "MCA Cafe at Tallawoladah",
    "address": "Ground floor/140 George St, The Rocks",
    "suburb": "Chatswood",
    "state": "NSW",
    "lat": -33.8600764,
    "lng": 151.2091318,
    "place_id": "ChIJQ5BflEKuEmsRFSIJuEf7qE8",
    "maps_url": "https://www.google.com/maps/place/?q=place_id:ChIJQ5BflEKuEmsRFSIJuEf7qE8",
    "rating": 4.3,
    "total_ratings": 1444
  },
  {
    "name": "Salt & Light Cafe Chatswood",
    "address": "Shop 23/455 Victoria Ave, Chatswood",
    "suburb": "Chatswood",
    "state": "NSW",
    "lat": -33.7964381,
    "lng": 151.1818867,
    "place_id": "ChIJKZOdDNSoEmsRTamdV85bt9g",
    "maps_url": "https://www.google.com/maps/place/?q=place_id:ChIJKZOdDNSoEmsRTamdV85bt9g",
    "rating": 3.9,
    "total_ratings": 493
  },
  {
    "name": "Cafe Mosman",
    "address": "6/611 Military Rd, Mosman",
    "suburb": "Chatswood",
    "state": "NSW",
    "lat": -33.8252574,
    "lng": 151.2423396,
    "place_id": "ChIJO9D71wSsEmsRsdL--Z6N7rI",
    "maps_url": "https://www.google.com/maps/place/?q=place_id:ChIJO9D71wSsEmsRsdL--Z6N7rI",
    "rating": 4.3,
    "total_ratings": 634
  },
  {
    "name": "Zig Zag Licensed Cafe",
    "address": "1 Trafalgar Pl, Marsfield",
    "suburb": "Chatswood",
    "state": "NSW",
    "lat": -33.7677802,
    "lng": 151.1080395,
    "place_id": "ChIJaxc6D2-mEmsR-2UPvgfFsic",
    "maps_url": "https://www.google.com/maps/place/?q=place_id:ChIJaxc6D2-mEmsR-2UPvgfFsic",
    "rating": 4,
    "total_ratings": 172
  },
  {
    "name": "B2b's Grilled Portuguese Chicken & Cafe",
    "address": "156 Victoria Ave, Chatswood",
    "suburb": "Chatswood",
    "state": "NSW",
    "lat": -33.7935931,
    "lng": 151.192341,
    "place_id": "ChIJC9u7VgSpEmsRMsubd3s5PZw",
    "maps_url": "https://www.google.com/maps/place/?q=place_id:ChIJC9u7VgSpEmsRMsubd3s5PZw",
    "rating": 4.9,
    "total_ratings": 627
  },
  {
    "name": "Lumina Cafe",
    "address": "109 Waterloo Rd, Macquarie Park",
    "suburb": "Chatswood",
    "state": "NSW",
    "lat": -33.7773668,
    "lng": 151.1218451,
    "place_id": "ChIJ16fqzA2mEmsRTv7ciP39oB0",
    "maps_url": "https://www.google.com/maps/place/?q=place_id:ChIJ16fqzA2mEmsRTv7ciP39oB0",
    "rating": 3.8,
    "total_ratings": 280
  },
  {
    "name": "Cappapinos Cafe",
    "address": "135 Macquarie St, Sydney",
    "suburb": "Chatswood",
    "state": "NSW",
    "lat": -33.8643001,
    "lng": 151.2125527,
    "place_id": "ChIJNbcjh2muEmsRRjSbhrXfAFw",
    "maps_url": "https://www.google.com/maps/place/?q=place_id:ChIJNbcjh2muEmsRRjSbhrXfAFw",
    "rating": 4.5,
    "total_ratings": 98
  },
  {
    "name": "SML Cafe",
    "address": "36 Macmahon St, North Willoughby",
    "suburb": "Chatswood",
    "state": "NSW",
    "lat": -33.7934348,
    "lng": 151.1965177,
    "place_id": "ChIJMcSHZSWpEmsRSEHdmeIxwbk",
    "maps_url": "https://www.google.com/maps/place/?q=place_id:ChIJMcSHZSWpEmsRSEHdmeIxwbk",
    "rating": 4.8,
    "total_ratings": 562
  },
  {
    "name": "Cool Mac",
    "address": "2/34 Burton St, Kirribilli",
    "suburb": "Chatswood",
    "state": "NSW",
    "lat": -33.8460332,
    "lng": 151.2133581,
    "place_id": "ChIJcRQUpouuEmsRdX8S-DcX3S8",
    "maps_url": "https://www.google.com/maps/place/?q=place_id:ChIJcRQUpouuEmsRdX8S-DcX3S8",
    "rating": 4.5,
    "total_ratings": 451
  },
  {
    "name": "Harbourfront Seafood Restaurant Sydney The Rocks",
    "address": "Campbell's Stores Bay, 1-3/7-27 Circular Quay W, The Rocks",
    "suburb": "Chatswood",
    "state": "NSW",
    "lat": -33.8572735,
    "lng": 151.209424,
    "place_id": "ChIJqRMc0jKvEmsRjl9q-kI53Is",
    "maps_url": "https://www.google.com/maps/place/?q=place_id:ChIJqRMc0jKvEmsRjl9q-kI53Is",
    "rating": 4.5,
    "total_ratings": 2108
  },
  {
    "name": "Chaos Cafe",
    "address": "Rear/194 Military Rd, Neutral Bay",
    "suburb": "Chatswood",
    "state": "NSW",
    "lat": -33.8310661,
    "lng": 151.2223956,
    "place_id": "ChIJ17s3AZiuEmsR3tsNABZEOhk",
    "maps_url": "https://www.google.com/maps/place/?q=place_id:ChIJ17s3AZiuEmsR3tsNABZEOhk",
    "rating": 4.2,
    "total_ratings": 376
  },
  {
    "name": "Fresh Crows Nest Cafe",
    "address": "13 Ernest St, Crows Nest",
    "suburb": "Chatswood",
    "state": "NSW",
    "lat": -33.825856,
    "lng": 151.2017489,
    "place_id": "ChIJ5Wlsf8KuEmsRjWWu4CK6RHI",
    "maps_url": "https://www.google.com/maps/place/?q=place_id:ChIJ5Wlsf8KuEmsRjWWu4CK6RHI",
    "rating": 4.2,
    "total_ratings": 292
  },
  {
    "name": "Bay Run Coffee & Bistro Rodd Point",
    "address": "54 First Ave, Rodd Point",
    "suburb": "Chatswood",
    "state": "NSW",
    "lat": -33.8660548,
    "lng": 151.1411343,
    "place_id": "ChIJQW4g91evEmsRKjKHOEZwRpI",
    "maps_url": "https://www.google.com/maps/place/?q=place_id:ChIJQW4g91evEmsRKjKHOEZwRpI",
    "rating": 4.4,
    "total_ratings": 188
  },
  {
    "name": "Sounds Sydney Cafe (Laneway Cafe)",
    "address": "Suite 4/457 Miller St, Cammeray",
    "suburb": "Chatswood",
    "state": "NSW",
    "lat": -33.8220327,
    "lng": 151.2108711,
    "place_id": "ChIJcQApobiuEmsRuiWbxiHrRlQ",
    "maps_url": "https://www.google.com/maps/place/?q=place_id:ChIJcQApobiuEmsRuiWbxiHrRlQ",
    "rating": 4.5,
    "total_ratings": 408
  },
  {
    "name": "Maggio's Cafe",
    "address": "457 Miller St, Cammeray",
    "suburb": "Chatswood",
    "state": "NSW",
    "lat": -33.8220321,
    "lng": 151.2105711,
    "place_id": "ChIJt19coriuEmsRpRZWGvYQ9tE",
    "maps_url": "https://www.google.com/maps/place/?q=place_id:ChIJt19coriuEmsRpRZWGvYQ9tE",
    "rating": 4.6,
    "total_ratings": 908
  },
  {
    "name": "Bonds Corner Cafe",
    "address": "Unit 2/395 Sailors Bay Rd, Northbridge",
    "suburb": "Chatswood",
    "state": "NSW",
    "lat": -33.8101141,
    "lng": 151.2225342,
    "place_id": "ChIJX8FWpVKpEmsRGsBygZ5-Vk0",
    "maps_url": "https://www.google.com/maps/place/?q=place_id:ChIJX8FWpVKpEmsRGsBygZ5-Vk0",
    "rating": 4.4,
    "total_ratings": 167
  },
  {
    "name": "Avenue Road Cafe Mosman",
    "address": "185 Avenue Rd, Mosman",
    "suburb": "Chatswood",
    "state": "NSW",
    "lat": -33.8302419,
    "lng": 151.2439114,
    "place_id": "ChIJm1RqFRqsEmsRZMoxO3tQUZc",
    "maps_url": "https://www.google.com/maps/place/?q=place_id:ChIJm1RqFRqsEmsRZMoxO3tQUZc",
    "rating": 4.3,
    "total_ratings": 572
  },
  {
    "name": "Not Bread Alone Restaurant & Cafe",
    "address": "376 Pacific Hwy, Crows Nest",
    "suburb": "Chatswood",
    "state": "NSW",
    "lat": -33.8262766,
    "lng": 151.1991229,
    "place_id": "ChIJAdJ3DuiuEmsR23COFADCGnY",
    "maps_url": "https://www.google.com/maps/place/?q=place_id:ChIJAdJ3DuiuEmsR23COFADCGnY",
    "rating": 4.1,
    "total_ratings": 521
  },
  {
    "name": "Brew Cafe",
    "address": "121-127 Harrington St, The Rocks",
    "suburb": "Chatswood",
    "state": "NSW",
    "lat": -33.8624024,
    "lng": 151.2066593,
    "place_id": "ChIJE3_lz0OuEmsRhsM7BqX06Nc",
    "maps_url": "https://www.google.com/maps/place/?q=place_id:ChIJE3_lz0OuEmsRhsM7BqX06Nc",
    "rating": 4.6,
    "total_ratings": 390
  },
  {
    "name": "Seven Valleys Cafe",
    "address": "13 Watts Rd, Ryde",
    "suburb": "Chatswood",
    "state": "NSW",
    "lat": -33.7937602,
    "lng": 151.1031289,
    "place_id": "ChIJ6TmecE-lEmsRKrGdv0W9wUc",
    "maps_url": "https://www.google.com/maps/place/?q=place_id:ChIJ6TmecE-lEmsRKrGdv0W9wUc",
    "rating": 4.7,
    "total_ratings": 416
  },
  {
    "name": "Cafe Saluto",
    "address": "96 Pacific Hwy, Roseville",
    "suburb": "Chatswood",
    "state": "NSW",
    "lat": -33.7847334,
    "lng": 151.1770251,
    "place_id": "ChIJw4AjgJqpEmsRLl-_nB9_K3c",
    "maps_url": "https://www.google.com/maps/place/?q=place_id:ChIJw4AjgJqpEmsRLl-_nB9_K3c",
    "rating": 4.7,
    "total_ratings": 95
  },
  {
    "name": "Oasis Cafe Macquarie Centre",
    "address": "Level 3/197-223 Herring Rd, Macquarie Park",
    "suburb": "Chatswood",
    "state": "NSW",
    "lat": -33.7773306,
    "lng": 151.120676,
    "place_id": "ChIJy6jzeLCnEmsRuoW2AONGLog",
    "maps_url": "https://www.google.com/maps/place/?q=place_id:ChIJy6jzeLCnEmsRuoW2AONGLog",
    "rating": 4.3,
    "total_ratings": 241
  },
  {
    "name": "Kana Sushi East Ryde & Fox and Bird Cafe",
    "address": "8 Sager Pl, East Ryde",
    "suburb": "Chatswood",
    "state": "NSW",
    "lat": -33.8100303,
    "lng": 151.1318709,
    "place_id": "ChIJp5VI44ylEmsRMz-Emj8yKw4",
    "maps_url": "https://www.google.com/maps/place/?q=place_id:ChIJp5VI44ylEmsRMz-Emj8yKw4",
    "rating": 4.5,
    "total_ratings": 332
  },
  {
    "name": "Birdwood Cafe",
    "address": "24 Birdwood Ln, Lane Cove",
    "suburb": "Chatswood",
    "state": "NSW",
    "lat": -33.8138929,
    "lng": 151.1694278,
    "place_id": "ChIJ2QX5AzyvEmsRnv73jmqfTZ0",
    "maps_url": "https://www.google.com/maps/place/?q=place_id:ChIJ2QX5AzyvEmsRnv73jmqfTZ0",
    "rating": 4.3,
    "total_ratings": 435
  },
  {
    "name": "Loftus Lane Cafe Cocktail Bar",
    "address": "Shop 3/38-42 Bridge St, Sydney",
    "suburb": "Chatswood",
    "state": "NSW",
    "lat": -33.8632738,
    "lng": 151.210541,
    "place_id": "ChIJ96sujrivEmsRQW0PcQ1vqdE",
    "maps_url": "https://www.google.com/maps/place/?q=place_id:ChIJ96sujrivEmsRQW0PcQ1vqdE",
    "rating": 4.1,
    "total_ratings": 317
  },
  {
    "name": "Mr.H Cafe and bar",
    "address": "Shop 11/418 Darling St, Balmain",
    "suburb": "Chatswood",
    "state": "NSW",
    "lat": -33.856067,
    "lng": 151.17456,
    "place_id": "ChIJ4ZxN3bmvEmsR90kpZgrmaWM",
    "maps_url": "https://www.google.com/maps/place/?q=place_id:ChIJ4ZxN3bmvEmsR90kpZgrmaWM",
    "rating": 4.4,
    "total_ratings": 202
  },
  {
    "name": "Frenchy's Cafe",
    "address": "3 Read Pl, Mosman",
    "suburb": "Chatswood",
    "state": "NSW",
    "lat": -33.8334581,
    "lng": 151.2575512,
    "place_id": "ChIJ4x3zyWysEmsR747TUewQHek",
    "maps_url": "https://www.google.com/maps/place/?q=place_id:ChIJ4x3zyWysEmsR747TUewQHek",
    "rating": 4.3,
    "total_ratings": 780
  },
  {
    "name": "Trovatino Cafe",
    "address": "268 Great N Rd, Wareemba",
    "suburb": "Chatswood",
    "state": "NSW",
    "lat": -33.8576757,
    "lng": 151.1311909,
    "place_id": "ChIJ_RM881qlEmsRGjMGcAHqhWM",
    "maps_url": "https://www.google.com/maps/place/?q=place_id:ChIJ_RM881qlEmsRGjMGcAHqhWM",
    "rating": 4.4,
    "total_ratings": 746
  },
  {
    "name": "Fourth Fish Cafe & Restaurant",
    "address": "1/12-16 Burns Bay Rd, Lane Cove",
    "suburb": "Chatswood",
    "state": "NSW",
    "lat": -33.81473709999999,
    "lng": 151.1694649,
    "place_id": "ChIJVavOKTyvEmsRkrgmC_8tsPM",
    "maps_url": "https://www.google.com/maps/place/?q=place_id:ChIJVavOKTyvEmsRkrgmC_8tsPM",
    "rating": 4.3,
    "total_ratings": 302
  },
  {
    "name": "BaySide by Chef Michael",
    "address": "48 Yeo St, Neutral Bay",
    "suburb": "Chatswood",
    "state": "NSW",
    "lat": -33.8321939,
    "lng": 151.222425,
    "place_id": "ChIJJS5zKj-vEmsReZrBRR4mw-o",
    "maps_url": "https://www.google.com/maps/place/?q=place_id:ChIJJS5zKj-vEmsReZrBRR4mw-o",
    "rating": 4.7,
    "total_ratings": 189
  },
  {
    "name": "Leaf Cafe & Co North Ryde",
    "address": "Shop 6/5 Halifax St, Macquarie Park",
    "suburb": "Chatswood",
    "state": "NSW",
    "lat": -33.793237,
    "lng": 151.134503,
    "place_id": "ChIJV10zqeClEmsRT-w5bk20AJI",
    "maps_url": "https://www.google.com/maps/place/?q=place_id:ChIJV10zqeClEmsRT-w5bk20AJI",
    "rating": 4.2,
    "total_ratings": 336
  },
  {
    "name": "Tea Square Cafe",
    "address": "Mandarin Center, Shop 210/65 Albert Ave, Chatswood",
    "suburb": "Chatswood",
    "state": "NSW",
    "lat": -33.7978027,
    "lng": 151.1826172,
    "place_id": "ChIJKyfoYdSoEmsRFJws7J14eR0",
    "maps_url": "https://www.google.com/maps/place/?q=place_id:ChIJKyfoYdSoEmsRFJws7J14eR0",
    "rating": 4.5,
    "total_ratings": 256
  },
  {
    "name": "Old Quarter Cafe",
    "address": "105 Longueville Rd, Lane Cove",
    "suburb": "Chatswood",
    "state": "NSW",
    "lat": -33.8140541,
    "lng": 151.1695421,
    "place_id": "ChIJF2GBf3OvEmsRNYAj3kWGgIY",
    "maps_url": "https://www.google.com/maps/place/?q=place_id:ChIJF2GBf3OvEmsRNYAj3kWGgIY",
    "rating": 4.4,
    "total_ratings": 201
  },
  {
    "name": "Roseberry Street Cafe",
    "address": "2/62 Balgowlah Rd, Balgowlah",
    "suburb": "Chatswood",
    "state": "NSW",
    "lat": -33.7902681,
    "lng": 151.2670571,
    "place_id": "ChIJt8ndrtPDEmsR1Du5mqlIsLM",
    "maps_url": "https://www.google.com/maps/place/?q=place_id:ChIJt8ndrtPDEmsR1Du5mqlIsLM",
    "rating": 4.4,
    "total_ratings": 441
  },
  {
    "name": "Blu Eatery",
    "address": "Shop B22 Florence St, Hornsby",
    "suburb": "Hornsby",
    "state": "NSW",
    "lat": -33.704202,
    "lng": 151.100721,
    "place_id": "ChIJ1YybE4SnEmsRKj6L4ZV2BFI",
    "maps_url": "https://www.google.com/maps/place/?q=place_id:ChIJ1YybE4SnEmsRKj6L4ZV2BFI",
    "rating": 4.2,
    "total_ratings": 1725
  },
  {
    "name": "The Corner 5 Cafe",
    "address": "Shop5/399/407 Pacific Hwy, Asquith",
    "suburb": "Hornsby",
    "state": "NSW",
    "lat": -33.6875435,
    "lng": 151.1083714,
    "place_id": "ChIJa_ik_cxZDWsRElUA6_Yaznc",
    "maps_url": "https://www.google.com/maps/place/?q=place_id:ChIJa_ik_cxZDWsRElUA6_Yaznc",
    "rating": 4.6,
    "total_ratings": 253
  },
  {
    "name": "Cafe Hylton",
    "address": "Shop 2/106 Yarrara Rd, Pennant Hills",
    "suburb": "Hornsby",
    "state": "NSW",
    "lat": -33.7384223,
    "lng": 151.0712738,
    "place_id": "ChIJGxS-Mw6nEmsRuJLAROiMf4w",
    "maps_url": "https://www.google.com/maps/place/?q=place_id:ChIJGxS-Mw6nEmsRuJLAROiMf4w",
    "rating": 4.4,
    "total_ratings": 358
  },
  {
    "name": "Over The Bridge cafe",
    "address": "Arcade, Shop 34A, Level 4/767 Pacific Hwy, Gordon",
    "suburb": "Hornsby",
    "state": "NSW",
    "lat": -33.7550661,
    "lng": 151.1528364,
    "place_id": "ChIJbUW8Yc6pEmsR2OCJpfudZe0",
    "maps_url": "https://www.google.com/maps/place/?q=place_id:ChIJbUW8Yc6pEmsR2OCJpfudZe0",
    "rating": 4.7,
    "total_ratings": 127
  },
  {
    "name": "Centre point cafe",
    "address": "Westfield Hornsby, Kiosk 105, Level 1/236 Pacific Hwy, Hornsby",
    "suburb": "Hornsby",
    "state": "NSW",
    "lat": -33.7041017,
    "lng": 151.1004336,
    "place_id": "ChIJTxC0i56nEmsR2ZNrmSigP-A",
    "maps_url": "https://www.google.com/maps/place/?q=place_id:ChIJTxC0i56nEmsR2ZNrmSigP-A",
    "rating": 4.7,
    "total_ratings": 210
  },
  {
    "name": "Cafe Talk Nepalese Restaurant - Hornsby",
    "address": "282 Peats Ferry Rd, Hornsby",
    "suburb": "Hornsby",
    "state": "NSW",
    "lat": -33.7023226,
    "lng": 151.0971644,
    "place_id": "ChIJC5pNsuinEmsRSTeDjLUhJrE",
    "maps_url": "https://www.google.com/maps/place/?q=place_id:ChIJC5pNsuinEmsRSTeDjLUhJrE",
    "rating": 4.7,
    "total_ratings": 239
  },
  {
    "name": "Stanley St Cafe",
    "address": "Unit 15/17 Stanley St, St Ives",
    "suburb": "Hornsby",
    "state": "NSW",
    "lat": -33.7298667,
    "lng": 151.1625925,
    "place_id": "ChIJUd7BxhWoEmsR137d0xRtfBQ",
    "maps_url": "https://www.google.com/maps/place/?q=place_id:ChIJUd7BxhWoEmsR137d0xRtfBQ",
    "rating": 4.3,
    "total_ratings": 433
  },
  {
    "name": "The Monday Morning Cafe",
    "address": "86 The Esplanade, Thornleigh",
    "suburb": "Hornsby",
    "state": "NSW",
    "lat": -33.7315087,
    "lng": 151.0777675,
    "place_id": "ChIJPfTqwB2nEmsRBBivJIAPL5s",
    "maps_url": "https://www.google.com/maps/place/?q=place_id:ChIJPfTqwB2nEmsRBBivJIAPL5s",
    "rating": 4.3,
    "total_ratings": 666
  },
  {
    "name": "Waterside Bistro - waterfront cafe",
    "address": "1002 Bobbin Head Rd, North Turramurra",
    "suburb": "Hornsby",
    "state": "NSW",
    "lat": -33.6622825,
    "lng": 151.1622177,
    "place_id": "ChIJbwIEQJpXDWsR3fzt-A5KnOI",
    "maps_url": "https://www.google.com/maps/place/?q=place_id:ChIJbwIEQJpXDWsR3fzt-A5KnOI",
    "rating": 4.2,
    "total_ratings": 364
  },
  {
    "name": "Benzin Cafe",
    "address": "1/242 New Line Rd, Dural",
    "suburb": "Hornsby",
    "state": "NSW",
    "lat": -33.7033039,
    "lng": 151.0269348,
    "place_id": "ChIJP3F-UkehEmsRx7knJG2fqys",
    "maps_url": "https://www.google.com/maps/place/?q=place_id:ChIJP3F-UkehEmsRx7knJG2fqys",
    "rating": 4.5,
    "total_ratings": 608
  },
  {
    "name": "Cafe Milligram St Ives",
    "address": "Shop 25/166 Mona Vale Rd, St Ives",
    "suburb": "Hornsby",
    "state": "NSW",
    "lat": -33.7297337,
    "lng": 151.1582601,
    "place_id": "ChIJiUSYcBSoEmsRBFgv_Uh_aA0",
    "maps_url": "https://www.google.com/maps/place/?q=place_id:ChIJiUSYcBSoEmsRBFgv_Uh_aA0",
    "rating": 4.4,
    "total_ratings": 88
  },
  {
    "name": "SAH Cafe and Bistro",
    "address": "403/185 Fox Valley Rd, Wahroonga",
    "suburb": "Hornsby",
    "state": "NSW",
    "lat": -33.7337745,
    "lng": 151.0991509,
    "place_id": "ChIJU7kU-qunEmsR-5NdfacDVp8",
    "maps_url": "https://www.google.com/maps/place/?q=place_id:ChIJU7kU-qunEmsR-5NdfacDVp8",
    "rating": 4.2,
    "total_ratings": 32
  },
  {
    "name": "C'est Bon Toastie Cafe",
    "address": "Unit 5/2 Oxford St, Epping",
    "suburb": "Hornsby",
    "state": "NSW",
    "lat": -33.7722997,
    "lng": 151.0828129,
    "place_id": "ChIJS6qlOsGnEmsRY5tX4pCrYzs",
    "maps_url": "https://www.google.com/maps/place/?q=place_id:ChIJS6qlOsGnEmsRY5tX4pCrYzs",
    "rating": 4.5,
    "total_ratings": 159
  },
  {
    "name": "Divan Persian Restaurant",
    "address": "552 Pacific Hwy, Killara",
    "suburb": "Hornsby",
    "state": "NSW",
    "lat": -33.769453,
    "lng": 151.1598914,
    "place_id": "ChIJqSz8xLSpEmsR1jKY09-0oXg",
    "maps_url": "https://www.google.com/maps/place/?q=place_id:ChIJqSz8xLSpEmsR1jKY09-0oXg",
    "rating": 4.2,
    "total_ratings": 1156
  },
  {
    "name": "Wildpear Cafe",
    "address": "658 Old Northern Rd, Dural",
    "suburb": "Hornsby",
    "state": "NSW",
    "lat": -33.6775665,
    "lng": 151.0261839,
    "place_id": "ChIJVVF87l9fDWsRAEcOSbMxagY",
    "maps_url": "https://www.google.com/maps/place/?q=place_id:ChIJVVF87l9fDWsRAEcOSbMxagY",
    "rating": 4.3,
    "total_ratings": 2248
  },
  {
    "name": "The Living Room Café",
    "address": "166 Mona Vale Rd, St Ives",
    "suburb": "Hornsby",
    "state": "NSW",
    "lat": -33.7295015,
    "lng": 151.1587615,
    "place_id": "ChIJo1_NbRSoEmsRO2IyHalZPPo",
    "maps_url": "https://www.google.com/maps/place/?q=place_id:ChIJo1_NbRSoEmsRO2IyHalZPPo",
    "rating": 4.2,
    "total_ratings": 298
  },
  {
    "name": "Grind & Bloom Cafe",
    "address": "8/35 Coonara Ave, West Pennant Hills",
    "suburb": "Hornsby",
    "state": "NSW",
    "lat": -33.7450137,
    "lng": 151.0308086,
    "place_id": "ChIJ6UOx5MehEmsRTdU9ZgM7Mfg",
    "maps_url": "https://www.google.com/maps/place/?q=place_id:ChIJ6UOx5MehEmsRTdU9ZgM7Mfg",
    "rating": 4.7,
    "total_ratings": 139
  },
  {
    "name": "Cedarwood Cafe",
    "address": "23 Coonanbarra Rd, Wahroonga",
    "suburb": "Hornsby",
    "state": "NSW",
    "lat": -33.71852,
    "lng": 151.1162314,
    "place_id": "ChIJpVHUx5SnEmsRTW4TIOk6UR4",
    "maps_url": "https://www.google.com/maps/place/?q=place_id:ChIJpVHUx5SnEmsRTW4TIOk6UR4",
    "rating": 4.3,
    "total_ratings": 463
  },
  {
    "name": "The Dining and Co Hornsby",
    "address": "412 Peats Ferry Rd, Hornsby",
    "suburb": "Hornsby",
    "state": "NSW",
    "lat": -33.6910942,
    "lng": 151.1013408,
    "place_id": "ChIJ9yQZeLhZDWsRMWqrSDW8IHU",
    "maps_url": "https://www.google.com/maps/place/?q=place_id:ChIJ9yQZeLhZDWsRMWqrSDW8IHU",
    "rating": 4.3,
    "total_ratings": 314
  },
  {
    "name": "Jaam-e-Jam Restaurant",
    "address": "133/121 Pacific Hwy, Hornsby",
    "suburb": "Hornsby",
    "state": "NSW",
    "lat": -33.7066287,
    "lng": 151.0985428,
    "place_id": "ChIJ5W6VUU15tAERv-V25UWEMmQ",
    "maps_url": "https://www.google.com/maps/place/?q=place_id:ChIJ5W6VUU15tAERv-V25UWEMmQ",
    "rating": 4.4,
    "total_ratings": 1090
  },
  {
    "name": "The Wyatt",
    "address": "77 Werona Ave, Gordon",
    "suburb": "Hornsby",
    "state": "NSW",
    "lat": -33.7558098,
    "lng": 151.1551258,
    "place_id": "ChIJZ_68WtupEmsRXDsGFihY32g",
    "maps_url": "https://www.google.com/maps/place/?q=place_id:ChIJZ_68WtupEmsRXDsGFihY32g",
    "rating": 4.3,
    "total_ratings": 600
  },
  {
    "name": "The Butcher's Block",
    "address": "15 Redleaf Ave, Wahroonga",
    "suburb": "Hornsby",
    "state": "NSW",
    "lat": -33.7187197,
    "lng": 151.1172828,
    "place_id": "ChIJGxbNS-unEmsRGirQ-eAF1NQ",
    "maps_url": "https://www.google.com/maps/place/?q=place_id:ChIJGxbNS-unEmsRGirQ-eAF1NQ",
    "rating": 4.1,
    "total_ratings": 1677
  },
  {
    "name": "Mexis Cafe",
    "address": "3/83 David Rd, Castle Hill",
    "suburb": "Hornsby",
    "state": "NSW",
    "lat": -33.7217972,
    "lng": 151.0255621,
    "place_id": "ChIJ7zC_SyChEmsRpKNE0G5QMJw",
    "maps_url": "https://www.google.com/maps/place/?q=place_id:ChIJ7zC_SyChEmsRpKNE0G5QMJw",
    "rating": 4.2,
    "total_ratings": 112
  },
  {
    "name": "Sugar Salt Cafe",
    "address": "344 Galston Rd, Galston",
    "suburb": "Hornsby",
    "state": "NSW",
    "lat": -33.6529083,
    "lng": 151.0474244,
    "place_id": "ChIJ5XIPstJYDWsRcluA5kQAqzY",
    "maps_url": "https://www.google.com/maps/place/?q=place_id:ChIJ5XIPstJYDWsRcluA5kQAqzY",
    "rating": 4.3,
    "total_ratings": 597
  },
  {
    "name": "PCYC CAFE WAITARA\\ HORNSBY",
    "address": "1 Park Ln, Waitara",
    "suburb": "Hornsby",
    "state": "NSW",
    "lat": -33.70890360000001,
    "lng": 151.1058316,
    "place_id": "ChIJ1W2mViOnEmsRmSXDYjqQTr4",
    "maps_url": "https://www.google.com/maps/place/?q=place_id:ChIJ1W2mViOnEmsRmSXDYjqQTr4",
    "rating": 4.5,
    "total_ratings": 35
  },
  {
    "name": "Cafe Once Upon a Time Normanhurst",
    "address": "46 Denman Parade, Normanhurst",
    "suburb": "Hornsby",
    "state": "NSW",
    "lat": -33.7213859,
    "lng": 151.0969694,
    "place_id": "ChIJxzM-BXinEmsROqjm7Pn-dDk",
    "maps_url": "https://www.google.com/maps/place/?q=place_id:ChIJxzM-BXinEmsROqjm7Pn-dDk",
    "rating": 4.4,
    "total_ratings": 194
  },
  {
    "name": "Olea Lindfield",
    "address": "Unit 8/10 Tryon Rd, Lindfield",
    "suburb": "Hornsby",
    "state": "NSW",
    "lat": -33.774828,
    "lng": 151.1697423,
    "place_id": "ChIJiYU70fapEmsRPrZoncIi3tc",
    "maps_url": "https://www.google.com/maps/place/?q=place_id:ChIJiYU70fapEmsRPrZoncIi3tc",
    "rating": 4.5,
    "total_ratings": 334
  },
  {
    "name": "Jiminis Cafe",
    "address": "236 Pacific Hwy, Hornsby",
    "suburb": "Hornsby",
    "state": "NSW",
    "lat": -33.7053231,
    "lng": 151.0999833,
    "place_id": "ChIJVVhAgIOnEmsRuN58_Ot3EM8",
    "maps_url": "https://www.google.com/maps/place/?q=place_id:ChIJVVhAgIOnEmsRuN58_Ot3EM8",
    "rating": 4.1,
    "total_ratings": 280
  },
  {
    "name": "Archies Cafe co St Ives",
    "address": "166 Mona Vale Rd, St Ives",
    "suburb": "Hornsby",
    "state": "NSW",
    "lat": -33.7297975,
    "lng": 151.1585397,
    "place_id": "ChIJqQ76fRGpEmsRe2YQyNtsCPs",
    "maps_url": "https://www.google.com/maps/place/?q=place_id:ChIJqQ76fRGpEmsRe2YQyNtsCPs",
    "rating": 4.2,
    "total_ratings": 127
  },
  {
    "name": "Cafe de Hayley",
    "address": "Shop 3/74 Rawson St, Epping",
    "suburb": "Hornsby",
    "state": "NSW",
    "lat": -33.7713948,
    "lng": 151.0804986,
    "place_id": "ChIJY1fim7KnEmsRwbRn0CnN1IM",
    "maps_url": "https://www.google.com/maps/place/?q=place_id:ChIJY1fim7KnEmsRwbRn0CnN1IM",
    "rating": 4.3,
    "total_ratings": 312
  },
  {
    "name": "Curl the Whisker Cafe",
    "address": "4 Station St, Thornleigh",
    "suburb": "Hornsby",
    "state": "NSW",
    "lat": -33.73172479999999,
    "lng": 151.0787993,
    "place_id": "ChIJEwAboh2nEmsRb3Tg8NJ01iU",
    "maps_url": "https://www.google.com/maps/place/?q=place_id:ChIJEwAboh2nEmsRb3Tg8NJ01iU",
    "rating": 4.5,
    "total_ratings": 256
  },
  {
    "name": "49 Cafe Early Bird Epping",
    "address": "49 Beecroft Rd, Epping",
    "suburb": "Hornsby",
    "state": "NSW",
    "lat": -33.773042,
    "lng": 151.0815109,
    "place_id": "ChIJS-A8xR2nEmsRA6h3Lm7gUHM",
    "maps_url": "https://www.google.com/maps/place/?q=place_id:ChIJS-A8xR2nEmsRA6h3Lm7gUHM",
    "rating": 4.4,
    "total_ratings": 213
  },
  {
    "name": "Santo Cafe & Restaurant",
    "address": "1/7 Ward Pl, Dural",
    "suburb": "Hornsby",
    "state": "NSW",
    "lat": -33.6929171,
    "lng": 151.0196413,
    "place_id": "ChIJt2t8Z4ChEmsRGNRDtXd_FF0",
    "maps_url": "https://www.google.com/maps/place/?q=place_id:ChIJt2t8Z4ChEmsRGNRDtXd_FF0",
    "rating": 4.8,
    "total_ratings": 152
  },
  {
    "name": "Twenty 74 Cafe",
    "address": "265 Bobbin Head Rd, North Turramurra",
    "suburb": "Hornsby",
    "state": "NSW",
    "lat": -33.7135625,
    "lng": 151.1473263,
    "place_id": "ChIJ_cBy6gOoEmsRodBosBHp6CM",
    "maps_url": "https://www.google.com/maps/place/?q=place_id:ChIJ_cBy6gOoEmsRodBosBHp6CM",
    "rating": 4.1,
    "total_ratings": 315
  },
  {
    "name": "Crunch Café",
    "address": "Macquarie University Sport and Aquatic Centre, Level 1 Gymnasium Rd, Macquarie Park",
    "suburb": "Hornsby",
    "state": "NSW",
    "lat": -33.7723571,
    "lng": 151.1107096,
    "place_id": "ChIJtfAX-3GmEmsRU-ZJe4xvuzo",
    "maps_url": "https://www.google.com/maps/place/?q=place_id:ChIJtfAX-3GmEmsRU-ZJe4xvuzo",
    "rating": 3.5,
    "total_ratings": 73
  },
  {
    "name": "Pennant Hills Heritage Cafe",
    "address": "9/7 Hillcrest Rd, Pennant Hills",
    "suburb": "Hornsby",
    "state": "NSW",
    "lat": -33.7380295,
    "lng": 151.070178,
    "place_id": "ChIJO7Nlht2mEmsRrzVBeE7rfy8",
    "maps_url": "https://www.google.com/maps/place/?q=place_id:ChIJO7Nlht2mEmsRrzVBeE7rfy8",
    "rating": 4.1,
    "total_ratings": 189
  },
  {
    "name": "Goodfields Eatery",
    "address": "Shop 4/5 37 Lindfield Ave, Lindfield",
    "suburb": "Hornsby",
    "state": "NSW",
    "lat": -33.7748627,
    "lng": 151.1693283,
    "place_id": "ChIJ2wThrSKpEmsRSk-m9U2JV_k",
    "maps_url": "https://www.google.com/maps/place/?q=place_id:ChIJ2wThrSKpEmsRSk-m9U2JV_k",
    "rating": 4.4,
    "total_ratings": 1139
  },
  {
    "name": "Somewhere North",
    "address": "Shop 2/160 Warrimoo Ave, St Ives Chase",
    "suburb": "Hornsby",
    "state": "NSW",
    "lat": -33.7112624,
    "lng": 151.1598131,
    "place_id": "ChIJBV8UdQdXDWsROs3ndznYA8o",
    "maps_url": "https://www.google.com/maps/place/?q=place_id:ChIJBV8UdQdXDWsROs3ndznYA8o",
    "rating": 4.6,
    "total_ratings": 223
  },
  {
    "name": "the Cockatoo Bar & Restaurant",
    "address": "Shop 8-9/741 Pacific Hwy, Gordon",
    "suburb": "Hornsby",
    "state": "NSW",
    "lat": -33.755772,
    "lng": 151.15332,
    "place_id": "ChIJRV5YSdupEmsRw4BSY6CPma4",
    "maps_url": "https://www.google.com/maps/place/?q=place_id:ChIJRV5YSdupEmsRw4BSY6CPma4",
    "rating": 3.7,
    "total_ratings": 129
  },
  {
    "name": "Pronto Rocks Cafe",
    "address": "318 N Rocks Rd, North Rocks",
    "suburb": "Hornsby",
    "state": "NSW",
    "lat": -33.76886500000001,
    "lng": 151.028155,
    "place_id": "ChIJNe_YZaujEmsRzUppClq_b7w",
    "maps_url": "https://www.google.com/maps/place/?q=place_id:ChIJNe_YZaujEmsRzUppClq_b7w",
    "rating": 4.2,
    "total_ratings": 255
  },
  {
    "name": "Cafe Patina",
    "address": "64 Coonanbarra Rd, Wahroonga",
    "suburb": "Hornsby",
    "state": "NSW",
    "lat": -33.715761,
    "lng": 151.1165109,
    "place_id": "ChIJT6T9NpOnEmsRm5Z0VQme2_4",
    "maps_url": "https://www.google.com/maps/place/?q=place_id:ChIJT6T9NpOnEmsRm5Z0VQme2_4",
    "rating": 4.1,
    "total_ratings": 515
  },
  {
    "name": "Station Street Bistro",
    "address": "31 Station St, Hornsby",
    "suburb": "Hornsby",
    "state": "NSW",
    "lat": -33.7026286,
    "lng": 151.0978285,
    "place_id": "ChIJsU7t3oOnEmsR3HRHJ0oQsq0",
    "maps_url": "https://www.google.com/maps/place/?q=place_id:ChIJsU7t3oOnEmsR3HRHJ0oQsq0",
    "rating": 4,
    "total_ratings": 69
  },
  {
    "name": "Comme Chez Nous",
    "address": "1/97 Grandview St, Pymble",
    "suburb": "Hornsby",
    "state": "NSW",
    "lat": -33.7442239,
    "lng": 151.14166,
    "place_id": "ChIJgdNt5c6pEmsR7aJzxSOW3W8",
    "maps_url": "https://www.google.com/maps/place/?q=place_id:ChIJgdNt5c6pEmsR7aJzxSOW3W8",
    "rating": 4.8,
    "total_ratings": 460
  },
  {
    "name": "SALT Cafe Dural",
    "address": "Shop 9, Dural Mall, Kenthurst Rd, Dural",
    "suburb": "Hornsby",
    "state": "NSW",
    "lat": -33.6930375,
    "lng": 151.018336,
    "place_id": "ChIJ10m-BZSgEmsRQMzQJ8uYIeQ",
    "maps_url": "https://www.google.com/maps/place/?q=place_id:ChIJ10m-BZSgEmsRQMzQJ8uYIeQ",
    "rating": 4.5,
    "total_ratings": 231
  },
  {
    "name": "Green Vibes Cafe",
    "address": "490 Galston Rd, Dural",
    "suburb": "Hornsby",
    "state": "NSW",
    "lat": -33.6734257,
    "lng": 151.032432,
    "place_id": "ChIJay3MlMFfDWsRivA2EBnbiIE",
    "maps_url": "https://www.google.com/maps/place/?q=place_id:ChIJay3MlMFfDWsRivA2EBnbiIE",
    "rating": 4.2,
    "total_ratings": 113
  },
  {
    "name": "Twenty74 Bar & Grill",
    "address": "2/1 Normurra Ave, North Turramurra",
    "suburb": "Hornsby",
    "state": "NSW",
    "lat": -33.7135796,
    "lng": 151.1475081,
    "place_id": "ChIJM3Kp-hypEmsR8LMBbvMUTmg",
    "maps_url": "https://www.google.com/maps/place/?q=place_id:ChIJM3Kp-hypEmsR8LMBbvMUTmg",
    "rating": 4.7,
    "total_ratings": 49
  },
  {
    "name": "Cafe Saligna",
    "address": "Cumberland State Forest, 95 Castle Hill Rd, West Pennant Hills",
    "suburb": "Hornsby",
    "state": "NSW",
    "lat": -33.7448081,
    "lng": 151.0381622,
    "place_id": "ChIJyXvt7jahEmsR1ju_O0sBNu8",
    "maps_url": "https://www.google.com/maps/place/?q=place_id:ChIJyXvt7jahEmsR1ju_O0sBNu8",
    "rating": 3.2,
    "total_ratings": 574
  },
  {
    "name": "Café Lyon",
    "address": "366 Pacific Hwy, Lindfield",
    "suburb": "Hornsby",
    "state": "NSW",
    "lat": -33.7744517,
    "lng": 151.1679265,
    "place_id": "ChIJY9kOSOqoEmsRms8pNZZd2aM",
    "maps_url": "https://www.google.com/maps/place/?q=place_id:ChIJY9kOSOqoEmsRms8pNZZd2aM",
    "rating": 4.6,
    "total_ratings": 669
  },
  {
    "name": "Three Beans Cafe St Ives",
    "address": "Shop 68/166 Mona Vale Rd, St Ives",
    "suburb": "Hornsby",
    "state": "NSW",
    "lat": -33.7298798,
    "lng": 151.1594948,
    "place_id": "ChIJkdqOJLSpEmsRQZp_b7taYcw",
    "maps_url": "https://www.google.com/maps/place/?q=place_id:ChIJkdqOJLSpEmsRQZp_b7taYcw",
    "rating": 3.8,
    "total_ratings": 92
  },
  {
    "name": "Brasserie L'Entrecôte",
    "address": "1047 Pacific Hwy, Pymble",
    "suburb": "Hornsby",
    "state": "NSW",
    "lat": -33.74246979999999,
    "lng": 151.1398597,
    "place_id": "ChIJbySxGNanEmsRzKYOLSDXbWY",
    "maps_url": "https://www.google.com/maps/place/?q=place_id:ChIJbySxGNanEmsRzKYOLSDXbWY",
    "rating": 4.7,
    "total_ratings": 1516
  },
  {
    "name": "Bunker Cafe",
    "address": "142-178 Pennant Hills Rd, Thornleigh",
    "suburb": "Hornsby",
    "state": "NSW",
    "lat": -33.7239122,
    "lng": 151.0870048,
    "place_id": "ChIJJwpsYg-nEmsRnOg_Ice54hQ",
    "maps_url": "https://www.google.com/maps/place/?q=place_id:ChIJJwpsYg-nEmsRnOg_Ice54hQ",
    "rating": 3.9,
    "total_ratings": 14
  },
  {
    "name": "Dukes Green Cafe",
    "address": "15 Hughes Pl, East Lindfield",
    "suburb": "Hornsby",
    "state": "NSW",
    "lat": -33.767457,
    "lng": 151.187768,
    "place_id": "ChIJNUAGbQKpEmsRnKuQ25mYzWQ",
    "maps_url": "https://www.google.com/maps/place/?q=place_id:ChIJNUAGbQKpEmsRnKuQ25mYzWQ",
    "rating": 4.4,
    "total_ratings": 149
  },
  {
    "name": "Zappi's Pizzeria Cafe Epping",
    "address": "17 Oxford St, Epping",
    "suburb": "Hornsby",
    "state": "NSW",
    "lat": -33.7713751,
    "lng": 151.0826951,
    "place_id": "ChIJl8uON4OmEmsR9PvjLHlP-Kc",
    "maps_url": "https://www.google.com/maps/place/?q=place_id:ChIJl8uON4OmEmsR9PvjLHlP-Kc",
    "rating": 4.5,
    "total_ratings": 546
  },
  {
    "name": "CHEF'S CAFE GORDON",
    "address": "SHOP 6/802-880 Pacific Hwy, Gordon",
    "suburb": "Hornsby",
    "state": "NSW",
    "lat": -33.7551329,
    "lng": 151.1522221,
    "place_id": "ChIJeeGoh-OpEmsRXy-cilqyNIU",
    "maps_url": "https://www.google.com/maps/place/?q=place_id:ChIJeeGoh-OpEmsRXy-cilqyNIU",
    "rating": 3.9,
    "total_ratings": 42
  },
  {
    "name": "Marian St. Cafe",
    "address": "7 Marian St, Killara",
    "suburb": "Hornsby",
    "state": "NSW",
    "lat": -33.7665667,
    "lng": 151.1611401,
    "place_id": "ChIJyRbk-5KoEmsRlWtu75z-rYE",
    "maps_url": "https://www.google.com/maps/place/?q=place_id:ChIJyRbk-5KoEmsRlWtu75z-rYE",
    "rating": 4.1,
    "total_ratings": 106
  },
  {
    "name": "Cafe Florence",
    "address": "Florence St, Hornsby",
    "suburb": "Hornsby",
    "state": "NSW",
    "lat": -33.7040585,
    "lng": 151.0999589,
    "place_id": "ChIJVVhAgIOnEmsR6_VfiJ4Nrlw",
    "maps_url": "https://www.google.com/maps/place/?q=place_id:ChIJVVhAgIOnEmsR6_VfiJ4Nrlw",
    "rating": 3.8,
    "total_ratings": 247
  },
  {
    "name": "Cafe minamisan",
    "address": "1/387 Pacific Hwy, Asquith",
    "suburb": "Hornsby",
    "state": "NSW",
    "lat": -33.6880154,
    "lng": 151.1080004,
    "place_id": "ChIJJdrqEHNZDWsReHzo75pRRUQ",
    "maps_url": "https://www.google.com/maps/place/?q=place_id:ChIJJdrqEHNZDWsReHzo75pRRUQ",
    "rating": 4.9,
    "total_ratings": 245
  },
  {
    "name": "HB Coffee Shop",
    "address": "2 Somerville Rd, Hornsby Heights",
    "suburb": "Hornsby",
    "state": "NSW",
    "lat": -33.671054,
    "lng": 151.0965719,
    "place_id": "ChIJK-1a1VhYDWsRXKTjjORjZSU",
    "maps_url": "https://www.google.com/maps/place/?q=place_id:ChIJK-1a1VhYDWsRXKTjjORjZSU",
    "rating": 4.7,
    "total_ratings": 204
  },
  {
    "name": "Maydanoz Restaurant Bar",
    "address": "1/50 Carrington St, Sydney",
    "suburb": "Manly",
    "state": "NSW",
    "lat": -33.8662062,
    "lng": 151.20647,
    "place_id": "ChIJozSSoZ-vEmsRAI-pKenD1sM",
    "maps_url": "https://www.google.com/maps/place/?q=place_id:ChIJozSSoZ-vEmsRAI-pKenD1sM",
    "rating": 4.7,
    "total_ratings": 609
  },
  {
    "name": "Seachange Cafe",
    "address": "3/20 The Strand, Dee Why",
    "suburb": "Manly",
    "state": "NSW",
    "lat": -33.7536139,
    "lng": 151.2964126,
    "place_id": "ChIJP9POlJuqEmsRZSo1-tvA7Mw",
    "maps_url": "https://www.google.com/maps/place/?q=place_id:ChIJP9POlJuqEmsRZSo1-tvA7Mw",
    "rating": 4.5,
    "total_ratings": 753
  },
  {
    "name": "Foys Kirribilli",
    "address": "76 McDougall St, Kirribilli",
    "suburb": "Manly",
    "state": "NSW",
    "lat": -33.8449975,
    "lng": 151.2151501,
    "place_id": "ChIJJ0tQ8YuuEmsRXiO8ci3_aqc",
    "maps_url": "https://www.google.com/maps/place/?q=place_id:ChIJJ0tQ8YuuEmsRXiO8ci3_aqc",
    "rating": 4.3,
    "total_ratings": 634
  },
  {
    "name": "Hills Bros Cafe",
    "address": "5 Martin Pl, Sydney",
    "suburb": "Manly",
    "state": "NSW",
    "lat": -33.8677227,
    "lng": 151.2092249,
    "place_id": "ChIJZTXXbECuEmsRJFECtY-YySk",
    "maps_url": "https://www.google.com/maps/place/?q=place_id:ChIJZTXXbECuEmsRJFECtY-YySk",
    "rating": 4.5,
    "total_ratings": 320
  },
  {
    "name": "Devon Cafe Barangaroo",
    "address": "19/200 Barangaroo Ave, Barangaroo",
    "suburb": "Manly",
    "state": "NSW",
    "lat": -33.8646426,
    "lng": 151.2025967,
    "place_id": "ChIJp8efHkeuEmsR39d42wL9hrA",
    "maps_url": "https://www.google.com/maps/place/?q=place_id:ChIJp8efHkeuEmsR39d42wL9hrA",
    "rating": 4.1,
    "total_ratings": 1354
  },
  {
    "name": "Ruby Lane Wholefoods Cafe - Manly",
    "address": "200 Pittwater Rd, Manly",
    "suburb": "Manly",
    "state": "NSW",
    "lat": -33.7883333,
    "lng": 151.285,
    "place_id": "ChIJl6SCdAGrEmsRMCbP0dY5WaY",
    "maps_url": "https://www.google.com/maps/place/?q=place_id:ChIJl6SCdAGrEmsRMCbP0dY5WaY",
    "rating": 4.5,
    "total_ratings": 687
  },
  {
    "name": "Zeppin Japanese Cafe",
    "address": "Shop 2/99 Walker St, North Sydney",
    "suburb": "Manly",
    "state": "NSW",
    "lat": -33.8394725,
    "lng": 151.2090821,
    "place_id": "ChIJLVv5WwevEmsReV5Xwn31vyw",
    "maps_url": "https://www.google.com/maps/place/?q=place_id:ChIJLVv5WwevEmsReV5Xwn31vyw",
    "rating": 4.6,
    "total_ratings": 108
  },
  {
    "name": "Breadworks Cafe",
    "address": "118 Blues Point Rd, McMahons Point",
    "suburb": "Manly",
    "state": "NSW",
    "lat": -33.8454381,
    "lng": 151.2039526,
    "place_id": "ChIJg7myc_auEmsRN1FaOB__gcc",
    "maps_url": "https://www.google.com/maps/place/?q=place_id:ChIJg7myc_auEmsRN1FaOB__gcc",
    "rating": 4.6,
    "total_ratings": 354
  },
  {
    "name": "Side Part Cafe",
    "address": "Suite 1/20 Alfred St S, Milsons Point",
    "suburb": "Manly",
    "state": "NSW",
    "lat": -33.8485244,
    "lng": 151.2116312,
    "place_id": "ChIJJYcSvoquEmsRH6wZK_yMqz0",
    "maps_url": "https://www.google.com/maps/place/?q=place_id:ChIJJYcSvoquEmsRH6wZK_yMqz0",
    "rating": 4.4,
    "total_ratings": 120
  },
  {
    "name": "Fika the Cafe",
    "address": "5B Market Ln, Manly",
    "suburb": "Manly",
    "state": "NSW",
    "lat": -33.797372,
    "lng": 151.286039,
    "place_id": "ChIJr6UytQirEmsR1kaTm9ZkNJM",
    "maps_url": "https://www.google.com/maps/place/?q=place_id:ChIJr6UytQirEmsR1kaTm9ZkNJM",
    "rating": 4.6,
    "total_ratings": 1030
  },
  {
    "name": "Kitaya Cafe North Sydney",
    "address": "Suite 2, level 1/138 Walker St, North Sydney",
    "suburb": "Manly",
    "state": "NSW",
    "lat": -33.8362094,
    "lng": 151.2090677,
    "place_id": "ChIJ9T2BPO2uEmsRA9eIr8f9_Ic",
    "maps_url": "https://www.google.com/maps/place/?q=place_id:ChIJ9T2BPO2uEmsRA9eIr8f9_Ic",
    "rating": 4.6,
    "total_ratings": 226
  },
  {
    "name": "Manly Pavilion",
    "address": "West Esplanade, Manly",
    "suburb": "Manly",
    "state": "NSW",
    "lat": -33.7993876,
    "lng": 151.2808047,
    "place_id": "ChIJFYq6qAmrEmsRCblWgMRkgt0",
    "maps_url": "https://www.google.com/maps/place/?q=place_id:ChIJFYq6qAmrEmsRCblWgMRkgt0",
    "rating": 4.3,
    "total_ratings": 1181
  },
  {
    "name": "Danieli Cafe",
    "address": "The Clock Tower Centre, shop 10, 35/55 Harrington St, The Rocks",
    "suburb": "Manly",
    "state": "NSW",
    "lat": -33.8594444,
    "lng": 151.2077778,
    "place_id": "ChIJDctb3EKuEmsRch3YymPBwjI",
    "maps_url": "https://www.google.com/maps/place/?q=place_id:ChIJDctb3EKuEmsRch3YymPBwjI",
    "rating": 4.8,
    "total_ratings": 441
  },
  {
    "name": "Wharf Cafe & Bar",
    "address": "1 N Head Scenic Dr, Manly",
    "suburb": "Manly",
    "state": "NSW",
    "lat": -33.8157209,
    "lng": 151.2860322,
    "place_id": "ChIJN4YSuW2rEmsRC_jzi2SWBWQ",
    "maps_url": "https://www.google.com/maps/place/?q=place_id:ChIJN4YSuW2rEmsRC_jzi2SWBWQ",
    "rating": 4,
    "total_ratings": 56
  },
  {
    "name": "Aalia Restaurant Sydney",
    "address": "Shop 7.07-7.08/25 Martin Pl, Sydney",
    "suburb": "Manly",
    "state": "NSW",
    "lat": -33.8680725,
    "lng": 151.2093505,
    "place_id": "ChIJdRmuCG2vEmsRYPe76JjEY5I",
    "maps_url": "https://www.google.com/maps/place/?q=place_id:ChIJdRmuCG2vEmsRYPe76JjEY5I",
    "rating": 4.7,
    "total_ratings": 1183
  },
  {
    "name": "Bistro Ebony",
    "address": "123 Pitt St, Sydney",
    "suburb": "Manly",
    "state": "NSW",
    "lat": -33.8666763,
    "lng": 151.2083773,
    "place_id": "ChIJUwwqhE6vEmsRf9NpbAJMWOA",
    "maps_url": "https://www.google.com/maps/place/?q=place_id:ChIJUwwqhE6vEmsRf9NpbAJMWOA",
    "rating": 4.9,
    "total_ratings": 144
  },
  {
    "name": "Botanic Gardens Cafe",
    "address": "4A Macquarie St, Sydney",
    "suburb": "Manly",
    "state": "NSW",
    "lat": -33.8646754,
    "lng": 151.2170669,
    "place_id": "ChIJQQVQuW6uEmsRdZZsAFcwFUU",
    "maps_url": "https://www.google.com/maps/place/?q=place_id:ChIJQQVQuW6uEmsRdZZsAFcwFUU",
    "rating": 3.6,
    "total_ratings": 470
  },
  {
    "name": "Ventuno Restaurant",
    "address": "21 Hickson Rd, Walsh Bay",
    "suburb": "Manly",
    "state": "NSW",
    "lat": -33.8567894,
    "lng": 151.2042835,
    "place_id": "ChIJUTk7V1uuEmsRWG5wGkZyLZ0",
    "maps_url": "https://www.google.com/maps/place/?q=place_id:ChIJUTk7V1uuEmsRWG5wGkZyLZ0",
    "rating": 4.5,
    "total_ratings": 2016
  },
  {
    "name": "Milsons Cafe",
    "address": "94 Alfred St S, Milsons Point",
    "suburb": "Manly",
    "state": "NSW",
    "lat": -33.8453058,
    "lng": 151.2109257,
    "place_id": "ChIJFdwzOouuEmsRp9SPozXqmrs",
    "maps_url": "https://www.google.com/maps/place/?q=place_id:ChIJFdwzOouuEmsRp9SPozXqmrs",
    "rating": 4.3,
    "total_ratings": 93
  },
  {
    "name": "Hester's Cafe Sydney",
    "address": "60 Carrington St, Sydney",
    "suburb": "Manly",
    "state": "NSW",
    "lat": -33.8667843,
    "lng": 151.2064634,
    "place_id": "ChIJa78u7UCuEmsRg2WgITyPNRA",
    "maps_url": "https://www.google.com/maps/place/?q=place_id:ChIJa78u7UCuEmsRg2WgITyPNRA",
    "rating": 4.4,
    "total_ratings": 151
  },
  {
    "name": "Rubber Ducky Cafe",
    "address": "20 Windmill St, Millers Point",
    "suburb": "Manly",
    "state": "NSW",
    "lat": -33.8573343,
    "lng": 151.2038138,
    "place_id": "ChIJ1YKZhJWvEmsRbm1J314xgLU",
    "maps_url": "https://www.google.com/maps/place/?q=place_id:ChIJ1YKZhJWvEmsRbm1J314xgLU",
    "rating": 4.5,
    "total_ratings": 46
  },
  {
    "name": "Toko Restaurant",
    "address": "Entry at, Lower Ground, 275 George St, only",
    "suburb": "Manly",
    "state": "NSW",
    "lat": -33.8652682,
    "lng": 151.2071764,
    "place_id": "ChIJT-EHWQauEmsRZyvdi-Tn1nA",
    "maps_url": "https://www.google.com/maps/place/?q=place_id:ChIJT-EHWQauEmsRZyvdi-Tn1nA",
    "rating": 4.4,
    "total_ratings": 1221
  },
  {
    "name": "Ahwii Cafe",
    "address": "Auburn Central Cnr Harrow Rd &, Queen St, Auburn",
    "suburb": "Parramatta",
    "state": "NSW",
    "lat": -33.8502991,
    "lng": 151.0317865,
    "place_id": "ChIJ99jWIyy9EmsR0I48oA4xEoo",
    "maps_url": "https://www.google.com/maps/place/?q=place_id:ChIJ99jWIyy9EmsR0I48oA4xEoo",
    "rating": 4.5,
    "total_ratings": 500
  },
  {
    "name": "Lazy Cat Cafe",
    "address": "92/96 Parramatta Rd, Lidcombe",
    "suburb": "Parramatta",
    "state": "NSW",
    "lat": -33.8495546,
    "lng": 151.0490218,
    "place_id": "ChIJAQBQOVW7EmsRztkDIiV8EBg",
    "maps_url": "https://www.google.com/maps/place/?q=place_id:ChIJAQBQOVW7EmsRztkDIiV8EBg",
    "rating": 3.7,
    "total_ratings": 533
  },
  {
    "name": "Zaitouna Cafe",
    "address": "43/1 Leicester St, Chester Hill",
    "suburb": "Parramatta",
    "state": "NSW",
    "lat": -33.8824088,
    "lng": 151.0012318,
    "place_id": "ChIJ_dCY_h69EmsRBl8n4Uu4bFU",
    "maps_url": "https://www.google.com/maps/place/?q=place_id:ChIJ_dCY_h69EmsRBl8n4Uu4bFU",
    "rating": 4.8,
    "total_ratings": 405
  },
  {
    "name": "Els Cafe & Bar",
    "address": "64/180 Caroline Chisholm Dr, Winston Hills",
    "suburb": "Parramatta",
    "state": "NSW",
    "lat": -33.7730985,
    "lng": 150.9698107,
    "place_id": "ChIJU52Y7W6iEmsR86sU7g0VtUg",
    "maps_url": "https://www.google.com/maps/place/?q=place_id:ChIJU52Y7W6iEmsR86sU7g0VtUg",
    "rating": 4.5,
    "total_ratings": 1167
  },
  {
    "name": "Boom Cafe & Dining Eastwood",
    "address": "shop 5/124 Rowe St, Eastwood",
    "suburb": "Parramatta",
    "state": "NSW",
    "lat": -33.7913351,
    "lng": 151.0828556,
    "place_id": "ChIJQUV8yYelEmsRc5Inn19FR6Q",
    "maps_url": "https://www.google.com/maps/place/?q=place_id:ChIJQUV8yYelEmsRc5Inn19FR6Q",
    "rating": 4.6,
    "total_ratings": 465
  },
  {
    "name": "Baytouna Restaurant",
    "address": "Retail 03 ,1 Villawood place , Villawood NSW 2163, Villawood",
    "suburb": "Parramatta",
    "state": "NSW",
    "lat": -33.8823528,
    "lng": 150.9759105,
    "place_id": "ChIJ5yftb169EmsR1H_PSViJBYs",
    "maps_url": "https://www.google.com/maps/place/?q=place_id:ChIJ5yftb169EmsR1H_PSViJBYs",
    "rating": 4.3,
    "total_ratings": 1015
  },
  {
    "name": "Cafe Rodem 1 Lidcombe",
    "address": "7B John St, Lidcombe",
    "suburb": "Parramatta",
    "state": "NSW",
    "lat": -33.8624437,
    "lng": 151.0447863,
    "place_id": "ChIJxUyYMqe8EmsRrDwhlDJKyFU",
    "maps_url": "https://www.google.com/maps/place/?q=place_id:ChIJxUyYMqe8EmsRrDwhlDJKyFU",
    "rating": 4.1,
    "total_ratings": 242
  },
  {
    "name": "CAFFEINE HIT CAFE",
    "address": "73 Broughton St, Old Guildford",
    "suburb": "Parramatta",
    "state": "NSW",
    "lat": -33.8657762,
    "lng": 150.9820129,
    "place_id": "ChIJZbSuMjW9EmsRCxQfzBdhCno",
    "maps_url": "https://www.google.com/maps/place/?q=place_id:ChIJZbSuMjW9EmsRCxQfzBdhCno",
    "rating": 4.4,
    "total_ratings": 457
  },
  {
    "name": "Second Home Cafe - Baulkham Hills",
    "address": "26 Arthur St, Baulkham Hills",
    "suburb": "Parramatta",
    "state": "NSW",
    "lat": -33.7647463,
    "lng": 150.9903183,
    "place_id": "ChIJ4ePcjDCiEmsRj3mT5A-7qxo",
    "maps_url": "https://www.google.com/maps/place/?q=place_id:ChIJ4ePcjDCiEmsRj3mT5A-7qxo",
    "rating": 4.4,
    "total_ratings": 840
  },
  {
    "name": "Quatre Cafe",
    "address": "7 Cave Rd, Strathfield",
    "suburb": "Parramatta",
    "state": "NSW",
    "lat": -33.8856329,
    "lng": 151.074935,
    "place_id": "ChIJtW0Lhaa7EmsR-nuGLtsRnxI",
    "maps_url": "https://www.google.com/maps/place/?q=place_id:ChIJtW0Lhaa7EmsR-nuGLtsRnxI",
    "rating": 4.8,
    "total_ratings": 568
  },
  {
    "name": "Urban Jungle Cafe",
    "address": "159-175 Church St, Parramatta",
    "suburb": "Parramatta",
    "state": "NSW",
    "lat": -33.8174677,
    "lng": 151.0038319,
    "place_id": "ChIJadS54pujEmsRjh43yRoI7Tw",
    "maps_url": "https://www.google.com/maps/place/?q=place_id:ChIJadS54pujEmsRjh43yRoI7Tw",
    "rating": 4.2,
    "total_ratings": 301
  },
  {
    "name": "JEONG DAM RESTAURANT (정담식당)",
    "address": "122 Rowe St, Eastwood",
    "suburb": "Parramatta",
    "state": "NSW",
    "lat": -33.7913536,
    "lng": 151.0831194,
    "place_id": "ChIJQxt1oH2lEmsRMVF_M6-VBg0",
    "maps_url": "https://www.google.com/maps/place/?q=place_id:ChIJQxt1oH2lEmsRMVF_M6-VBg0",
    "rating": 4.5,
    "total_ratings": 734
  },
  {
    "name": "River Cafe Parramatta",
    "address": "Next to lobby of Meriton Suites, 9/330 Church St, Parramatta",
    "suburb": "Parramatta",
    "state": "NSW",
    "lat": -33.8114313,
    "lng": 151.0054108,
    "place_id": "ChIJXfPnpx6jEmsRUhWFjBEZYWU",
    "maps_url": "https://www.google.com/maps/place/?q=place_id:ChIJXfPnpx6jEmsRUhWFjBEZYWU",
    "rating": 3.8,
    "total_ratings": 658
  },
  {
    "name": "XO Cafe Bar",
    "address": "18 106Ware St, Fairfield",
    "suburb": "Parramatta",
    "state": "NSW",
    "lat": -33.8698432,
    "lng": 150.9547409,
    "place_id": "ChIJBxobX8a9EmsR1fDP_4NMDfc",
    "maps_url": "https://www.google.com/maps/place/?q=place_id:ChIJBxobX8a9EmsR1fDP_4NMDfc",
    "rating": 4.1,
    "total_ratings": 151
  },
  {
    "name": "PLATE CAFE",
    "address": "Shop 2/11 Murray Rose Ave, Sydney Olympic Park",
    "suburb": "Parramatta",
    "state": "NSW",
    "lat": -33.8461307,
    "lng": 151.069198,
    "place_id": "ChIJMxcPHUalEmsRJuPwAhljFJA",
    "maps_url": "https://www.google.com/maps/place/?q=place_id:ChIJMxcPHUalEmsRJuPwAhljFJA",
    "rating": 4.6,
    "total_ratings": 593
  },
  {
    "name": "Big Tree House Cafe",
    "address": "88 Calder Rd, Rydalmere",
    "suburb": "Parramatta",
    "state": "NSW",
    "lat": -33.8062613,
    "lng": 151.0409249,
    "place_id": "ChIJR-aajXejEmsRgEN2oiQlK-I",
    "maps_url": "https://www.google.com/maps/place/?q=place_id:ChIJR-aajXejEmsRgEN2oiQlK-I",
    "rating": 4.4,
    "total_ratings": 1234
  },
  {
    "name": "The Hideout Cafe EST. 2016",
    "address": "58A Bogalara Rd, Old Toongabbie",
    "suburb": "Parramatta",
    "state": "NSW",
    "lat": -33.7936111,
    "lng": 150.9686111,
    "place_id": "ChIJW-LnHY-iEmsRSnbuAtn5UGs",
    "maps_url": "https://www.google.com/maps/place/?q=place_id:ChIJW-LnHY-iEmsRSnbuAtn5UGs",
    "rating": 4.6,
    "total_ratings": 569
  },
  {
    "name": "Provence Garden Cafe Eastwood",
    "address": "35-43 W Parade, Eastwood",
    "suburb": "Parramatta",
    "state": "NSW",
    "lat": -33.7910892,
    "lng": 151.081761,
    "place_id": "ChIJT_r74zmkEmsR_PX6BGBYh3I",
    "maps_url": "https://www.google.com/maps/place/?q=place_id:ChIJT_r74zmkEmsR_PX6BGBYh3I",
    "rating": 4.1,
    "total_ratings": 268
  },
  {
    "name": "Bacar Restaurant & Bar",
    "address": "Olympic Blvd, Sydney Olympic Park",
    "suburb": "Parramatta",
    "state": "NSW",
    "lat": -33.8487789,
    "lng": 151.0680381,
    "place_id": "ChIJGcYbMbSkEmsRAESPQdJFsow",
    "maps_url": "https://www.google.com/maps/place/?q=place_id:ChIJGcYbMbSkEmsRAESPQdJFsow",
    "rating": 4.3,
    "total_ratings": 512
  },
  {
    "name": "Mellow Me Cafe",
    "address": "11/5 Australia Ave, Sydney Olympic Park",
    "suburb": "Parramatta",
    "state": "NSW",
    "lat": -33.8476931,
    "lng": 151.0730728,
    "place_id": "ChIJOYIdpMmkEmsRV1GfLmJGit4",
    "maps_url": "https://www.google.com/maps/place/?q=place_id:ChIJOYIdpMmkEmsRV1GfLmJGit4",
    "rating": 4.3,
    "total_ratings": 473
  },
  {
    "name": "Restaurant 317 — Italian Restaurant Parramatta",
    "address": "317 Church St, Parramatta",
    "suburb": "Parramatta",
    "state": "NSW",
    "lat": -33.8114987,
    "lng": 151.0039563,
    "place_id": "ChIJm-Qsgh6jEmsRCLEfMPSSm10",
    "maps_url": "https://www.google.com/maps/place/?q=place_id:ChIJm-Qsgh6jEmsRCLEfMPSSm10",
    "rating": 4.4,
    "total_ratings": 3548
  },
  {
    "name": "Nadia's Cafe Parramatta",
    "address": "159/175 Church St, Parramatta",
    "suburb": "Parramatta",
    "state": "NSW",
    "lat": -33.8178814,
    "lng": 151.0025436,
    "place_id": "ChIJ1ffoQiCjEmsRI9XwFB_yH0k",
    "maps_url": "https://www.google.com/maps/place/?q=place_id:ChIJ1ffoQiCjEmsRI9XwFB_yH0k",
    "rating": 3.6,
    "total_ratings": 1061
  },
  {
    "name": "Al Shami Restaurant",
    "address": "102/106 Railway Terrace, Merrylands",
    "suburb": "Parramatta",
    "state": "NSW",
    "lat": -33.8363958,
    "lng": 150.9933981,
    "place_id": "ChIJGwvubDK9EmsRAUx57HKmCkU",
    "maps_url": "https://www.google.com/maps/place/?q=place_id:ChIJGwvubDK9EmsRAUx57HKmCkU",
    "rating": 4.4,
    "total_ratings": 917
  },
  {
    "name": "Paper Plane Cafe Parramatta",
    "address": "Suite 5/2 Horwood Pl, Parramatta",
    "suburb": "Parramatta",
    "state": "NSW",
    "lat": -33.8135699,
    "lng": 151.0053403,
    "place_id": "ChIJ_T4vCcaJtAERasQGd39YchY",
    "maps_url": "https://www.google.com/maps/place/?q=place_id:ChIJ_T4vCcaJtAERasQGd39YchY",
    "rating": 4.2,
    "total_ratings": 919
  },
  {
    "name": "Berala Hotel Bistro (J's kitchen steak house)",
    "address": "159 Woodburn Rd, Berala",
    "suburb": "Parramatta",
    "state": "NSW",
    "lat": -33.8719689,
    "lng": 151.031188,
    "place_id": "ChIJ_SuaIUS9EmsRNlpCPpi3sDI",
    "maps_url": "https://www.google.com/maps/place/?q=place_id:ChIJ_SuaIUS9EmsRNlpCPpi3sDI",
    "rating": 4.1,
    "total_ratings": 267
  },
  {
    "name": "Tanomi Lidcombe",
    "address": "9 John St, Lidcombe",
    "suburb": "Parramatta",
    "state": "NSW",
    "lat": -33.8623509,
    "lng": 151.0450693,
    "place_id": "ChIJ38AWMqe8EmsRaMKdRTfnLKg",
    "maps_url": "https://www.google.com/maps/place/?q=place_id:ChIJ38AWMqe8EmsRaMKdRTfnLKg",
    "rating": 4.3,
    "total_ratings": 927
  },
  {
    "name": "Hamro Jamghat Nepalese Restaurant",
    "address": "3 Rochester St, Homebush",
    "suburb": "Parramatta",
    "state": "NSW",
    "lat": -33.8666667,
    "lng": 151.084677,
    "place_id": "ChIJu44v0kW7EmsRPd8AZJlacXA",
    "maps_url": "https://www.google.com/maps/place/?q=place_id:ChIJu44v0kW7EmsRPd8AZJlacXA",
    "rating": 4.6,
    "total_ratings": 408
  },
  {
    "name": "5 Loaves Cafe",
    "address": "4/40-46 Alice St, Harris Park",
    "suburb": "Parramatta",
    "state": "NSW",
    "lat": -33.8210378,
    "lng": 151.0152228,
    "place_id": "ChIJ7xeFnz2jEmsRKWhfBRNvP2w",
    "maps_url": "https://www.google.com/maps/place/?q=place_id:ChIJ7xeFnz2jEmsRKWhfBRNvP2w",
    "rating": 4.4,
    "total_ratings": 305
  },
  {
    "name": "M Brothers Family Restaurant",
    "address": "7 Auburn Rd, Auburn",
    "suburb": "Parramatta",
    "state": "NSW",
    "lat": -33.850318,
    "lng": 151.032877,
    "place_id": "ChIJuQiknrG8EmsRfDXVY0sncY8",
    "maps_url": "https://www.google.com/maps/place/?q=place_id:ChIJuQiknrG8EmsRfDXVY0sncY8",
    "rating": 4,
    "total_ratings": 852
  },
  {
    "name": "Toscanini Italian Restaurant",
    "address": "75-77 Middleton Rd, Chester Hill",
    "suburb": "Parramatta",
    "state": "NSW",
    "lat": -33.8703596,
    "lng": 150.9859922,
    "place_id": "ChIJYwlPY469EmsRYdewSGw3ADM",
    "maps_url": "https://www.google.com/maps/place/?q=place_id:ChIJYwlPY469EmsRYdewSGw3ADM",
    "rating": 4.5,
    "total_ratings": 458
  },
  {
    "name": "Chester Square Manoush Cafe",
    "address": "1 Leicester St, Chester Hill",
    "suburb": "Parramatta",
    "state": "NSW",
    "lat": -33.8821849,
    "lng": 151.0009036,
    "place_id": "ChIJ6cF-2Iq9EmsRaZtFBZ6bs9k",
    "maps_url": "https://www.google.com/maps/place/?q=place_id:ChIJ6cF-2Iq9EmsRaZtFBZ6bs9k",
    "rating": 4.5,
    "total_ratings": 75
  },
  {
    "name": "Salam Mandi Arabian and East African cuisines",
    "address": "4/6-10 Harrow Rd, Auburn",
    "suburb": "Parramatta",
    "state": "NSW",
    "lat": -33.8524109,
    "lng": 151.0314554,
    "place_id": "ChIJz76977C8EmsR7x-oUzfTx_w",
    "maps_url": "https://www.google.com/maps/place/?q=place_id:ChIJz76977C8EmsR7x-oUzfTx_w",
    "rating": 4.6,
    "total_ratings": 1165
  },
  {
    "name": "Kowloon Cafe 九龍冰室 Eastwood",
    "address": "Shop 1/148 Rowe St, Eastwood",
    "suburb": "Parramatta",
    "state": "NSW",
    "lat": -33.7917,
    "lng": 151.0814259,
    "place_id": "ChIJk4AxpAKlEmsR65V2KPnh0Jo",
    "maps_url": "https://www.google.com/maps/place/?q=place_id:ChIJk4AxpAKlEmsR65V2KPnh0Jo",
    "rating": 4.5,
    "total_ratings": 777
  },
  {
    "name": "Paper Plane Factory Cafe",
    "address": "Unit 1/64 Mandoon Rd, Girraween",
    "suburb": "Parramatta",
    "state": "NSW",
    "lat": -33.80358650000001,
    "lng": 150.9395382,
    "place_id": "ChIJs-wp1xOYEmsRpRaHYgUnsBM",
    "maps_url": "https://www.google.com/maps/place/?q=place_id:ChIJs-wp1xOYEmsRpRaHYgUnsBM",
    "rating": 4.2,
    "total_ratings": 522
  },
  {
    "name": "500 Degrees Restaurant Parramatta",
    "address": "140 Marsden St, Parramatta",
    "suburb": "Parramatta",
    "state": "NSW",
    "lat": -33.8150788,
    "lng": 151.0014137,
    "place_id": "ChIJcd8PaXKjEmsRNpM7d1noNOE",
    "maps_url": "https://www.google.com/maps/place/?q=place_id:ChIJcd8PaXKjEmsRNpM7d1noNOE",
    "rating": 4.6,
    "total_ratings": 2918
  },
  {
    "name": "Cafe Nho",
    "address": "208 Canley Vale Rd, Canley Heights",
    "suburb": "Parramatta",
    "state": "NSW",
    "lat": -33.8842363,
    "lng": 150.9273079,
    "place_id": "ChIJG63dZGyWEmsRkRBakyof4tA",
    "maps_url": "https://www.google.com/maps/place/?q=place_id:ChIJG63dZGyWEmsRkRBakyof4tA",
    "rating": 4.2,
    "total_ratings": 553
  },
  {
    "name": "Brimo's Cafe & Restaurant & Merrylands Charcoal Chicken",
    "address": "5/215 Pitt St, Merrylands",
    "suburb": "Parramatta",
    "state": "NSW",
    "lat": -33.8359081,
    "lng": 150.9913047,
    "place_id": "ChIJC-JFBi29EmsRIg2nh9n9uB0",
    "maps_url": "https://www.google.com/maps/place/?q=place_id:ChIJC-JFBi29EmsRIg2nh9n9uB0",
    "rating": 3.9,
    "total_ratings": 204
  },
  {
    "name": "Infusions Cafe",
    "address": "14 Mons Rd, Westmead",
    "suburb": "Parramatta",
    "state": "NSW",
    "lat": -33.8029144,
    "lng": 150.9820879,
    "place_id": "ChIJlSNXGdujEmsR_B87202PdjY",
    "maps_url": "https://www.google.com/maps/place/?q=place_id:ChIJlSNXGdujEmsR_B87202PdjY",
    "rating": 3.3,
    "total_ratings": 35
  },
  {
    "name": "Lake Parramatta Cafe",
    "address": "Illawong Dr, North Parramatta",
    "suburb": "Parramatta",
    "state": "NSW",
    "lat": -33.7916443,
    "lng": 151.0073185,
    "place_id": "ChIJtyig1KujEmsR8CKQO2TXwyQ",
    "maps_url": "https://www.google.com/maps/place/?q=place_id:ChIJtyig1KujEmsR8CKQO2TXwyQ",
    "rating": 3.8,
    "total_ratings": 730
  },
  {
    "name": "Arbor Cafe & Bar",
    "address": "50 Smith St, Wentworthville",
    "suburb": "Parramatta",
    "state": "NSW",
    "lat": -33.8125126,
    "lng": 150.9627209,
    "place_id": "ChIJByI9WKSiEmsRixlu3zebEEA",
    "maps_url": "https://www.google.com/maps/place/?q=place_id:ChIJByI9WKSiEmsRixlu3zebEEA",
    "rating": 4.2,
    "total_ratings": 142
  },
  {
    "name": "Brunch Cafe & Grill.",
    "address": "Unit G6/101 Clapham Rd, Sefton",
    "suburb": "Parramatta",
    "state": "NSW",
    "lat": -33.8839174,
    "lng": 151.0118789,
    "place_id": "ChIJufTdrJS9EmsRlTqZshSW-J8",
    "maps_url": "https://www.google.com/maps/place/?q=place_id:ChIJufTdrJS9EmsRlTqZshSW-J8",
    "rating": 4.5,
    "total_ratings": 506
  },
  {
    "name": "Jasmin1 Lebanese Restaurant Auburn",
    "address": "22 Civic Rd, Auburn",
    "suburb": "Parramatta",
    "state": "NSW",
    "lat": -33.8509155,
    "lng": 151.0335758,
    "place_id": "ChIJFY7Tv7G8EmsRLv5wya0TTtU",
    "maps_url": "https://www.google.com/maps/place/?q=place_id:ChIJFY7Tv7G8EmsRLv5wya0TTtU",
    "rating": 4.3,
    "total_ratings": 5693
  },
  {
    "name": "My Hao Cuisine - Vietnamese Restaurant and Cafe",
    "address": "1E Caroline Chisholm Dr, Winston Hills",
    "suburb": "Parramatta",
    "state": "NSW",
    "lat": -33.7757642,
    "lng": 150.987606,
    "place_id": "ChIJT7x8DUaiEmsREjFKtyI5KJo",
    "maps_url": "https://www.google.com/maps/place/?q=place_id:ChIJT7x8DUaiEmsREjFKtyI5KJo",
    "rating": 4.4,
    "total_ratings": 763
  },
  {
    "name": "Leaf Cafe & Co Rhodes",
    "address": "G31/11-21 Marquet St, Rhodes",
    "suburb": "Parramatta",
    "state": "NSW",
    "lat": -33.83013,
    "lng": 151.085823,
    "place_id": "ChIJQTmQ4mSlEmsREpE_xdZW8uU",
    "maps_url": "https://www.google.com/maps/place/?q=place_id:ChIJQTmQ4mSlEmsREpE_xdZW8uU",
    "rating": 4.2,
    "total_ratings": 531
  },
  {
    "name": "Canton Cafe 煮意 Eastwood",
    "address": "127 Rowe St, Eastwood",
    "suburb": "Parramatta",
    "state": "NSW",
    "lat": -33.7913503,
    "lng": 151.0815617,
    "place_id": "ChIJ-eph5jmkEmsR0osJLnvitDY",
    "maps_url": "https://www.google.com/maps/place/?q=place_id:ChIJ-eph5jmkEmsR0osJLnvitDY",
    "rating": 3.7,
    "total_ratings": 765
  },
  {
    "name": "Sambandha Restaurant",
    "address": "Auburn Central shopP8, Crn Park Road, 57 Queen St, Auburn",
    "suburb": "Parramatta",
    "state": "NSW",
    "lat": -33.8495933,
    "lng": 151.0308679,
    "place_id": "ChIJpfXyZ7G8EmsRxL7s6-2EyKA",
    "maps_url": "https://www.google.com/maps/place/?q=place_id:ChIJpfXyZ7G8EmsRxL7s6-2EyKA",
    "rating": 3.5,
    "total_ratings": 1213
  },
  {
    "name": "Steamup Cantonese Restaurant",
    "address": "2A 6/8 Progress Ave, Eastwood",
    "suburb": "Parramatta",
    "state": "NSW",
    "lat": -33.7911081,
    "lng": 151.080528,
    "place_id": "ChIJLwMgJ_-lEmsRSdeM3gLG-Us",
    "maps_url": "https://www.google.com/maps/place/?q=place_id:ChIJLwMgJ_-lEmsRSdeM3gLG-Us",
    "rating": 4.4,
    "total_ratings": 182
  },
  {
    "name": "New Star Kebab Family Restaurant",
    "address": "15 Auburn Rd, Auburn",
    "suburb": "Parramatta",
    "state": "NSW",
    "lat": -33.8505549,
    "lng": 151.032987,
    "place_id": "ChIJr0_qmLG8EmsRJlpvZbbaR_k",
    "maps_url": "https://www.google.com/maps/place/?q=place_id:ChIJr0_qmLG8EmsRJlpvZbbaR_k",
    "rating": 4.2,
    "total_ratings": 4972
  },
  {
    "name": "Diem Hen Cafe",
    "address": "205-207 Canley Vale Rd, Canley Heights",
    "suburb": "Parramatta",
    "state": "NSW",
    "lat": -33.8840024,
    "lng": 150.9274335,
    "place_id": "ChIJIbSufmyWEmsRZNgeRhQVM_M",
    "maps_url": "https://www.google.com/maps/place/?q=place_id:ChIJIbSufmyWEmsRZNgeRhQVM_M",
    "rating": 3.8,
    "total_ratings": 240
  },
  {
    "name": "Mina Bakery Pizza & Cafe Merrylands",
    "address": "174 Merrylands Rd, Merrylands",
    "suburb": "Parramatta",
    "state": "NSW",
    "lat": -33.8367444,
    "lng": 150.9901639,
    "place_id": "ChIJtXMjlC29EmsR6TjozcvrIsE",
    "maps_url": "https://www.google.com/maps/place/?q=place_id:ChIJtXMjlC29EmsR6TjozcvrIsE",
    "rating": 4.5,
    "total_ratings": 371
  },
  {
    "name": "Darband Restaurant",
    "address": "Shop 3/28B Northumberland Rd, Auburn",
    "suburb": "Parramatta",
    "state": "NSW",
    "lat": -33.847389,
    "lng": 151.0346063,
    "place_id": "ChIJrVaOAbK8EmsRDKgtAQXuOz0",
    "maps_url": "https://www.google.com/maps/place/?q=place_id:ChIJrVaOAbK8EmsRDKgtAQXuOz0",
    "rating": 3.9,
    "total_ratings": 926
  },
  {
    "name": "PMC Persian Restaurant & Cafe",
    "address": "31A Fennell St, Parramatta",
    "suburb": "Parramatta",
    "state": "NSW",
    "lat": -33.80581900000001,
    "lng": 151.005208,
    "place_id": "ChIJ719QKLCjEmsRhLOPwVQQPIw",
    "maps_url": "https://www.google.com/maps/place/?q=place_id:ChIJ719QKLCjEmsRhLOPwVQQPIw",
    "rating": 4.7,
    "total_ratings": 936
  },
  {
    "name": "Iconic Cafe",
    "address": "Westfield Parramatta, Level 4 Kiosk 404/159 Church St, Parramatta",
    "suburb": "Parramatta",
    "state": "NSW",
    "lat": -33.818407,
    "lng": 151.0017427,
    "place_id": "ChIJ88r6aCCjEmsRgKSOQSWTOVo",
    "maps_url": "https://www.google.com/maps/place/?q=place_id:ChIJ88r6aCCjEmsRgKSOQSWTOVo",
    "rating": 4.1,
    "total_ratings": 556
  },
  {
    "name": "Khaybar Restaurant",
    "address": "64 Auburn Rd, Auburn",
    "suburb": "Parramatta",
    "state": "NSW",
    "lat": -33.8533675,
    "lng": 151.0325751,
    "place_id": "ChIJ72YNYbC8EmsRmE1weCiUh6Y",
    "maps_url": "https://www.google.com/maps/place/?q=place_id:ChIJ72YNYbC8EmsRmE1weCiUh6Y",
    "rating": 4,
    "total_ratings": 852
  },
  {
    "name": "Leaf Cafe & Co Westmead",
    "address": "Shop 8 A/158-164 Hawkesbury Rd, Westmead",
    "suburb": "Parramatta",
    "state": "NSW",
    "lat": -33.8065112,
    "lng": 150.9876526,
    "place_id": "ChIJC46Wx8CjEmsRsg_sKXWnRHw",
    "maps_url": "https://www.google.com/maps/place/?q=place_id:ChIJC46Wx8CjEmsRsg_sKXWnRHw",
    "rating": 4.2,
    "total_ratings": 215
  },
  {
    "name": "Leaf Cafe & Co Wentworth Point",
    "address": "Marina Square, Shop RT320/5 Footbridge Bvd, Wentworth Point",
    "suburb": "Parramatta",
    "state": "NSW",
    "lat": -33.8251373,
    "lng": 151.0789988,
    "place_id": "ChIJvVGImeqlEmsRKp8y8_jqPEE",
    "maps_url": "https://www.google.com/maps/place/?q=place_id:ChIJvVGImeqlEmsRKp8y8_jqPEE",
    "rating": 4.2,
    "total_ratings": 729
  },
  {
    "name": "Papa Bear Bistro",
    "address": "1 Rooty Hill Rd N, Rooty Hill",
    "suburb": "Blacktown",
    "state": "NSW",
    "lat": -33.7715148,
    "lng": 150.8432641,
    "place_id": "ChIJq6qanj6aEmsRMv7vcIPCfkY",
    "maps_url": "https://www.google.com/maps/place/?q=place_id:ChIJq6qanj6aEmsRMv7vcIPCfkY",
    "rating": 4.5,
    "total_ratings": 206
  },
  {
    "name": "Lakeside Cafe by Chef's- Best Coffee in the town",
    "address": "G06/11-13 Solent Cct, Norwest",
    "suburb": "Blacktown",
    "state": "NSW",
    "lat": -33.7318043,
    "lng": 150.9615999,
    "place_id": "ChIJYwcm_BehEmsRe-CaJPRrM74",
    "maps_url": "https://www.google.com/maps/place/?q=place_id:ChIJYwcm_BehEmsRe-CaJPRrM74",
    "rating": 4.4,
    "total_ratings": 374
  },
  {
    "name": "TNB Cafe",
    "address": "1 Rooty Hill Rd S, Rooty Hill",
    "suburb": "Blacktown",
    "state": "NSW",
    "lat": -33.7725951,
    "lng": 150.8446765,
    "place_id": "ChIJee_ioPObEmsR1jNLfaHR6GI",
    "maps_url": "https://www.google.com/maps/place/?q=place_id:ChIJee_ioPObEmsR1jNLfaHR6GI",
    "rating": 4.7,
    "total_ratings": 442
  },
  {
    "name": "Honest Indian Restaurant",
    "address": "123/14 Lexington Dr, Bella Vista",
    "suburb": "Blacktown",
    "state": "NSW",
    "lat": -33.7364701,
    "lng": 150.9469123,
    "place_id": "ChIJrazFfeOfEmsRC0yW4_Lyo2I",
    "maps_url": "https://www.google.com/maps/place/?q=place_id:ChIJrazFfeOfEmsRC0yW4_Lyo2I",
    "rating": 4.4,
    "total_ratings": 1317
  },
  {
    "name": "Mama Lor Restaurant & Bakery",
    "address": "Shop 5/39-45 Rooty Hill Rd N, Rooty Hill",
    "suburb": "Blacktown",
    "state": "NSW",
    "lat": -33.7704111,
    "lng": 150.8426538,
    "place_id": "ChIJ2_KDuj6aEmsRlDrl2IGF4eE",
    "maps_url": "https://www.google.com/maps/place/?q=place_id:ChIJ2_KDuj6aEmsRlDrl2IGF4eE",
    "rating": 4.2,
    "total_ratings": 1500
  },
  {
    "name": "Two By Four Cafe",
    "address": "Fairwater Boulevard Fairwater Sales and Display Centre, Blacktown",
    "suburb": "Blacktown",
    "state": "NSW",
    "lat": -33.76052370000001,
    "lng": 150.9014769,
    "place_id": "ChIJNWodt7qZEmsRBZ7WL5EJaP8",
    "maps_url": "https://www.google.com/maps/place/?q=place_id:ChIJNWodt7qZEmsRBZ7WL5EJaP8",
    "rating": 4.7,
    "total_ratings": 466
  },
  {
    "name": "The Club Hotel Restaurant",
    "address": "N Parade, Mount Druitt",
    "suburb": "Blacktown",
    "state": "NSW",
    "lat": -33.7682503,
    "lng": 150.8214356,
    "place_id": "ChIJ1_ge0MibEmsRPPY0hXLNN3E",
    "maps_url": "https://www.google.com/maps/place/?q=place_id:ChIJ1_ge0MibEmsRPPY0hXLNN3E",
    "rating": 5,
    "total_ratings": 21
  },
  {
    "name": "Urban Jungle Cafe",
    "address": "92 N Parade, Rooty Hill",
    "suburb": "Blacktown",
    "state": "NSW",
    "lat": -33.7716084,
    "lng": 150.8430983,
    "place_id": "ChIJw8CiyX-bEmsRiTq0qhrs5kg",
    "maps_url": "https://www.google.com/maps/place/?q=place_id:ChIJw8CiyX-bEmsRiTq0qhrs5kg",
    "rating": 4.4,
    "total_ratings": 526
  },
  {
    "name": "Kabul House",
    "address": "186A Merrylands Rd, Merrylands",
    "suburb": "Blacktown",
    "state": "NSW",
    "lat": -33.8366376,
    "lng": 150.9897114,
    "place_id": "ChIJt2kdki29EmsRYN2mfleem2k",
    "maps_url": "https://www.google.com/maps/place/?q=place_id:ChIJt2kdki29EmsRYN2mfleem2k",
    "rating": 4.2,
    "total_ratings": 3616
  },
  {
    "name": "The Corner Shop Cafe",
    "address": "1/216 Farnham Rd, Quakers Hill",
    "suburb": "Blacktown",
    "state": "NSW",
    "lat": -33.7270201,
    "lng": 150.9047147,
    "place_id": "ChIJja3y_9SeEmsR-h4ZPAZ-Ybo",
    "maps_url": "https://www.google.com/maps/place/?q=place_id:ChIJja3y_9SeEmsR-h4ZPAZ-Ybo",
    "rating": 4.3,
    "total_ratings": 421
  },
  {
    "name": "The T-Spoon Cafe Eastern Creek",
    "address": "ECQ XL, 2 Goldsbro Glade, Eastern Creek",
    "suburb": "Blacktown",
    "state": "NSW",
    "lat": -33.7876159,
    "lng": 150.8548345,
    "place_id": "ChIJfY1INpmREmsRisCJDxW969k",
    "maps_url": "https://www.google.com/maps/place/?q=place_id:ChIJfY1INpmREmsRisCJDxW969k",
    "rating": 4.7,
    "total_ratings": 346
  },
  {
    "name": "Nadia’s Cafe Blacktown",
    "address": "17 Patrick St, Blacktown",
    "suburb": "Blacktown",
    "state": "NSW",
    "lat": -33.7699751,
    "lng": 150.9054819,
    "place_id": "ChIJ_V7-fDiZEmsRipKZRIyMk1Q",
    "maps_url": "https://www.google.com/maps/place/?q=place_id:ChIJ_V7-fDiZEmsRipKZRIyMk1Q",
    "rating": 4,
    "total_ratings": 286
  },
  {
    "name": "Pameer Restaurant and Bakery",
    "address": "110 Main St, Blacktown",
    "suburb": "Blacktown",
    "state": "NSW",
    "lat": -33.7711626,
    "lng": 150.9101046,
    "place_id": "ChIJUSvMnP-YEmsR2Mynk7CaWR4",
    "maps_url": "https://www.google.com/maps/place/?q=place_id:ChIJUSvMnP-YEmsR2Mynk7CaWR4",
    "rating": 4.3,
    "total_ratings": 511
  },
  {
    "name": "Leila Pizza & Cafe",
    "address": "45 Station Rd, Toongabbie",
    "suburb": "Blacktown",
    "state": "NSW",
    "lat": -33.7803838,
    "lng": 150.9482842,
    "place_id": "ChIJkZ5dKyOZEmsRs279Q-HHVNE",
    "maps_url": "https://www.google.com/maps/place/?q=place_id:ChIJkZ5dKyOZEmsRs279Q-HHVNE",
    "rating": 4.7,
    "total_ratings": 191
  },
  {
    "name": "Mase Cafe",
    "address": "Shop 1098/1 McFarlane St, Merrylands",
    "suburb": "Blacktown",
    "state": "NSW",
    "lat": -33.8354829,
    "lng": 150.9891847,
    "place_id": "ChIJXaXrfMq9EmsRAjjgdXy1QWI",
    "maps_url": "https://www.google.com/maps/place/?q=place_id:ChIJXaXrfMq9EmsRAjjgdXy1QWI",
    "rating": 4.5,
    "total_ratings": 227
  },
  {
    "name": "Café Mckels",
    "address": "1 Circa Boulevarde, Bella Vista",
    "suburb": "Blacktown",
    "state": "NSW",
    "lat": -33.745745,
    "lng": 150.952285,
    "place_id": "ChIJGW-AJKqYEmsR_uLrI5JtWiw",
    "maps_url": "https://www.google.com/maps/place/?q=place_id:ChIJGW-AJKqYEmsR_uLrI5JtWiw",
    "rating": 3.8,
    "total_ratings": 275
  },
  {
    "name": "Mehfil Merrylands Restaurant",
    "address": "240 Merrylands Rd, Merrylands",
    "suburb": "Blacktown",
    "state": "NSW",
    "lat": -33.8362872,
    "lng": 150.9880599,
    "place_id": "ChIJkeJ5Qiy9EmsRnWrGsEYIczg",
    "maps_url": "https://www.google.com/maps/place/?q=place_id:ChIJkeJ5Qiy9EmsRnWrGsEYIczg",
    "rating": 3.9,
    "total_ratings": 430
  },
  {
    "name": "Chef's Cafe Kings Langley",
    "address": "shop15/125 James Cook Dr, Kings Langley",
    "suburb": "Blacktown",
    "state": "NSW",
    "lat": -33.7431146,
    "lng": 150.9229593,
    "place_id": "ChIJG_2BaO6ZEmsRDRzaNmd4GeM",
    "maps_url": "https://www.google.com/maps/place/?q=place_id:ChIJG_2BaO6ZEmsRDRzaNmd4GeM",
    "rating": 4.2,
    "total_ratings": 136
  },
  {
    "name": "The Deck Cafe",
    "address": "6 Victoria Ave, Castle Hill",
    "suburb": "Blacktown",
    "state": "NSW",
    "lat": -33.7320367,
    "lng": 150.978875,
    "place_id": "ChIJC1Q-6vahEmsR5Jl9WewICcw",
    "maps_url": "https://www.google.com/maps/place/?q=place_id:ChIJC1Q-6vahEmsR5Jl9WewICcw",
    "rating": 4.7,
    "total_ratings": 43
  },