[
  {
    "name": "Salty Fit | Adult Swimming Lessons | Bondi | Central Coast | Sydney",
    "address": "Bondi Beach, Bondi NSW 2026, Australia",
    "suburb": "Bondi NSW 2026",
    "state": "NSW",
    "rating": 4.9,
    "reviews": 46,
    "lat": -33.891476,
    "lng": 151.276685,
    "place_id": "ChIJdXTRV5utEmsRIw23ldFQYIg",
    "maps_url": "https://www.google.com/maps/place/?q=place_id:ChIJdXTRV5utEmsRIw23ldFQYIg"
  },
  {
    "name": "In The Deep Swim School - Swim Schools Sydney",
    "address": "558 Anzac Parade, Kingsford NSW 2032, Australia",
    "suburb": "Kingsford NSW 2032",
    "state": "NSW",
    "rating": 4.9,
    "reviews": 258,
    "lat": -33.9258232,
    "lng": 151.2310485,
    "place_id": "ChIJ_3u4J4axEmsRQbEOYESGu5U",
    "maps_url": "https://www.google.com/maps/place/?q=place_id:ChIJ_3u4J4axEmsRQbEOYESGu5U"
  },
  {
    "name": "Ian Thorpe Aquatic Centre",
    "address": "458 Harris St, Ultimo NSW 2007, Australia",
    "suburb": "Ultimo NSW 2007",
    "state": "NSW",
    "rating": 4.2,
    "reviews": 1125,
    "lat": -33.8773368,
    "lng": 151.1989017,
    "place_id": "ChIJa7KcXiWuEmsRGZ1-xgvdnY8",
    "maps_url": "https://www.google.com/maps/place/?q=place_id:ChIJa7KcXiWuEmsRGZ1-xgvdnY8"
  },
  {
    "name": "Cook + Phillip Park Pool",
    "address": "4 College St, Sydney NSW 2000, Australia",
    "suburb": "Sydney NSW 2000",
    "state": "NSW",
    "rating": 4.2,
    "reviews": 850,
    "lat": -33.8728485,
    "lng": 151.2131805,
    "place_id": "ChIJHU7LUhSuEmsRNE07dpQ2VtY",
    "maps_url": "https://www.google.com/maps/place/?q=place_id:ChIJHU7LUhSuEmsRNE07dpQ2VtY"
  },
  {
    "name": "Swimlab",
    "address": "National Centre of Indigenous Excellence, 166-180 George St, Redfern NSW 2016, Australia",
    "suburb": "166-180 George St",
    "state": "NSW",
    "rating": 5,
    "reviews": 60,
    "lat": -33.8947292,
    "lng": 151.2015836,
    "place_id": "ChIJg56kpw6tEmsRf5rtnrc27h8",
    "maps_url": "https://www.google.com/maps/place/?q=place_id:ChIJg56kpw6tEmsRf5rtnrc27h8"
  },
  {
    "name": "Gunyama Park Aquatic and Recreation Centre",
    "address": "17 Zetland Ave, Zetland NSW 2017, Australia",
    "suburb": "Zetland NSW 2017",
    "state": "NSW",
    "rating": 4.3,
    "reviews": 970,
    "lat": -33.9083379,
    "lng": 151.2074838,
    "place_id": "ChIJdwODZcCxEmsR9whZdzhU9bw",
    "maps_url": "https://www.google.com/maps/place/?q=place_id:ChIJdwODZcCxEmsR9whZdzhU9bw"
  },
  {
    "name": "Swimly",
    "address": "11 High St, Willoughby NSW 2068, Australia",
    "suburb": "Willoughby NSW 2068",
    "state": "NSW",
    "rating": 5,
    "reviews": 96,
    "lat": -33.8086722,
    "lng": 151.2037672,
    "place_id": "ChIJVYNzKMUqTokRx8qtbG8GWqs",
    "maps_url": "https://www.google.com/maps/place/?q=place_id:ChIJVYNzKMUqTokRx8qtbG8GWqs"
  },
  {
    "name": "Sydney Olympic Park Aquatic Centre",
    "address": "9 Olympic Blvd, Sydney Olympic Park NSW 2127, Australia",
    "suburb": "Sydney Olympic Park NSW 2127",
    "state": "NSW",
    "rating": 4.3,
    "reviews": 3650,
    "lat": -33.850589,
    "lng": 151.066985,
    "place_id": "ChIJmV4G-bSkEmsRbK3mkkMvxwo",
    "maps_url": "https://www.google.com/maps/place/?q=place_id:ChIJmV4G-bSkEmsRbK3mkkMvxwo"
  },
  {
    "name": "KICK Learn to Swim",
    "address": "B/100 New South Head Rd, Edgecliff NSW 2027, Australia",
    "suburb": "Edgecliff NSW 2027",
    "state": "NSW",
    "rating": 4.8,
    "reviews": 74,
    "lat": -33.8776367,
    "lng": 151.2345156,
    "place_id": "ChIJQQUfzeGtEmsRR7tbyAJcctA",
    "maps_url": "https://www.google.com/maps/place/?q=place_id:ChIJQQUfzeGtEmsRR7tbyAJcctA"
  },
  {
    "name": "OceanFit",
    "address": "Queen Elizabeth Dr, Bondi Beach NSW 2026, Australia",
    "suburb": "Bondi Beach NSW 2026",
    "state": "NSW",
    "rating": 5,
    "reviews": 227,
    "lat": -33.8901021,
    "lng": 151.2782871,
    "place_id": "ChIJ7XS0QZ6tEmsR5EVSQJJNmVM",
    "maps_url": "https://www.google.com/maps/place/?q=place_id:ChIJ7XS0QZ6tEmsR5EVSQJJNmVM"
  },
  {
    "name": "Duck and Dive Baby Swim School",
    "address": "8/12 Lambs Rd, Artarmon NSW 2064, Australia",
    "suburb": "Artarmon NSW 2064",
    "state": "NSW",
    "rating": 4.9,
    "reviews": 159,
    "lat": -33.8141237,
    "lng": 151.1917466,
    "place_id": "ChIJRwTn7tmuEmsRkhbK3JgrZVw",
    "maps_url": "https://www.google.com/maps/place/?q=place_id:ChIJRwTn7tmuEmsRkhbK3JgrZVw"
  },
  {
    "name": "Leichhardt Park Aquatic Centre",
    "address": "Mary St, Lilyfield NSW 2040, Australia",
    "suburb": "Lilyfield NSW 2040",
    "state": "NSW",
    "rating": 4.4,
    "reviews": 649,
    "lat": -33.867795,
    "lng": 151.1537189,
    "place_id": "ChIJGUPreeOvEmsR1eawQtEGsLE",
    "maps_url": "https://www.google.com/maps/place/?q=place_id:ChIJGUPreeOvEmsR1eawQtEGsLE"
  },
  {
    "name": "Prince Alfred Park Public Pool",
    "address": "105 Chalmers St, Surry Hills NSW 2010, Australia",
    "suburb": "Surry Hills NSW 2010",
    "state": "NSW",
    "rating": 4.5,
    "reviews": 754,
    "lat": -33.88736859999999,
    "lng": 151.2061324,
    "place_id": "ChIJ1d9v8CCuEmsRpzfnuNeneHc",
    "maps_url": "https://www.google.com/maps/place/?q=place_id:ChIJ1d9v8CCuEmsRpzfnuNeneHc"
  },
  {
    "name": "Modsquad Swimming Lessons",
    "address": "401 W Botany St, Rockdale NSW 2216, Australia",
    "suburb": "Rockdale NSW 2216",
    "state": "NSW",
    "rating": 5,
    "reviews": 96,
    "lat": -33.9592835,
    "lng": 151.1454603,
    "place_id": "ChIJUcRsBVS3EmsR6t5KOFKDsU0",
    "maps_url": "https://www.google.com/maps/place/?q=place_id:ChIJUcRsBVS3EmsR6t5KOFKDsU0"
  },
  {
    "name": "Maccallum Seawater Pool",
    "address": "Milson Rd, Cremorne Point NSW 2090, Australia",
    "suburb": "Cremorne Point NSW 2090",
    "state": "NSW",
    "rating": 4.5,
    "reviews": 612,
    "lat": -33.8453168,
    "lng": 151.2280824,
    "place_id": "ChIJSRMlf4OuEmsR83rvKraVPC4",
    "maps_url": "https://www.google.com/maps/place/?q=place_id:ChIJSRMlf4OuEmsR83rvKraVPC4"
  },
  {
    "name": "Sydney Uni Sport",
    "address": "Cnr Codrington St and, Darlington Ln, Darlington NSW 2008, Australia",
    "suburb": "Darlington Ln",
    "state": "NSW",
    "rating": 4.4,
    "reviews": 693,
    "lat": -33.89116680000001,
    "lng": 151.1917502,
    "place_id": "ChIJ1Tf4v9OxEmsR4MXiVIiMqSM",
    "maps_url": "https://www.google.com/maps/place/?q=place_id:ChIJ1Tf4v9OxEmsR4MXiVIiMqSM"
  },
  {
    "name": "Western Sydney Aquatics",
    "address": "513 Old Northern Rd, Castle Hill NSW 2154, Australia",
    "suburb": "Castle Hill NSW 2154",
    "state": "NSW",
    "rating": 4.8,
    "reviews": 41,
    "lat": -33.7243138,
    "lng": 151.0204119,
    "place_id": "ChIJy3znQqWhEmsRmYgOimhPw7o",
    "maps_url": "https://www.google.com/maps/place/?q=place_id:ChIJy3znQqWhEmsRmYgOimhPw7o"
  },
  {
    "name": "Aquabliss Seven Hills",
    "address": "6/20 Distribution Pl, Seven Hills NSW 2147, Australia",
    "suburb": "Seven Hills NSW 2147",
    "state": "NSW",
    "rating": 4.5,
    "reviews": 323,
    "lat": -33.7774081,
    "lng": 150.9504828,
    "place_id": "ChIJixsiYIGYEmsR1jCVW74kcPQ",
    "maps_url": "https://www.google.com/maps/place/?q=place_id:ChIJixsiYIGYEmsR1jCVW74kcPQ"
  },
  {
    "name": "Swimmerz Academy",
    "address": "19 Wurrook Circuit, Caringbah NSW 2229, Australia",
    "suburb": "Caringbah NSW 2229",
    "state": "NSW",
    "rating": 4.9,
    "reviews": 177,
    "lat": -34.0308341,
    "lng": 151.1286561,
    "place_id": "ChIJHXWVdQi4EmsR0PcC5gBSvwc",
    "maps_url": "https://www.google.com/maps/place/?q=place_id:ChIJHXWVdQi4EmsR0PcC5gBSvwc"
  },
  {
    "name": "Carlile Swim Alexandria",
    "address": "184 Bourke Rd, Alexandria NSW 2015, Australia",
    "suburb": "Alexandria NSW 2015",
    "state": "NSW",
    "rating": 4.7,
    "reviews": 36,
    "lat": -33.9167379,
    "lng": 151.1899439,
    "place_id": "ChIJjZTDkqCxEmsRGZHu9HVtHkM",
    "maps_url": "https://www.google.com/maps/place/?q=place_id:ChIJjZTDkqCxEmsRGZHu9HVtHkM"
  },
  {
    "name": "The Forum Sports & Aquatic Centre",
    "address": "130 University Dr, Callaghan NSW 2308, Australia",
    "suburb": "Callaghan NSW 2308",
    "state": "NSW",
    "rating": 4.5,
    "reviews": 389,
    "lat": -32.889272,
    "lng": 151.7062852,
    "place_id": "ChIJzcr9emQVc2sRFlgLAbmqt8M",
    "maps_url": "https://www.google.com/maps/place/?q=place_id:ChIJzcr9emQVc2sRFlgLAbmqt8M"
  },
  {
    "name": "FinS Swim School",
    "address": "35 Northcott Dr, Kotara NSW 2289, Australia",
    "suburb": "Kotara NSW 2289",
    "state": "NSW",
    "rating": 4.4,
    "reviews": 83,
    "lat": -32.9384636,
    "lng": 151.7128835,
    "place_id": "ChIJeynBsOQVc2sRY1E8oWhpgnU",
    "maps_url": "https://www.google.com/maps/place/?q=place_id:ChIJeynBsOQVc2sRY1E8oWhpgnU"
  },
  {
    "name": "Mauro Swim Team",
    "address": "888 Hunter St, Newcastle West NSW 2302, Australia",
    "suburb": "Newcastle West NSW 2302",
    "state": "NSW",
    "rating": 4.8,
    "reviews": 20,
    "lat": -32.92370289999999,
    "lng": 151.7573845,
    "place_id": "ChIJhzL37eMVc2sRhxYknbeGT30",
    "maps_url": "https://www.google.com/maps/place/?q=place_id:ChIJhzL37eMVc2sRhxYknbeGT30"
  },
  {
    "name": "East Lakes Swim Centre",
    "address": "Unit 9/4 Statham St, Bennetts Green NSW 2290, Australia",
    "suburb": "Bennetts Green NSW 2290",
    "state": "NSW",
    "rating": 4.9,
    "reviews": 75,
    "lat": -32.9985106,
    "lng": 151.689857,
    "place_id": "ChIJw4zFOWY9c2sRs_XyZ5PVOl0",
    "maps_url": "https://www.google.com/maps/place/?q=place_id:ChIJw4zFOWY9c2sRs_XyZ5PVOl0"
  },
  {
    "name": "Arnold's Swim Centre",
    "address": "46 Kemp St, The Junction NSW 2303, Australia",
    "suburb": "The Junction NSW 2303",
    "state": "NSW",
    "rating": 4.4,
    "reviews": 57,
    "lat": -32.9354579,
    "lng": 151.7602648,
    "place_id": "ChIJxV11CTgUc2sRi7-e2lOyhCA",
    "maps_url": "https://www.google.com/maps/place/?q=place_id:ChIJxV11CTgUc2sRi7-e2lOyhCA"
  },
  {
    "name": "Coughlan's Swim Centre",
    "address": "318 Hillsborough Rd, Warners Bay NSW 2282, Australia",
    "suburb": "Warners Bay NSW 2282",
    "state": "NSW",
    "rating": 4.6,
    "reviews": 264,
    "lat": -32.9670104,
    "lng": 151.6573333,
    "place_id": "ChIJ4y51d6w9c2sR77IdwdfV9js",
    "maps_url": "https://www.google.com/maps/place/?q=place_id:ChIJ4y51d6w9c2sR77IdwdfV9js"
  },
  {
    "name": "AquaStars Swim School & Fitness",
    "address": "7/311 Hillsborough Rd, Warners Bay NSW 2282, Australia",
    "suburb": "Warners Bay NSW 2282",
    "state": "NSW",
    "rating": 4.1,
    "reviews": 68,
    "lat": -32.962532,
    "lng": 151.6593322,
    "place_id": "ChIJPS7OA649c2sRNyxV4va4zoA",
    "maps_url": "https://www.google.com/maps/place/?q=place_id:ChIJPS7OA649c2sRNyxV4va4zoA"
  },
  {
    "name": "Merewether Ocean Baths",
    "address": "3a Ocean St, Merewether NSW 2291, Australia",
    "suburb": "Merewether NSW 2291",
    "state": "NSW",
    "rating": 4.7,
    "reviews": 1360,
    "lat": -32.9511069,
    "lng": 151.7552737,
    "place_id": "ChIJW3pgGikUc2sRYxXVX2MilHo",
    "maps_url": "https://www.google.com/maps/place/?q=place_id:ChIJW3pgGikUc2sRYxXVX2MilHo"
  },
  {
    "name": "Aquabliss Thornton",
    "address": "6 Sandringham Ave, Thornton NSW 2322, Australia",
    "suburb": "Thornton NSW 2322",
    "state": "NSW",
    "rating": 4.8,
    "reviews": 235,
    "lat": -32.783059,
    "lng": 151.632803,
    "place_id": "ChIJcUxJsBVBc2sRwIA1yAHknP8",
    "maps_url": "https://www.google.com/maps/place/?q=place_id:ChIJcUxJsBVBc2sRwIA1yAHknP8"
  },
  {
    "name": "Begin 2 Swim",
    "address": "26 Mitchell Dr, East Maitland NSW 2323, Australia",
    "suburb": "East Maitland NSW 2323",
    "state": "NSW",
    "rating": 5,
    "reviews": 22,
    "lat": -32.7627048,
    "lng": 151.5869577,
    "place_id": "ChIJ-eO5MbxGc2sRlC-kWFtwK2c",
    "maps_url": "https://www.google.com/maps/place/?q=place_id:ChIJ-eO5MbxGc2sRlC-kWFtwK2c"
  },
  {
    "name": "Valentine Swim School",
    "address": "1A St Johns Dr, Croudace Bay NSW 2280, Australia",
    "suburb": "Croudace Bay NSW 2280",
    "state": "NSW",
    "rating": 4.3,
    "reviews": 158,
    "lat": -33.005252,
    "lng": 151.641708,
    "place_id": "ChIJ7yOWms08c2sRD_iO5nNYjlw",
    "maps_url": "https://www.google.com/maps/place/?q=place_id:ChIJ7yOWms08c2sRD_iO5nNYjlw"
  },
  {
    "name": "JUMP! Swim Schools Cardiff",
    "address": "7/6 Torrens Ave, Cardiff NSW 2285, Australia",
    "suburb": "Cardiff NSW 2285",
    "state": "NSW",
    "rating": 4.8,
    "reviews": 61,
    "lat": -32.947461,
    "lng": 151.6519078,
    "place_id": "ChIJcXXZ5jQ8c2sRTnxLcTB3PNU",
    "maps_url": "https://www.google.com/maps/place/?q=place_id:ChIJcXXZ5jQ8c2sRTnxLcTB3PNU"
  },
  {
    "name": "Charlestown Swim Centre",
    "address": "52 Dickinson St, Charlestown NSW 2290, Australia",
    "suburb": "Charlestown NSW 2290",
    "state": "NSW",
    "rating": 4.4,
    "reviews": 307,
    "lat": -32.9671343,
    "lng": 151.6985016,
    "place_id": "ChIJE0dhh4k9c2sR3iSiMHD2IQM",
    "maps_url": "https://www.google.com/maps/place/?q=place_id:ChIJE0dhh4k9c2sR3iSiMHD2IQM"
  },
  {
    "name": "Newcastle Ocean Baths",
    "address": "30 Shortland Esplanade, Newcastle NSW 2300, Australia",
    "suburb": "Newcastle NSW 2300",
    "state": "NSW",
    "rating": 4.6,
    "reviews": 1904,
    "lat": -32.92931,
    "lng": 151.790475,
    "place_id": "ChIJ8zCwwUIUc2sRaiu7UHBoMps",
    "maps_url": "https://www.google.com/maps/place/?q=place_id:ChIJ8zCwwUIUc2sRaiu7UHBoMps"
  },
  {
    "name": "EC Sportz Swim and Surf School",
    "address": "Phillips Ave, Wollongong NSW 2500, Australia",
    "suburb": "Wollongong NSW 2500",
    "state": "NSW",
    "rating": 4.9,
    "reviews": 40,
    "lat": -34.4236287,
    "lng": 150.8707079,
    "place_id": "ChIJkxlcfDAZE2sRvs8Y8gMf3YQ",
    "maps_url": "https://www.google.com/maps/place/?q=place_id:ChIJkxlcfDAZE2sRvs8Y8gMf3YQ"
  },
  {
    "name": "McKeon Swim Centre",
    "address": "201 Pioneer Rd, Fairy Meadow NSW 2519, Australia",
    "suburb": "Fairy Meadow NSW 2519",
    "state": "NSW",
    "rating": 4.6,
    "reviews": 18,
    "lat": -34.3902088,
    "lng": 150.9058831,
    "place_id": "ChIJLXLshygZE2sRv2T3dcTMEpg",
    "maps_url": "https://www.google.com/maps/place/?q=place_id:ChIJLXLshygZE2sRv2T3dcTMEpg"
  },
  {
    "name": "Beaton Park Leisure Centre",
    "address": "37 Foley St, Gwynneville NSW 2500, Australia",
    "suburb": "Gwynneville NSW 2500",
    "state": "NSW",
    "rating": 4.3,
    "reviews": 569,
    "lat": -34.4182638,
    "lng": 150.8875387,
    "place_id": "ChIJXSPlgaAZE2sRoGvy-Wh9AQ8",
    "maps_url": "https://www.google.com/maps/place/?q=place_id:ChIJXSPlgaAZE2sRoGvy-Wh9AQ8"
  },
  {
    "name": "All Coast Swim Stars - Voted 3x Australia's Swim School of the year",
    "address": "5 O'Hart Cl, Charmhaven NSW 2263, Australia",
    "suburb": "Charmhaven NSW 2263",
    "state": "NSW",
    "rating": 4.8,
    "reviews": 68,
    "lat": -33.2409725,
    "lng": 151.4961324,
    "place_id": "ChIJX8dIfOHRcmsRyoyKtYYqLWs",
    "maps_url": "https://www.google.com/maps/place/?q=place_id:ChIJX8dIfOHRcmsRyoyKtYYqLWs"
  },
  {
    "name": "Pro-Swim Central Coast",
    "address": "155 Serpentine Rd, Terrigal NSW 2260, Australia",
    "suburb": "Terrigal NSW 2260",
    "state": "NSW",
    "rating": 4.9,
    "reviews": 18,
    "lat": -33.4350346,
    "lng": 151.4143205,
    "place_id": "ChIJwwF8q3TLcmsR_kEJZIpzQsg",
    "maps_url": "https://www.google.com/maps/place/?q=place_id:ChIJwwF8q3TLcmsR_kEJZIpzQsg"
  },
  {
    "name": "Surf Swim Learn To Swim",
    "address": "14 Country View Cl, Picketts Valley NSW 2251, Australia",
    "suburb": "Picketts Valley NSW 2251",
    "state": "NSW",
    "rating": 4.8,
    "reviews": 24,
    "lat": -33.4542837,
    "lng": 151.413055,
    "place_id": "ChIJVXL2wvu1cmsRhyinKoj-WuI",
    "maps_url": "https://www.google.com/maps/place/?q=place_id:ChIJVXL2wvu1cmsRhyinKoj-WuI"
  },
  {
    "name": "Pro-Swim Central Coast Pty Ltd T/A Coach Paul's Learn To Swim School",
    "address": "195 Hansens Rd, Tumbi Umbi NSW 2261, Australia",
    "suburb": "Tumbi Umbi NSW 2261",
    "state": "NSW",
    "rating": 4.7,
    "reviews": 12,
    "lat": -33.3683452,
    "lng": 151.4393239,
    "place_id": "ChIJDUhyO7TOcmsR03AxJxVGEjM",
    "maps_url": "https://www.google.com/maps/place/?q=place_id:ChIJDUhyO7TOcmsR03AxJxVGEjM"
  },
  {
    "name": "5 Star Swim Schools Erina Swim Centre",
    "address": "17 Bonnal Rd, Erina NSW 2250, Australia",
    "suburb": "Erina NSW 2250",
    "state": "NSW",
    "rating": 4.7,
    "reviews": 64,
    "lat": -33.4332491,
    "lng": 151.3833048,
    "place_id": "ChIJo6JmX3rKcmsRRakQA8xJaEI",
    "maps_url": "https://www.google.com/maps/place/?q=place_id:ChIJo6JmX3rKcmsRRakQA8xJaEI"
  },
  {
    "name": "Norah Head Water Fitness Centre & Swim School",
    "address": "11 Mitchell St, Norah Head NSW 2263, Australia",
    "suburb": "Norah Head NSW 2263",
    "state": "NSW",
    "rating": 4.7,
    "reviews": 21,
    "lat": -33.2790071,
    "lng": 151.565375,
    "place_id": "ChIJeZXCF6rbcmsROdMhdtXRh6Y",
    "maps_url": "https://www.google.com/maps/place/?q=place_id:ChIJeZXCF6rbcmsROdMhdtXRh6Y"
  },
  {
    "name": "Daleys Point Swim School",
    "address": "Shop 5/30 Empire Bay Dr, Daleys Point NSW 2257, Australia",
    "suburb": "Daleys Point NSW 2257",
    "state": "NSW",
    "rating": 4.8,
    "reviews": 16,
    "lat": -33.4995929,
    "lng": 151.3554965,
    "place_id": "ChIJMWt5ImK1cmsRne7hxj5qULY",
    "maps_url": "https://www.google.com/maps/place/?q=place_id:ChIJMWt5ImK1cmsRne7hxj5qULY"
  },
  {
    "name": "Little Coasties Swim School",
    "address": "507 The Entrance Rd, Long Jetty NSW 2261, Australia",
    "suburb": "Long Jetty NSW 2261",
    "state": "NSW",
    "rating": 4.4,
    "reviews": 20,
    "lat": -33.3670991,
    "lng": 151.4756173,
    "place_id": "ChIJJSr6YSTPcmsRM75mpdbE1Kk",
    "maps_url": "https://www.google.com/maps/place/?q=place_id:ChIJJSr6YSTPcmsRM75mpdbE1Kk"
  },
  {
    "name": "5 Star Swim Schools Niagara Park",
    "address": "16 Washington Ave, Niagara Park NSW 2250, Australia",
    "suburb": "Niagara Park NSW 2250",
    "state": "NSW",
    "rating": 4.9,
    "reviews": 50,
    "lat": -33.3829976,
    "lng": 151.3529273,
    "place_id": "ChIJKc94NRjLcmsRLOtKlDBQs6k",
    "maps_url": "https://www.google.com/maps/place/?q=place_id:ChIJKc94NRjLcmsRLOtKlDBQs6k"
  },
  {
    "name": "5 Star Swim Schools Tuggerah Swim Centre",
    "address": "1 Bryant Dr, Tuggerah NSW 2259, Australia",
    "suburb": "Tuggerah NSW 2259",
    "state": "NSW",
    "rating": 4.7,
    "reviews": 54,
    "lat": -33.3122702,
    "lng": 151.4234192,
    "place_id": "ChIJwTxSFR7PcmsRhkBmZeSXxLc",
    "maps_url": "https://www.google.com/maps/place/?q=place_id:ChIJwTxSFR7PcmsRhkBmZeSXxLc"
  },
  {
    "name": "5 Star Swim Schools Wyoming",
    "address": "1/11 Brooks Ave, Wyoming NSW 2250, Australia",
    "suburb": "Wyoming NSW 2250",
    "state": "NSW",
    "rating": 4.8,
    "reviews": 82,
    "lat": -33.4018012,
    "lng": 151.3470973,
    "place_id": "ChIJ8WDgJsPKcmsREiiGoAgJ3XI",
    "maps_url": "https://www.google.com/maps/place/?q=place_id:ChIJ8WDgJsPKcmsREiiGoAgJ3XI"
  },
  {
    "name": "North Wyong Aqua Centre",
    "address": "3/16 Donaldson St, North Wyong NSW 2259, Australia",
    "suburb": "North Wyong NSW 2259",
    "state": "NSW",
    "rating": 4.9,
    "reviews": 46,
    "lat": -33.266602,
    "lng": 151.446528,
    "place_id": "ChIJxUqch77RcmsRWlVzL3rARS4",
    "maps_url": "https://www.google.com/maps/place/?q=place_id:ChIJxUqch77RcmsRWlVzL3rARS4"
  },
  {
    "name": "The Entrance Ocean Baths",
    "address": "88 Ocean Parade, The Entrance NSW 2261, Australia",
    "suburb": "The Entrance NSW 2261",
    "state": "NSW",
    "rating": 4.4,
    "reviews": 589,
    "lat": -33.3500117,
    "lng": 151.5032419,
    "place_id": "ChIJt6Ht453PcmsRxldU9hYZXJI",
    "maps_url": "https://www.google.com/maps/place/?q=place_id:ChIJt6Ht453PcmsRxldU9hYZXJI"
  },
  {
    "name": "Charmhaven Aqua Centre - Private Swimming Lessons, Swimming Classes for Kids and Swim School in NSW",
    "address": "26 Arizona Rd, Charmhaven NSW 2263, Australia",
    "suburb": "Charmhaven NSW 2263",
    "state": "NSW",
    "rating": 4.6,
    "reviews": 27,
    "lat": -33.2403325,
    "lng": 151.4925201,
    "place_id": "ChIJuXcKyr_QcmsR4XGGBQWajIk",
    "maps_url": "https://www.google.com/maps/place/?q=place_id:ChIJuXcKyr_QcmsR4XGGBQWajIk"
  },
  {
    "name": "One by Mingara - Aquatics",
    "address": "12/14 Mingara Dr, Tumbi Umbi NSW 2261, Australia",
    "suburb": "Tumbi Umbi NSW 2261",
    "state": "NSW",
    "rating": 4.3,
    "reviews": 377,
    "lat": -33.362291,
    "lng": 151.4417236,
    "place_id": "ChIJbwuCOrjOcmsRVof3nyLnAwI",
    "maps_url": "https://www.google.com/maps/place/?q=place_id:ChIJbwuCOrjOcmsRVof3nyLnAwI"
  },
  {
    "name": "Peninsula Leisure Centre",
    "address": "243 Blackwall Rd, Woy Woy NSW 2256, Australia",
    "suburb": "Woy Woy NSW 2256",
    "state": "NSW",
    "rating": 4.4,
    "reviews": 742,
    "lat": -33.4967077,
    "lng": 151.3283659,
    "place_id": "ChIJwX7K5LK0cmsRzdJtfvC1ONo",
    "maps_url": "https://www.google.com/maps/place/?q=place_id:ChIJwX7K5LK0cmsRzdJtfvC1ONo"
  },
  {
    "name": "Elite Salt Academy",
    "address": "160 Bay Rd, Toowoon Bay NSW 2261, Australia",
    "suburb": "Toowoon Bay NSW 2261",
    "state": "NSW",
    "rating": 5,
    "reviews": 5,
    "lat": -33.3622244,
    "lng": 151.4998228,
    "place_id": "ChIJibrfm5XPcmsRI3tppSVSY_E",
    "maps_url": "https://www.google.com/maps/place/?q=place_id:ChIJibrfm5XPcmsRI3tppSVSY_E"
  },
  {
    "name": "5 Star Swim Schools Kincumber Swim Centre",
    "address": "2 Hawke St, Kincumber NSW 2251, Australia",
    "suburb": "Kincumber NSW 2251",
    "state": "NSW",
    "rating": 4.5,
    "reviews": 62,
    "lat": -33.473552,
    "lng": 151.3911887,
    "place_id": "ChIJW1Bd_rm1cmsR6q2uQ2zjfuA",
    "maps_url": "https://www.google.com/maps/place/?q=place_id:ChIJW1Bd_rm1cmsR6q2uQ2zjfuA"
  },
  {
    "name": "Lou's Learn To Swim",
    "address": "10 Turtle Cl, Point Clare NSW 2250, Australia",
    "suburb": "Point Clare NSW 2250",
    "state": "NSW",
    "rating": 5,
    "reviews": 7,
    "lat": -33.4355643,
    "lng": 151.3193576,
    "place_id": "ChIJTSAP3bFKDWsRlO1g5K-Rxho",
    "maps_url": "https://www.google.com/maps/place/?q=place_id:ChIJTSAP3bFKDWsRlO1g5K-Rxho"
  },
  {
    "name": "5 Star Swim Schools Kincumber",
    "address": "102 Avoca Dr, Kincumber NSW 2251, Australia",
    "suburb": "Kincumber NSW 2251",
    "state": "NSW",
    "rating": 4.6,
    "reviews": 51,
    "lat": -33.4690491,
    "lng": 151.3878369,
    "place_id": "ChIJBZ6WC7u1cmsR_mTkreXLzfU",
    "maps_url": "https://www.google.com/maps/place/?q=place_id:ChIJBZ6WC7u1cmsR_mTkreXLzfU"
  },
  {
    "name": "Parramatta Aquatic Centre (The PAC)",
    "address": "7A Park Parade, Parramatta NSW 2150, Australia",
    "suburb": "Parramatta NSW 2150",
    "state": "NSW",
    "rating": 3.7,
    "reviews": 907,
    "lat": -33.8149646,
    "lng": 150.9951892,
    "place_id": "ChIJ_baz4XSjEmsR2JHtIfv7_uw",
    "maps_url": "https://www.google.com/maps/place/?q=place_id:ChIJ_baz4XSjEmsR2JHtIfv7_uw"
  },
  {
    "name": "Shelly Swimming School",
    "address": "23 Castle St, North Parramatta NSW 2151, Australia",
    "suburb": "North Parramatta NSW 2151",
    "state": "NSW",
    "rating": 3.8,
    "reviews": 205,
    "lat": -33.7979841,
    "lng": 151.0041115,
    "place_id": "ChIJBUqq7wCjEmsRSEgR_747alE",
    "maps_url": "https://www.google.com/maps/place/?q=place_id:ChIJBUqq7wCjEmsRSEgR_747alE"
  },
  {
    "name": "Coulter Swimming Northmead",
    "address": "201 Windsor Rd, Northmead NSW 2152, Australia",
    "suburb": "Northmead NSW 2152",
    "state": "NSW",
    "rating": 4.6,
    "reviews": 178,
    "lat": -33.7772835,
    "lng": 151.0007179,
    "place_id": "ChIJWQduKrWjEmsRfgaa5Nafbqo",
    "maps_url": "https://www.google.com/maps/place/?q=place_id:ChIJWQduKrWjEmsRfgaa5Nafbqo"
  },
  {
    "name": "Parramatta City Swim Club",
    "address": "Granville Swim Centre, 1A Enid Ave, Granville NSW 2142, Australia",
    "suburb": "1A Enid Ave",
    "state": "NSW",
    "rating": 4.3,
    "reviews": 7,
    "lat": -33.834992,
    "lng": 151.012407,
    "place_id": "ChIJP16QDjKjEmsRO7yJ45aiY88",
    "maps_url": "https://www.google.com/maps/place/?q=place_id:ChIJP16QDjKjEmsRO7yJ45aiY88"
  },
  {
    "name": "Parramatta Dolphins Swim School",
    "address": "7 O'Connell St, Parramatta NSW 2150, Australia",
    "suburb": "Parramatta NSW 2150",
    "state": "NSW",
    "rating": 5,
    "reviews": 1,
    "lat": -33.8153053,
    "lng": 150.9992477,
    "place_id": "ChIJ044-4t-iEmsRnNCWWK9AEd0",
    "maps_url": "https://www.google.com/maps/place/?q=place_id:ChIJ044-4t-iEmsRnNCWWK9AEd0"
  },
  {
    "name": "Happy Feet Swim School",
    "address": "15 Mason St, North Parramatta NSW 2151, Australia",
    "suburb": "North Parramatta NSW 2151",
    "state": "NSW",
    "rating": null,
    "reviews": 0,
    "lat": -33.8076821,
    "lng": 151.0180913,
    "place_id": "ChIJv_ianyKjEmsREYI2ZGzZvzs",
    "maps_url": "https://www.google.com/maps/place/?q=place_id:ChIJv_ianyKjEmsREYI2ZGzZvzs"
  },
  {
    "name": "Tara Aquatic Centre & Sports Precinct",
    "address": "Masons Dr, North Parramatta NSW 2151, Australia",
    "suburb": "North Parramatta NSW 2151",
    "state": "NSW",
    "rating": 5,
    "reviews": 5,
    "lat": -33.7896666,
    "lng": 151.0147839,
    "place_id": "ChIJ-a1XNFmjEmsRtIQ-9Zm_rqE",
    "maps_url": "https://www.google.com/maps/place/?q=place_id:ChIJ-a1XNFmjEmsRtIQ-9Zm_rqE"
  },
  {
    "name": "Granville Swimming Centre",
    "address": "Enid Ave, Granville NSW 2142, Australia",
    "suburb": "Granville NSW 2142",
    "state": "NSW",
    "rating": 4.1,
    "reviews": 195,
    "lat": -33.83506,
    "lng": 151.0129679,
    "place_id": "ChIJXRRaiy2jEmsRqcp1XWV9JAE",
    "maps_url": "https://www.google.com/maps/place/?q=place_id:ChIJXRRaiy2jEmsRqcp1XWV9JAE"
  },
  {
    "name": "Aquatics Down Under",
    "address": "SHOP 95 328/336 N Rocks Rd, North Rocks NSW 2151, Australia",
    "suburb": "North Rocks NSW 2151",
    "state": "NSW",
    "rating": 4.6,
    "reviews": 41,
    "lat": -33.769228,
    "lng": 151.0277844,
    "place_id": "ChIJiyA5iuajEmsRXVASbn5EOrA",
    "maps_url": "https://www.google.com/maps/place/?q=place_id:ChIJiyA5iuajEmsRXVASbn5EOrA"
  },
  {
    "name": "AQUAKIDS Swim School",
    "address": "7/63A Brenan St, Smithfield NSW 2164, Australia",
    "suburb": "Smithfield NSW 2164",
    "state": "NSW",
    "rating": 4.9,
    "reviews": 156,
    "lat": -33.8599464,
    "lng": 150.9463364,
    "place_id": "ChIJ_Zpwo9OXEmsRk8gm9HlSHZg",
    "maps_url": "https://www.google.com/maps/place/?q=place_id:ChIJ_Zpwo9OXEmsRk8gm9HlSHZg"
  },
  {
    "name": "Ascend Swimming Parramatta",
    "address": "7 Stewart St, Parramatta NSW 2150, Australia",
    "suburb": "Parramatta NSW 2150",
    "state": "NSW",
    "rating": null,
    "reviews": 0,
    "lat": -33.8127883,
    "lng": 151.0111764,
    "place_id": "ChIJg3evS2KjEmsRzuMocoe0ZZA",
    "maps_url": "https://www.google.com/maps/place/?q=place_id:ChIJg3evS2KjEmsRzuMocoe0ZZA"
  },
  {
    "name": "Aquatic Literacy",
    "address": "Stewart St, Parramatta NSW 2150, Australia",
    "suburb": "Parramatta NSW 2150",
    "state": "NSW",
    "rating": 5,
    "reviews": 4,
    "lat": -33.8123674,
    "lng": 151.011527,
    "place_id": "ChIJe1iLAgCjEmsRkrTzVVoqzT4",
    "maps_url": "https://www.google.com/maps/place/?q=place_id:ChIJe1iLAgCjEmsRkrTzVVoqzT4"
  },
  {
    "name": "Parramatta Aquatic Centre (The PAC) Carpark",
    "address": "7A Park Parade, Parramatta NSW 2150, Australia",
    "suburb": "Parramatta NSW 2150",
    "state": "NSW",
    "rating": 3.8,
    "reviews": 22,
    "lat": -33.8138584,
    "lng": 150.9946192,
    "place_id": "ChIJJcR4gBmjEmsRSByzB-cL6FI",
    "maps_url": "https://www.google.com/maps/place/?q=place_id:ChIJJcR4gBmjEmsRSByzB-cL6FI"
  },
  {
    "name": "Parramatta Memorial Swim Club (PMSC)",
    "address": "7A Park Parade, Parramatta NSW 2150, Australia",
    "suburb": "Parramatta NSW 2150",
    "state": "NSW",
    "rating": 5,
    "reviews": 1,
    "lat": -33.8140345,
    "lng": 150.9941185,
    "place_id": "ChIJo2CX3-qjEmsRh9BebUC0sm8",
    "maps_url": "https://www.google.com/maps/place/?q=place_id:ChIJo2CX3-qjEmsRh9BebUC0sm8"
  },
  {
    "name": "Blue Fin Swim School",
    "address": "Warehouse 4/5 Rocklea Dr, Port Melbourne VIC 3207, Australia",
    "suburb": "Port Melbourne VIC 3207",
    "state": "VIC",
    "rating": 4.9,
    "reviews": 73,
    "lat": -37.8315421,
    "lng": 144.9218805,
    "place_id": "ChIJswGScsBn1moR56RkAZQqZJQ",
    "maps_url": "https://www.google.com/maps/place/?q=place_id:ChIJswGScsBn1moR56RkAZQqZJQ"
  },
  {
    "name": "Melbourne City Baths",
    "address": "420 Swanston St, Melbourne VIC 3000, Australia",
    "suburb": "Melbourne VIC 3000",
    "state": "VIC",
    "rating": 4.1,
    "reviews": 370,
    "lat": -37.8070896,
    "lng": 144.963169,
    "place_id": "ChIJQWblk8xC1moRRjcpvcUlWvw",
    "maps_url": "https://www.google.com/maps/place/?q=place_id:ChIJQWblk8xC1moRRjcpvcUlWvw"
  },
  {
    "name": "The Little Swim School",
    "address": "1/536 Clayton Rd, Clayton South VIC 3169, Australia",
    "suburb": "Clayton South VIC 3169",
    "state": "VIC",
    "rating": 5,
    "reviews": 48,
    "lat": -37.9424855,
    "lng": 145.1168786,
    "place_id": "ChIJB-ZkaM5r1moRzmYpyjFOEuQ",
    "maps_url": "https://www.google.com/maps/place/?q=place_id:ChIJB-ZkaM5r1moRzmYpyjFOEuQ"
  },
  {
    "name": "JUMP! Swim Schools Mickleham",
    "address": "opposite kool kidz, 12/9-33 Errol Bvd, Mickleham VIC 3064, Australia",
    "suburb": "12/9-33 Errol Bvd",
    "state": "VIC",
    "rating": 4.9,
    "reviews": 507,
    "lat": -37.5338156,
    "lng": 144.898395,
    "place_id": "ChIJIyUWnANT1moRh23vH4rgzvk",
    "maps_url": "https://www.google.com/maps/place/?q=place_id:ChIJIyUWnANT1moRh23vH4rgzvk"
  },
  {
    "name": "Learn To Swim Victoria",
    "address": "118 Cape St, Heidelberg VIC 3084, Australia",
    "suburb": "Heidelberg VIC 3084",
    "state": "VIC",
    "rating": 4.2,
    "reviews": 53,
    "lat": -37.7551452,
    "lng": 145.0679764,
    "place_id": "ChIJF-FYfopG1moRKmAMIZJpbrw",
    "maps_url": "https://www.google.com/maps/place/?q=place_id:ChIJF-FYfopG1moRKmAMIZJpbrw"
  },
  {
    "name": "Aquastar Swim Schools St Kilda",
    "address": "St Michael’s Grammar School, 25 Chapel St, St Kilda VIC 3182, Australia",
    "suburb": "25 Chapel St",
    "state": "VIC",
    "rating": 5,
    "reviews": 45,
    "lat": -37.8597884,
    "lng": 144.989809,
    "place_id": "ChIJJ-t_DRJp1moR2NlgYAoagDQ",
    "maps_url": "https://www.google.com/maps/place/?q=place_id:ChIJJ-t_DRJp1moR2NlgYAoagDQ"
  },
  {
    "name": "Happy Penguins Swim School",
    "address": "Pool &, Nott St, Port Melbourne VIC 3207, Australia",
    "suburb": "Nott St",
    "state": "VIC",
    "rating": 5,
    "reviews": 25,
    "lat": -37.8363557,
    "lng": 144.9417456,
    "place_id": "ChIJ-dNOa0Bn1moRekpCqnGED2A",
    "maps_url": "https://www.google.com/maps/place/?q=place_id:ChIJ-dNOa0Bn1moRekpCqnGED2A"
  },
  {
    "name": "St Kilda Sea Baths Complex",
    "address": "shop 8b/18 Jacka Blvd, St Kilda VIC 3182, Australia",
    "suburb": "St Kilda VIC 3182",
    "state": "VIC",
    "rating": 4.4,
    "reviews": 1620,
    "lat": -37.86527359999999,
    "lng": 144.9717383,
    "place_id": "ChIJgVzxzHpo1moRDcuRdYX20XU",
    "maps_url": "https://www.google.com/maps/place/?q=place_id:ChIJgVzxzHpo1moRDcuRdYX20XU"
  },
  {
    "name": "Carlton Baths",
    "address": "216/248 Rathdowne St, Carlton VIC 3053, Australia",
    "suburb": "Carlton VIC 3053",
    "state": "VIC",
    "rating": 3.9,
    "reviews": 111,
    "lat": -37.7933225,
    "lng": 144.9714371,
    "place_id": "ChIJC5uXlyhD1moRgcN1IfEeHo4",
    "maps_url": "https://www.google.com/maps/place/?q=place_id:ChIJC5uXlyhD1moRgcN1IfEeHo4"
  },
  {
    "name": "Swim4Life Swim School Williams Landing",
    "address": "57-69 Forsyth Rd, Williams Landing VIC 3029, Australia",
    "suburb": "Williams Landing VIC 3029",
    "state": "VIC",
    "rating": 4.4,
    "reviews": 118,
    "lat": -37.8654048,
    "lng": 144.7321079,
    "place_id": "ChIJ81yUZv2I1moR4-KdX_4K_lY",
    "maps_url": "https://www.google.com/maps/place/?q=place_id:ChIJ81yUZv2I1moR4-KdX_4K_lY"
  },
  {
    "name": "JUMP! Swim Schools Flemington",
    "address": "Shop 19, SHOWGROUNDS VILLAGE, 320 - 380 Epsom Rd, Ascot Vale VIC 3032, Australia",
    "suburb": "SHOWGROUNDS VILLAGE",
    "state": "VIC",
    "rating": 4.8,
    "reviews": 78,
    "lat": -37.78176920000001,
    "lng": 144.9150944,
    "place_id": "ChIJHaDMd51d1moReFOcJx3rfVA",
    "maps_url": "https://www.google.com/maps/place/?q=place_id:ChIJHaDMd51d1moReFOcJx3rfVA"
  },
  {
    "name": "Harold Holt Swim Centre",
    "address": "1409-1413, 1409-1413 High St, Glen Iris VIC 3146, Australia",
    "suburb": "1409-1413 High St",
    "state": "VIC",
    "rating": 4.3,
    "reviews": 676,
    "lat": -37.8580674,
    "lng": 145.0446453,
    "place_id": "ChIJIQxrpABC1moRWdLCz6nY0MI",
    "maps_url": "https://www.google.com/maps/place/?q=place_id:ChIJIQxrpABC1moRWdLCz6nY0MI"
  },
  {
    "name": "State Sport Centres - MSAC",
    "address": "30 Aughtie Dr, Albert Park VIC 3206, Australia",
    "suburb": "Albert Park VIC 3206",
    "state": "VIC",
    "rating": 4.3,
    "reviews": 2981,
    "lat": -37.843442,
    "lng": 144.9618623,
    "place_id": "ChIJW7blf-Jn1moRkmMqNa5gon0",
    "maps_url": "https://www.google.com/maps/place/?q=place_id:ChIJW7blf-Jn1moRkmMqNa5gon0"
  },
  {
    "name": "Prahran Aquatic Centre",
    "address": "41 Essex St, Prahran VIC 3181, Australia",
    "suburb": "Prahran VIC 3181",
    "state": "VIC",
    "rating": 4.5,
    "reviews": 327,
    "lat": -37.84811759999999,
    "lng": 144.9963516,
    "place_id": "ChIJRSN-Kilo1moRC3djuQmOrEY",
    "maps_url": "https://www.google.com/maps/place/?q=place_id:ChIJRSN-Kilo1moRC3djuQmOrEY"
  },
  {
    "name": "Perry Swim School",
    "address": "14 Dalgety St, Oakleigh VIC 3166, Australia",
    "suburb": "Oakleigh VIC 3166",
    "state": "VIC",
    "rating": 4.4,
    "reviews": 28,
    "lat": -37.8923454,
    "lng": 145.0902174,
    "place_id": "ChIJjfycNpNr1moR3Ph8WhCPoDs",
    "maps_url": "https://www.google.com/maps/place/?q=place_id:ChIJjfycNpNr1moR3Ph8WhCPoDs"
  },
  {
    "name": "Elite Swimming Pascoe Vale",
    "address": "8 Attercliffe Ave, Pascoe Vale VIC 3044, Australia",
    "suburb": "Pascoe Vale VIC 3044",
    "state": "VIC",
    "rating": 4,
    "reviews": 62,
    "lat": -37.7292835,
    "lng": 144.9482862,
    "place_id": "ChIJB6YPvTlb1moR9Wy7-f2jyeY",
    "maps_url": "https://www.google.com/maps/place/?q=place_id:ChIJB6YPvTlb1moR9Wy7-f2jyeY"
  },
  {
    "name": "North Melbourne Recreation Centre",
    "address": "204-206 Arden St, North Melbourne VIC 3051, Australia",
    "suburb": "North Melbourne VIC 3051",
    "state": "VIC",
    "rating": 4.2,
    "reviews": 81,
    "lat": -37.7997356,
    "lng": 144.9407259,
    "place_id": "ChIJfwYxrT1d1moREbgUW1xCq6Y",
    "maps_url": "https://www.google.com/maps/place/?q=place_id:ChIJfwYxrT1d1moREbgUW1xCq6Y"
  },
  {
    "name": "Little Swimmers Swim School",
    "address": "161 Radnor Dr, Deer Park VIC 3023, Australia",
    "suburb": "Deer Park VIC 3023",
    "state": "VIC",
    "rating": 4.7,
    "reviews": 25,
    "lat": -37.7826224,
    "lng": 144.7814896,
    "place_id": "ChIJfb_PlqaK1moRdzkY1hai51Y",
    "maps_url": "https://www.google.com/maps/place/?q=place_id:ChIJfb_PlqaK1moRdzkY1hai51Y"
  },
  {
    "name": "Swim4Life Swim School Tarneit",
    "address": "747 Tarneit Rd, Tarneit VIC 3029, Australia",
    "suburb": "Tarneit VIC 3029",
    "state": "VIC",
    "rating": 4.6,
    "reviews": 47,
    "lat": -37.8403706,
    "lng": 144.6739548,
    "place_id": "ChIJ7XkXvwyP1moRYGaAgxy8qZQ",
    "maps_url": "https://www.google.com/maps/place/?q=place_id:ChIJ7XkXvwyP1moRYGaAgxy8qZQ"
  },
  {
    "name": "Elite Swimming Ascot Vale",
    "address": "50 Flemington St, Travancore VIC 3032, Australia",
    "suburb": "Travancore VIC 3032",
    "state": "VIC",
    "rating": 4.6,
    "reviews": 19,
    "lat": -37.7819266,
    "lng": 144.9355451,
    "place_id": "ChIJDTYmCeFc1moRNrytmqvOigQ",
    "maps_url": "https://www.google.com/maps/place/?q=place_id:ChIJDTYmCeFc1moRNrytmqvOigQ"
  },
  {
    "name": "Geelong Aquatic Centre",
    "address": "3 Bridge St, Newtown VIC 3220, Australia",
    "suburb": "Newtown VIC 3220",
    "state": "VIC",
    "rating": 4.4,
    "reviews": 87,
    "lat": -38.1595017,
    "lng": 144.3368188,
    "place_id": "ChIJDTU6CY4T1GoR3EnHk3LSxyI",
    "maps_url": "https://www.google.com/maps/place/?q=place_id:ChIJDTU6CY4T1GoR3EnHk3LSxyI"
  },
  {
    "name": "Leisurelink Aquatic & Recreation Centre",
    "address": "240 Pioneer Rd, Waurn Ponds VIC 3216, Australia",
    "suburb": "Waurn Ponds VIC 3216",
    "state": "VIC",
    "rating": 4.2,
    "reviews": 963,
    "lat": -38.1970065,
    "lng": 144.3201048,
    "place_id": "ChIJydPHFjcT1GoRC7b0coIeiVs",
    "maps_url": "https://www.google.com/maps/place/?q=place_id:ChIJydPHFjcT1GoRC7b0coIeiVs"
  },
  {
    "name": "Tri Swimming Swim School",
    "address": "25/27 Madden Ave, Geelong West VIC 3218, Australia",
    "suburb": "Geelong West VIC 3218",
    "state": "VIC",
    "rating": 4.9,
    "reviews": 32,
    "lat": -38.137579,
    "lng": 144.3521743,
    "place_id": "ChIJr253_KsW1GoRKFWLF1S-ENo",
    "maps_url": "https://www.google.com/maps/place/?q=place_id:ChIJr253_KsW1GoRKFWLF1S-ENo"
  },
  {
    "name": "Leopold Swim School",
    "address": "Melaluka Rd &, Cypress Cres, Leopold VIC 3224, Australia",
    "suburb": "Cypress Cres",
    "state": "VIC",
    "rating": 4.8,
    "reviews": 25,
    "lat": -38.1942825,
    "lng": 144.4543762,
    "place_id": "ChIJj1GnFBU-1GoRyyEjEDU6TtQ",
    "maps_url": "https://www.google.com/maps/place/?q=place_id:ChIJj1GnFBU-1GoRyyEjEDU6TtQ"
  },
  {
    "name": "JUMP! Swim Schools Geelong West",
    "address": "Shop 2/20 Pakington St, Geelong West VIC 3218, Australia",
    "suburb": "Geelong West VIC 3218",
    "state": "VIC",
    "rating": 4.8,
    "reviews": 29,
    "lat": -38.1336011,
    "lng": 144.3498433,
    "place_id": "ChIJO4Ier60W1GoRkCTpBYJ16SQ",
    "maps_url": "https://www.google.com/maps/place/?q=place_id:ChIJO4Ier60W1GoRkCTpBYJ16SQ"
  },
  {
    "name": "JUMP! Swim Schools South Geelong",
    "address": "Unit 24/158 Fyans St, South Geelong VIC 3220, Australia",
    "suburb": "South Geelong VIC 3220",
    "state": "VIC",
    "rating": 5,
    "reviews": 39,
    "lat": -38.164863,
    "lng": 144.3641422,
    "place_id": "ChIJE6UsgOQV1GoRCAYkJVW9qKU",
    "maps_url": "https://www.google.com/maps/place/?q=place_id:ChIJE6UsgOQV1GoRCAYkJVW9qKU"
  },
  {
    "name": "JUMP! Swim Schools Armstrong Creek",
    "address": "Shop 1, The Village Warralily, 3-33 Central Boulevard Corner of, Barwon Heads Rd, Armstrong Creek VIC 3217, Australia",
    "suburb": "The Village Warralily",
    "state": "VIC",
    "rating": 4.9,
    "reviews": 85,
    "lat": -38.2300895,
    "lng": 144.3722798,
    "place_id": "ChIJm4McfEBr1GoRc5zDi7ipckU",
    "maps_url": "https://www.google.com/maps/place/?q=place_id:ChIJm4McfEBr1GoRc5zDi7ipckU"
  },
  {
    "name": "Geelong Swimming Club Learn to Swim - Geelong",
    "address": "Christian College Geelong Sports and Aquatic Centre, 18 Burdekin Rd, Highton VIC 3216, Australia",
    "suburb": "18 Burdekin Rd",
    "state": "VIC",
    "rating": 4.7,
    "reviews": 15,
    "lat": -38.1855804,
    "lng": 144.3106603,
    "place_id": "ChIJy0lE8GIT1GoRbt5ccEy0F5s",
    "maps_url": "https://www.google.com/maps/place/?q=place_id:ChIJy0lE8GIT1GoRbt5ccEy0F5s"
  },
  {
    "name": "Kardinia Aquatic Centre",
    "address": "25 Park Cres, South Geelong VIC 3220, Australia",
    "suburb": "South Geelong VIC 3220",
    "state": "VIC",
    "rating": 4.4,
    "reviews": 192,
    "lat": -38.1599796,
    "lng": 144.3528334,
    "place_id": "ChIJ6UkUi_4S1GoRlMYC-WOo18Y",
    "maps_url": "https://www.google.com/maps/place/?q=place_id:ChIJ6UkUi_4S1GoRlMYC-WOo18Y"
  },
  {
    "name": "Splashdown Leisure Centre",
    "address": "125-177 Coppards Rd, Moolap VIC 3219, Australia",
    "suburb": "Moolap VIC 3219",
    "state": "VIC",
    "rating": 4.3,
    "reviews": 300,
    "lat": -38.1782485,
    "lng": 144.4035167,
    "place_id": "ChIJhekSd7gV1GoROC2Y5IgRlGE",
    "maps_url": "https://www.google.com/maps/place/?q=place_id:ChIJhekSd7gV1GoROC2Y5IgRlGE"
  },
  {
    "name": "KIC Swim School (The Goodfellow Aquatic Centre)",
    "address": "The Goodfellow Aquatic Centre, 205 Ballarat Rd, Bell Post Hill VIC 3215, Australia",
    "suburb": "205 Ballarat Rd",
    "state": "VIC",
    "rating": 4.9,
    "reviews": 9,
    "lat": -38.1097717,
    "lng": 144.3253661,
    "place_id": "ChIJ68W4eq0R1GoRpuPTSt9ArlY",
    "maps_url": "https://www.google.com/maps/place/?q=place_id:ChIJ68W4eq0R1GoRpuPTSt9ArlY"
  },
  {
    "name": "Norlane ARC",
    "address": "Unit 1/15 Cox Rd, Norlane VIC 3214, Australia",
    "suburb": "Norlane VIC 3214",
    "state": "VIC",
    "rating": 4,
    "reviews": 575,
    "lat": -38.0840856,
    "lng": 144.3565341,
    "place_id": "ChIJX4rMQkgX1GoR0HEyBXZWBA8",
    "maps_url": "https://www.google.com/maps/place/?q=place_id:ChIJX4rMQkgX1GoR0HEyBXZWBA8"
  },
  {
    "name": "Bellarine Aquatic & Sports Centre",
    "address": "Shell Rd, Ocean Grove VIC 3226, Australia",
    "suburb": "Ocean Grove VIC 3226",
    "state": "VIC",
    "rating": 4.2,
    "reviews": 331,
    "lat": -38.25905789999999,
    "lng": 144.5404351,
    "place_id": "ChIJ3eCIXPA41GoRNQdbR3a-LQc",
    "maps_url": "https://www.google.com/maps/place/?q=place_id:ChIJ3eCIXPA41GoRNQdbR3a-LQc"
  },
  {
    "name": "Saltwater Swim Schools - Mt Duneed",
    "address": "121 Unity Dr, Mount Duneed VIC 3217, Australia",
    "suburb": "Mount Duneed VIC 3217",
    "state": "VIC",
    "rating": 5,
    "reviews": 26,
    "lat": -38.2257347,
    "lng": 144.3257336,
    "place_id": "ChIJ39L7FwJt1GoR64-y3RP1Q0g",
    "maps_url": "https://www.google.com/maps/place/?q=place_id:ChIJ39L7FwJt1GoR64-y3RP1Q0g"
  },
  {
    "name": "JUMP! Swim Schools Lara",
    "address": "3/158 McClelland Ave, Lara VIC 3212, Australia",
    "suburb": "Lara VIC 3212",
    "state": "VIC",
    "rating": 4.8,
    "reviews": 28,
    "lat": -38.027317,
    "lng": 144.4306945,
    "place_id": "ChIJc58BDqkY1GoRrFhAf6cYf7k",
    "maps_url": "https://www.google.com/maps/place/?q=place_id:ChIJc58BDqkY1GoRrFhAf6cYf7k"
  },
  {
    "name": "Geelong Swimming Club",
    "address": "25 Park Cres, South Geelong VIC 3220, Australia",
    "suburb": "South Geelong VIC 3220",
    "state": "VIC",
    "rating": 4,
    "reviews": 1,
    "lat": -38.1600356,
    "lng": 144.3531346,
    "place_id": "ChIJpeN94T4V1GoRNm4Rr0BmLn8",
    "maps_url": "https://www.google.com/maps/place/?q=place_id:ChIJpeN94T4V1GoRNm4Rr0BmLn8"
  },
  {
    "name": "Eastern Beach Children's Pool",
    "address": "Eastern Beach Rd, Geelong VIC 3219, Australia",
    "suburb": "Geelong VIC 3219",
    "state": "VIC",
    "rating": 4.5,
    "reviews": 617,
    "lat": -38.1468505,
    "lng": 144.3735782,
    "place_id": "ChIJ_7d-tmIX1GoRd3Nr8gY1e6E",
    "maps_url": "https://www.google.com/maps/place/?q=place_id:ChIJ_7d-tmIX1GoRd3Nr8gY1e6E"
  },
  {
    "name": "Geelong Swimming Club Learn to Swim - Northern Suburbs",
    "address": "Foreshore Rd, Corio VIC 3214, Australia",
    "suburb": "Corio VIC 3214",
    "state": "VIC",
    "rating": null,
    "reviews": 0,
    "lat": -38.0705342,
    "lng": 144.4030685,
    "place_id": "ChIJu5QA4SUZ1GoRnqZZqHXmemM",
    "maps_url": "https://www.google.com/maps/place/?q=place_id:ChIJu5QA4SUZ1GoRnqZZqHXmemM"
  },
  {
    "name": "Ballarat Aquatic & Lifestyle Centre",
    "address": "1 Kunuwarra Place, Lake Gardens VIC 3350, Australia",
    "suburb": "Lake Gardens VIC 3350",
    "state": "VIC",
    "rating": 4.1,
    "reviews": 184,
    "lat": -37.5505438,
    "lng": 143.8189542,
    "place_id": "ChIJ0duWEXxD0WoRP4N3T-jMnIs",
    "maps_url": "https://www.google.com/maps/place/?q=place_id:ChIJ0duWEXxD0WoRP4N3T-jMnIs"
  },
  {
    "name": "Swim & Survival Academy",
    "address": "403 Dowling St, Wendouree VIC 3350, Australia",
    "suburb": "Wendouree VIC 3350",
    "state": "VIC",
    "rating": 4.6,
    "reviews": 54,
    "lat": -37.5282806,
    "lng": 143.8418375,
    "place_id": "ChIJvSV4DRdE0WoR9Pvq_gwF5Xw",
    "maps_url": "https://www.google.com/maps/place/?q=place_id:ChIJvSV4DRdE0WoR9Pvq_gwF5Xw"
  },
  {
    "name": "Shayne Reese Swimming",
    "address": "132 Whitelaw Ave, Delacombe VIC 3356, Australia",
    "suburb": "Delacombe VIC 3356",
    "state": "VIC",
    "rating": 4.5,
    "reviews": 58,
    "lat": -37.5784572,
    "lng": 143.8111237,
    "place_id": "ChIJ32IT_ExD0WoRPup4MplMvpk",
    "maps_url": "https://www.google.com/maps/place/?q=place_id:ChIJ32IT_ExD0WoRPup4MplMvpk"
  },
  {
    "name": "Y Learn and Swim",
    "address": "40 Water St, Brown Hill VIC 3350, Australia",
    "suburb": "Brown Hill VIC 3350",
    "state": "VIC",
    "rating": 5,
    "reviews": 5,
    "lat": -37.5551903,
    "lng": 143.8978783,
    "place_id": "ChIJcUTFHC1F0WoRqcgg9nhYGxE",
    "maps_url": "https://www.google.com/maps/place/?q=place_id:ChIJcUTFHC1F0WoRqcgg9nhYGxE"
  },
  {
    "name": "Federation Health, Sports and Aquatic Centre",
    "address": "P Building, University Dr, Mount Helen VIC 3350, Australia",
    "suburb": "University Dr",
    "state": "VIC",
    "rating": 4.5,
    "reviews": 31,
    "lat": -37.6253505,
    "lng": 143.8913124,
    "place_id": "ChIJk5NLAb9a0WoRJhWiD17p4g4",
    "maps_url": "https://www.google.com/maps/place/?q=place_id:ChIJk5NLAb9a0WoRJhWiD17p4g4"
  },
  {
    "name": "The Y Ballarat (YMCA)",
    "address": "25/39 Barkly St, Ballarat East VIC 3350, Australia",
    "suburb": "Ballarat East VIC 3350",
    "state": "VIC",
    "rating": 4.1,
    "reviews": 20,
    "lat": -37.5644912,
    "lng": 143.8690643,
    "place_id": "ChIJYY-1YvZE0WoReLYLHA03sZI",
    "maps_url": "https://www.google.com/maps/place/?q=place_id:ChIJYY-1YvZE0WoReLYLHA03sZI"
  },
  {
    "name": "Swim Culture",
    "address": "2 Sterry St, Golden Square VIC 3555, Australia",
    "suburb": "Golden Square VIC 3555",
    "state": "VIC",
    "rating": 5,
    "reviews": 7,
    "lat": -36.7626094,
    "lng": 144.2522049,
    "place_id": "ChIJDRfHMBNR12oRRl42f-jl2AE",
    "maps_url": "https://www.google.com/maps/place/?q=place_id:ChIJDRfHMBNR12oRRl42f-jl2AE"
  },
  {
    "name": "Swimz Bendigo",
    "address": "14 Contempo Ct, East Bendigo VIC 3550, Australia",
    "suburb": "East Bendigo VIC 3550",
    "state": "VIC",
    "rating": 4.4,
    "reviews": 11,
    "lat": -36.7525254,
    "lng": 144.3167801,
    "place_id": "ChIJhyMSEvlZ12oR_HwpJijhbdM",
    "maps_url": "https://www.google.com/maps/place/?q=place_id:ChIJhyMSEvlZ12oR_HwpJijhbdM"
  },
  {
    "name": "Gurri Wanyarra Wellbeing Centre",
    "address": "9 Browning St, Kangaroo Flat VIC 3555, Australia",
    "suburb": "Kangaroo Flat VIC 3555",
    "state": "VIC",
    "rating": 4,
    "reviews": 302,
    "lat": -36.7904518,
    "lng": 144.2427893,
    "place_id": "ChIJxxjJJ4xQ12oRgdhuBZDEWgc",
    "maps_url": "https://www.google.com/maps/place/?q=place_id:ChIJxxjJJ4xQ12oRgdhuBZDEWgc"
  },
  {
    "name": "Splash Swimming Bendigo",
    "address": "76 Wood St, California Gully VIC 3556, Australia",
    "suburb": "California Gully VIC 3556",
    "state": "VIC",
    "rating": 5,
    "reviews": 4,
    "lat": -36.7317844,
    "lng": 144.2609114,
    "place_id": "ChIJIbSV3NVZ12oRsltfPQIwZFc",
    "maps_url": "https://www.google.com/maps/place/?q=place_id:ChIJIbSV3NVZ12oRsltfPQIwZFc"
  },
  {
    "name": "Harley Street Swim School",
    "address": "46 Harley St, Strathdale VIC 3550, Australia",
    "suburb": "Strathdale VIC 3550",
    "state": "VIC",
    "rating": 5,
    "reviews": 12,
    "lat": -36.7736091,
    "lng": 144.3154449,
    "place_id": "ChIJKRlilG9Z12oRwOevSJRuJhE",
    "maps_url": "https://www.google.com/maps/place/?q=place_id:ChIJKRlilG9Z12oRwOevSJRuJhE"
  },
  {
    "name": "Peter Krenz Leisure Centre",
    "address": "Napier St, Eaglehawk VIC 3556, Australia",
    "suburb": "Eaglehawk VIC 3556",
    "state": "VIC",
    "rating": 4.2,
    "reviews": 225,
    "lat": -36.7156505,
    "lng": 144.2550828,
    "place_id": "ChIJ1whsCoZX12oRfh-S3QtRlxg",
    "maps_url": "https://www.google.com/maps/place/?q=place_id:ChIJ1whsCoZX12oRfh-S3QtRlxg"
  },
  {
    "name": "Bendigo East Aquatic Centre",
    "address": "31 Lansell St, East Bendigo VIC 3550, Australia",
    "suburb": "East Bendigo VIC 3550",
    "state": "VIC",
    "rating": 4.6,
    "reviews": 157,
    "lat": -36.7547333,
    "lng": 144.2951849,
    "place_id": "ChIJIdcCSqFZ12oRfZJShZMvER8",
    "maps_url": "https://www.google.com/maps/place/?q=place_id:ChIJIdcCSqFZ12oRfZJShZMvER8"
  },
  {
    "name": "Faith Leech Aquatic Centre",
    "address": "161-167 Barnard St, Bendigo VIC 3550, Australia",
    "suburb": "Bendigo VIC 3550",
    "state": "VIC",
    "rating": 4.2,
    "reviews": 198,
    "lat": -36.7545053,
    "lng": 144.2760639,
    "place_id": "ChIJcUN10-5Z12oR5ATbgpiqdn4",
    "maps_url": "https://www.google.com/maps/place/?q=place_id:ChIJcUN10-5Z12oR5ATbgpiqdn4"
  },
  {
    "name": "Big Bendi Water Slide / Bendigo Water World",
    "address": "109 Watson St, Bendigo VIC 3550, Australia",
    "suburb": "Bendigo VIC 3550",
    "state": "VIC",
    "rating": 4.6,
    "reviews": 127,
    "lat": -36.7196677,
    "lng": 144.2920435,
    "place_id": "ChIJ9_zSq2ZY12oRsXCeEwqZsZ4",
    "maps_url": "https://www.google.com/maps/place/?q=place_id:ChIJ9_zSq2ZY12oRsXCeEwqZsZ4"
  },
  {
    "name": "Campbells Creek: Swim, Learn, Survive",
    "address": "53 Moscript St, Campbells Creek VIC 3451, Australia",
    "suburb": "Campbells Creek VIC 3451",
    "state": "VIC",
    "rating": 5,
    "reviews": 3,
    "lat": -37.0871272,
    "lng": 144.2108441,
    "place_id": "ChIJe3SMGaox12oRI7pVvECZJnk",
    "maps_url": "https://www.google.com/maps/place/?q=place_id:ChIJe3SMGaox12oRI7pVvECZJnk"
  },
  {
    "name": "Tom Flood Sports Centre",
    "address": "Park Rd, Bendigo VIC 3550, Australia",
    "suburb": "Bendigo VIC 3550",
    "state": "VIC",
    "rating": 4.2,
    "reviews": 141,
    "lat": -36.7525844,
    "lng": 144.2809341,
    "place_id": "ChIJ03tl_79Z12oRwPNCFKV5BQ8",
    "maps_url": "https://www.google.com/maps/place/?q=place_id:ChIJ03tl_79Z12oRwPNCFKV5BQ8"
  },
  {
    "name": "Musgrave Park Swim Centre",
    "address": "100 Edmondstone St, South Brisbane QLD 4101, Australia",
    "suburb": "South Brisbane QLD 4101",
    "state": "QLD",
    "rating": 4.5,
    "reviews": 287,
    "lat": -27.4803263,
    "lng": 153.0164167,
    "place_id": "ChIJezVTWwpakWsREHsi11ujAg8",
    "maps_url": "https://www.google.com/maps/place/?q=place_id:ChIJezVTWwpakWsREHsi11ujAg8"
  },
  {
    "name": "Rackley Swimming Spring Hill",
    "address": "14 Torrington St, Spring Hill QLD 4000, Australia",
    "suburb": "Spring Hill QLD 4000",
    "state": "QLD",
    "rating": 4.5,
    "reviews": 91,
    "lat": -27.4599544,
    "lng": 153.0214426,
    "place_id": "ChIJBWkpJflZkWsRagzZTnl9Iqk",
    "maps_url": "https://www.google.com/maps/place/?q=place_id:ChIJBWkpJflZkWsRagzZTnl9Iqk"
  },
  {
    "name": "Hampton Swim School",
    "address": "51 Stanton St, Cannon Hill QLD 4170, Australia",
    "suburb": "Cannon Hill QLD 4170",
    "state": "QLD",
    "rating": 4.9,
    "reviews": 71,
    "lat": -27.4705207,
    "lng": 153.0853288,
    "place_id": "ChIJuajjDtNZkWsRtVdvIsEQj0w",
    "maps_url": "https://www.google.com/maps/place/?q=place_id:ChIJuajjDtNZkWsRtVdvIsEQj0w"
  },
  {
    "name": "Rackley Swimming East Brisbane",
    "address": "Anglican Church Grammar School (Churchie), Oaklands Parade, East Brisbane QLD 4169, Australia",
    "suburb": "Oaklands Parade",
    "state": "QLD",
    "rating": 4.6,
    "reviews": 32,
    "lat": -27.4820306,
    "lng": 153.0532891,
    "place_id": "ChIJabZ-xjFakWsRU0M6cmFFumc",
    "maps_url": "https://www.google.com/maps/place/?q=place_id:ChIJabZ-xjFakWsRU0M6cmFFumc"
  },
  {
    "name": "Centenary Aquatic Centre & Health Club",
    "address": "400 Gregory Ter, Spring Hill QLD 4000, Australia",
    "suburb": "Spring Hill QLD 4000",
    "state": "QLD",
    "rating": 4.4,
    "reviews": 320,
    "lat": -27.4549112,
    "lng": 153.0259064,
    "place_id": "ChIJj6KGYPpZkWsRtJtCE5QMn4Y",
    "maps_url": "https://www.google.com/maps/place/?q=place_id:ChIJj6KGYPpZkWsRtJtCE5QMn4Y"
  },
  {
    "name": "Irela Aqua and Fitness",
    "address": "Musgrave Park Swim Centre, West End QLD 4101, Australia",
    "suburb": "West End QLD 4101",
    "state": "QLD",
    "rating": 5,
    "reviews": 250,
    "lat": -27.4800797,
    "lng": 153.017037,
    "place_id": "ChIJwXXNuZVQkWsRu4D_LzzGKek",
    "maps_url": "https://www.google.com/maps/place/?q=place_id:ChIJwXXNuZVQkWsRu4D_LzzGKek"
  },
  {
    "name": "Carlile Swim Paddington",
    "address": "67 Fernberg Rd, Paddington QLD 4064, Australia",
    "suburb": "Paddington QLD 4064",
    "state": "QLD",
    "rating": 4.4,
    "reviews": 85,
    "lat": -27.4628536,
    "lng": 152.9986829,
    "place_id": "ChIJh1w457NQkWsR7ktmcHoA49Q",
    "maps_url": "https://www.google.com/maps/place/?q=place_id:ChIJh1w457NQkWsR7ktmcHoA49Q"
  },
  {
    "name": "The Valley Pool",
    "address": "432 Wickham St, Fortitude Valley QLD 4006, Australia",
    "suburb": "Fortitude Valley QLD 4006",
    "state": "QLD",
    "rating": 4.5,
    "reviews": 393,
    "lat": -27.4540275,
    "lng": 153.0364743,
    "place_id": "ChIJic6Jae1ZkWsRidDx8AiWOMc",
    "maps_url": "https://www.google.com/maps/place/?q=place_id:ChIJic6Jae1ZkWsRidDx8AiWOMc"
  },
  {
    "name": "Hampton Swim School - Morningside",
    "address": "67 Pashen St + 51 Stanton St, Cannon Hill, Morningside QLD 4171, Australia",
    "suburb": "Cannon Hill",
    "state": "QLD",
    "rating": 4.7,
    "reviews": 37,
    "lat": -27.4644017,
    "lng": 153.0669627,
    "place_id": "ChIJC0apoHlZkWsRutImc8YU9cE",
    "maps_url": "https://www.google.com/maps/place/?q=place_id:ChIJC0apoHlZkWsRutImc8YU9cE"
  },
  {
    "name": "Emily Seebohm Aquatic Centre",
    "address": "523 Telegraph Rd, Fitzgibbon QLD 4018, Australia",
    "suburb": "Fitzgibbon QLD 4018",
    "state": "QLD",
    "rating": 4.4,
    "reviews": 343,
    "lat": -27.3319556,
    "lng": 153.0426975,
    "place_id": "ChIJCSptzh7jk2sRp8SAqTMIfjU",
    "maps_url": "https://www.google.com/maps/place/?q=place_id:ChIJCSptzh7jk2sRp8SAqTMIfjU"
  },
  {
    "name": "Hollands Swim School",
    "address": "50 Keats St, Cannon Hill QLD 4170, Australia",
    "suburb": "Cannon Hill QLD 4170",
    "state": "QLD",
    "rating": 5,
    "reviews": 79,
    "lat": -27.4710306,
    "lng": 153.0904866,
    "place_id": "ChIJSxrxEFxZkWsRrM4HLU8dYX8",
    "maps_url": "https://www.google.com/maps/place/?q=place_id:ChIJSxrxEFxZkWsRrM4HLU8dYX8"
  },
  {
    "name": "Ithaca Swimming Pool",
    "address": "14 Caroline St, Paddington QLD 4064, Australia",
    "suburb": "Paddington QLD 4064",
    "state": "QLD",
    "rating": 4.5,
    "reviews": 188,
    "lat": -27.4624979,
    "lng": 153.0104708,
    "place_id": "ChIJ9wO1cqtQkWsRoYBHzSsMibo",
    "maps_url": "https://www.google.com/maps/place/?q=place_id:ChIJ9wO1cqtQkWsRoYBHzSsMibo"
  },
  {
    "name": "UQ Sport Aquatic Centre",
    "address": "Cnr Blair Dr and Union Rd The University of Queensland, St Lucia QLD 4067, Australia",
    "suburb": "St Lucia QLD 4067",
    "state": "QLD",
    "rating": 4.5,
    "reviews": 402,
    "lat": -27.4951153,
    "lng": 153.0163074,
    "place_id": "ChIJnye9InhakWsRhb4BSYozouA",
    "maps_url": "https://www.google.com/maps/place/?q=place_id:ChIJnye9InhakWsRhb4BSYozouA"
  },
  {
    "name": "Rackley Swimming Centenary",
    "address": "400 Gregory Ter, Spring Hill QLD 4000, Australia",
    "suburb": "Spring Hill QLD 4000",
    "state": "QLD",
    "rating": 4,
    "reviews": 29,
    "lat": -27.4550636,
    "lng": 153.0257497,
    "place_id": "ChIJKZXis9NZkWsRZgMYRz_VAhc",
    "maps_url": "https://www.google.com/maps/place/?q=place_id:ChIJKZXis9NZkWsRZgMYRz_VAhc"
  },
  {
    "name": "Clem Jones Centre Swim School",
    "address": "Zahel St, Carina QLD 4152, Australia",
    "suburb": "Carina QLD 4152",
    "state": "QLD",
    "rating": 4.5,
    "reviews": 150,
    "lat": -27.4914826,
    "lng": 153.0967207,
    "place_id": "ChIJlwbP1-9bkWsRv24Dp0dtP-Q",
    "maps_url": "https://www.google.com/maps/place/?q=place_id:ChIJlwbP1-9bkWsRv24Dp0dtP-Q"
  },
  {
    "name": "Yeronga Pool",
    "address": "55 School Rd, Yeronga QLD 4104, Australia",
    "suburb": "Yeronga QLD 4104",
    "state": "QLD",
    "rating": 4.5,
    "reviews": 672,
    "lat": -27.5208705,
    "lng": 153.0225539,
    "place_id": "ChIJD14hOpxakWsRxL1MF8m6TB8",
    "maps_url": "https://www.google.com/maps/place/?q=place_id:ChIJD14hOpxakWsRxL1MF8m6TB8"
  },
  {
    "name": "Newmarket Olympic Pool",
    "address": "71 Alderson St, Newmarket QLD 4051, Australia",
    "suburb": "Newmarket QLD 4051",
    "state": "QLD",
    "rating": 4.3,
    "reviews": 319,
    "lat": -27.4300014,
    "lng": 153.006529,
    "place_id": "ChIJVyLA_mRXkWsRBISnQwbtsaw",
    "maps_url": "https://www.google.com/maps/place/?q=place_id:ChIJVyLA_mRXkWsRBISnQwbtsaw"
  },
  {
    "name": "Spring Hill Baths",
    "address": "14 Torrington St, Spring Hill QLD 4000, Australia",
    "suburb": "Spring Hill QLD 4000",
    "state": "QLD",
    "rating": 4.8,
    "reviews": 53,
    "lat": -27.4598892,
    "lng": 153.0212425,
    "place_id": "ChIJcXMwqzRZkWsRmsM-sOOjfUQ",
    "maps_url": "https://www.google.com/maps/place/?q=place_id:ChIJcXMwqzRZkWsRmsM-sOOjfUQ"
  },
  {
    "name": "Brisbane’s Swim Hub",
    "address": "249 Gladstone Rd, Dutton Park QLD 4102, Australia",
    "suburb": "Dutton Park QLD 4102",
    "state": "QLD",
    "rating": 5,
    "reviews": 1,
    "lat": -27.4946482,
    "lng": 153.0229124,
    "place_id": "ChIJrYZ7Qi9bkWsRBDXQKOyl87M",
    "maps_url": "https://www.google.com/maps/place/?q=place_id:ChIJrYZ7Qi9bkWsRBDXQKOyl87M"
  },
  {
    "name": "Family Aquatics Swim School",
    "address": "Unit 1/348 S Pine Rd, Brendale QLD 4500, Australia",
    "suburb": "Brendale QLD 4500",
    "state": "QLD",
    "rating": 5,
    "reviews": 21,
    "lat": -27.3266418,
    "lng": 152.9763612,
    "place_id": "ChIJjyoeLeP9k2sR42-3YskEiPQ",
    "maps_url": "https://www.google.com/maps/place/?q=place_id:ChIJjyoeLeP9k2sR42-3YskEiPQ"
  },
  {
    "name": "Andrew Baildon's Superfish Swim Schools Benowa",
    "address": "Royal Pines Marina, Ross St, Benowa QLD 4217, Australia",
    "suburb": "Ross St",
    "state": "QLD",
    "rating": 4.7,
    "reviews": 136,
    "lat": -28.006471,
    "lng": 153.37102,
    "place_id": "ChIJaU92y90akWsR1Z9dvnfaUd8",
    "maps_url": "https://www.google.com/maps/place/?q=place_id:ChIJaU92y90akWsR1Z9dvnfaUd8"
  },
  {
    "name": "Harbour Town Swim Academy",
    "address": "401 Pine Ridge Rd, Coombabah QLD 4216, Australia",
    "suburb": "Coombabah QLD 4216",
    "state": "QLD",
    "rating": 5,
    "reviews": 159,
    "lat": -27.9147186,
    "lng": 153.388031,
    "place_id": "ChIJ-6WCP9kRkWsR8c81Ygqidvs",
    "maps_url": "https://www.google.com/maps/place/?q=place_id:ChIJ-6WCP9kRkWsR8c81Ygqidvs"
  },
  {
    "name": "Gold Coast Aquatic Centre",
    "address": "Marine Parade, Southport QLD 4215, Australia",
    "suburb": "Southport QLD 4215",
    "state": "QLD",
    "rating": 4.4,
    "reviews": 1057,
    "lat": -27.9638845,
    "lng": 153.4150527,
    "place_id": "ChIJ8ZWywOwPkWsRycWIFRJh2vQ",
    "maps_url": "https://www.google.com/maps/place/?q=place_id:ChIJ8ZWywOwPkWsRycWIFRJh2vQ"
  },
  {
    "name": "Paradise Swim Miami",
    "address": "SHED 6/54 Paradise Ave, Miami QLD 4220, Australia",
    "suburb": "Miami QLD 4220",
    "state": "QLD",
    "rating": 5,
    "reviews": 31,
    "lat": -28.0648331,
    "lng": 153.4332511,
    "place_id": "ChIJo79cSeMEkWsRLKkN5n_mLXE",
    "maps_url": "https://www.google.com/maps/place/?q=place_id:ChIJo79cSeMEkWsRLKkN5n_mLXE"
  },
  {
    "name": "Hydra Zen Swim School",
    "address": "11 Strathaird Rd, Bundall QLD 4217, Australia",
    "suburb": "Bundall QLD 4217",
    "state": "QLD",
    "rating": 5,
    "reviews": 22,
    "lat": -28.0077443,
    "lng": 153.4026274,
    "place_id": "ChIJ5ycNccEFkWsRNzDFabFEono",
    "maps_url": "https://www.google.com/maps/place/?q=place_id:ChIJ5ycNccEFkWsRNzDFabFEono"
  },
  {
    "name": "Shapland Swim School Gold Coast - Gaven/Pacific Pines",
    "address": "23 Glade Drive Gaven, Pacific Pines QLD 4211, Australia",
    "suburb": "Pacific Pines QLD 4211",
    "state": "QLD",
    "rating": 4.7,
    "reviews": 140,
    "lat": -27.9276063,
    "lng": 153.3276238,
    "place_id": "ChIJbR-c7eUQkWsR7FImXHe6GRk",
    "maps_url": "https://www.google.com/maps/place/?q=place_id:ChIJbR-c7eUQkWsR7FImXHe6GRk"
  },
  {
    "name": "Sunny Skye's Aquatics and Wellness Hub",
    "address": "23 Taree St, Burleigh Heads QLD 4220, Australia",
    "suburb": "Burleigh Heads QLD 4220",
    "state": "QLD",
    "rating": 4.9,
    "reviews": 69,
    "lat": -28.1045887,
    "lng": 153.4216357,
    "place_id": "ChIJSRcUgkwCkWsRC3c0EfAMo3U",
    "maps_url": "https://www.google.com/maps/place/?q=place_id:ChIJSRcUgkwCkWsRC3c0EfAMo3U"
  },
  {
    "name": "Andrew Baildon's Superfish Swim Schools Pacific Pines",
    "address": "Lot 803 Greenway Blvd, Maudsland QLD 4210, Australia",
    "suburb": "Maudsland QLD 4210",
    "state": "QLD",
    "rating": 4.7,
    "reviews": 117,
    "lat": -27.9293161,
    "lng": 153.3014169,
    "place_id": "ChIJyyBdvcsQkWsRcxoeUDa7Cng",
    "maps_url": "https://www.google.com/maps/place/?q=place_id:ChIJyyBdvcsQkWsRcxoeUDa7Cng"
  },
  {
    "name": "Rackley Swimming Southport",
    "address": "27-33 Yacht St, Southport QLD 4215, Australia",
    "suburb": "Southport QLD 4215",
    "state": "QLD",
    "rating": 4.9,
    "reviews": 46,
    "lat": -27.9889181,
    "lng": 153.4132849,
    "place_id": "ChIJG0YWMPoFkWsR_MTwcdDqXNM",
    "maps_url": "https://www.google.com/maps/place/?q=place_id:ChIJG0YWMPoFkWsR_MTwcdDqXNM"
  },
  {
    "name": "Andrew Baildon's Superfish Swim Schools Worongary",
    "address": "55 Mudgeeraba Rd, Worongary QLD 4213, Australia",
    "suburb": "Worongary QLD 4213",
    "state": "QLD",
    "rating": 4.9,
    "reviews": 48,
    "lat": -28.0548965,
    "lng": 153.3548937,
    "place_id": "ChIJHb20g5EdkWsRq7tGX7UJenE",
    "maps_url": "https://www.google.com/maps/place/?q=place_id:ChIJHb20g5EdkWsRq7tGX7UJenE"
  },
  {
    "name": "Bergman's Swim School",
    "address": "208 Universal St, Oxenford QLD 4210, Australia",
    "suburb": "Oxenford QLD 4210",
    "state": "QLD",
    "rating": 5,
    "reviews": 30,
    "lat": -27.9185337,
    "lng": 153.3069169,
    "place_id": "ChIJnZt6S-YQkWsRGCZYwil8njk",
    "maps_url": "https://www.google.com/maps/place/?q=place_id:ChIJnZt6S-YQkWsRGCZYwil8njk"
  },
  {
    "name": "Helen's Swim School",
    "address": "43 Thredbo Dr, Worongary QLD 4213, Australia",
    "suburb": "Worongary QLD 4213",
    "state": "QLD",
    "rating": 5,
    "reviews": 34,
    "lat": -28.0558147,
    "lng": 153.3463134,
    "place_id": "ChIJUcnVxoAckWsR-3zQOHR0p-c",
    "maps_url": "https://www.google.com/maps/place/?q=place_id:ChIJUcnVxoAckWsR-3zQOHR0p-c"
  },
  {
    "name": "Helensvale Aquatic Centre",
    "address": "Rugby La, Helensvale QLD 4212, Australia",
    "suburb": "Helensvale QLD 4212",
    "state": "QLD",
    "rating": 4.5,
    "reviews": 312,
    "lat": -27.9002439,
    "lng": 153.3295257,
    "place_id": "ChIJ8UUIuBURkWsR0k3wbtvLF7g",
    "maps_url": "https://www.google.com/maps/place/?q=place_id:ChIJ8UUIuBURkWsR0k3wbtvLF7g"
  },
  {
    "name": "Cools Swim School",
    "address": "1 Frances St, Tweed Heads NSW 2485, Australia",
    "suburb": "Tweed Heads NSW 2485",
    "state": "QLD",
    "rating": 5,
    "reviews": 25,
    "lat": -28.1730708,
    "lng": 153.5418808,
    "place_id": "ChIJk7eg1C4AkWsRMcbNorj6kOY",
    "maps_url": "https://www.google.com/maps/place/?q=place_id:ChIJk7eg1C4AkWsRMcbNorj6kOY"
  },
  {
    "name": "Des Johns Swim",
    "address": "2/14 Ramly Dr, Burleigh Heads QLD 4220, Australia",
    "suburb": "Burleigh Heads QLD 4220",
    "state": "QLD",
    "rating": 5,
    "reviews": 13,
    "lat": -28.1044023,
    "lng": 153.4342583,
    "place_id": "ChIJcbWfhRcDkWsRGOKtZY4gn1c",
    "maps_url": "https://www.google.com/maps/place/?q=place_id:ChIJcbWfhRcDkWsRGOKtZY4gn1c"
  },
  {
    "name": "Little Snappers Swim School Highland Park",
    "address": "137 Explorers Way, Highland Park QLD 4211, Australia",
    "suburb": "Highland Park QLD 4211",
    "state": "QLD",
    "rating": 5,
    "reviews": 22,
    "lat": -28.0145924,
    "lng": 153.3346702,
    "place_id": "ChIJm7RDSYkbkWsRU1xYZzvnlG4",
    "maps_url": "https://www.google.com/maps/place/?q=place_id:ChIJm7RDSYkbkWsRU1xYZzvnlG4"
  },
  {
    "name": "Miami Aquatic Centre",
    "address": "80 Pacific Ave, Miami QLD 4220, Australia",
    "suburb": "Miami QLD 4220",
    "state": "QLD",
    "rating": 4.4,
    "reviews": 229,
    "lat": -28.0618626,
    "lng": 153.4295734,
    "place_id": "ChIJM-A5j8EFkWsR3ZeyKULlZmE",
    "maps_url": "https://www.google.com/maps/place/?q=place_id:ChIJM-A5j8EFkWsR3ZeyKULlZmE"
  },
  {
    "name": "Rackley Swimming Hope Island",
    "address": "12 Halcyon Way, Hope Island QLD 4212, Australia",
    "suburb": "Hope Island QLD 4212",
    "state": "QLD",
    "rating": 4.5,
    "reviews": 43,
    "lat": -27.8788707,
    "lng": 153.3678763,
    "place_id": "ChIJb9LwZwcTkWsRBxl2UUs2OGY",
    "maps_url": "https://www.google.com/maps/place/?q=place_id:ChIJb9LwZwcTkWsRBxl2UUs2OGY"
  },
  {
    "name": "Phil Clayton & Co.",
    "address": "Tallebudgera Creek, Gold Coast Hwy, Palm Beach QLD 4221, Australia",
    "suburb": "Gold Coast Hwy",
    "state": "QLD",
    "rating": 5,
    "reviews": 55,
    "lat": -28.0980319,
    "lng": 153.4581237,
    "place_id": "ChIJYVy2nNUDkWsRiyTGl4wk12Y",
    "maps_url": "https://www.google.com/maps/place/?q=place_id:ChIJYVy2nNUDkWsRiyTGl4wk12Y"
  },
  {
    "name": "Aquatic Swimming School",
    "address": "18 Prince St, Southport QLD 4215, Australia",
    "suburb": "Southport QLD 4215",
    "state": "QLD",
    "rating": 5,
    "reviews": 5,
    "lat": -27.9721339,
    "lng": 153.397285,
    "place_id": "ChIJWZhTtsgPkWsRTVBFZzmo6kM",
    "maps_url": "https://www.google.com/maps/place/?q=place_id:ChIJWZhTtsgPkWsRTVBFZzmo6kM"
  },
  {
    "name": "Bubble 'n' Kick Swim School",
    "address": "Unit 4/5 Cedarbrook Dr, Forest Glen QLD 4556, Australia",
    "suburb": "Forest Glen QLD 4556",
    "state": "QLD",
    "rating": 4.9,
    "reviews": 107,
    "lat": -26.674036,
    "lng": 153.0050201,
    "place_id": "ChIJF7M4J2Wek2sRkssxkOrQNtk",
    "maps_url": "https://www.google.com/maps/place/?q=place_id:ChIJF7M4J2Wek2sRkssxkOrQNtk"
  },
  {
    "name": "Cotton Tree Aquatic Centre",
    "address": "The Esplanade, Maroochydore QLD 4558, Australia",
    "suburb": "Maroochydore QLD 4558",
    "state": "QLD",
    "rating": 4.5,
    "reviews": 369,
    "lat": -26.6541711,
    "lng": 153.0985902,
    "place_id": "ChIJLT8kFn12k2sR6PuaHJzrhAY",
    "maps_url": "https://www.google.com/maps/place/?q=place_id:ChIJLT8kFn12k2sR6PuaHJzrhAY"
  },
  {
    "name": "Shapland Swim Schools - Buderim",
    "address": "93 Jingellic Dr, Buderim QLD 4556, Australia",
    "suburb": "Buderim QLD 4556",
    "state": "QLD",
    "rating": 4.7,
    "reviews": 61,
    "lat": -26.700139,
    "lng": 153.078434,
    "place_id": "ChIJR8D0iY6dk2sR2FDkHmqZx3Y",
    "maps_url": "https://www.google.com/maps/place/?q=place_id:ChIJR8D0iY6dk2sR2FDkHmqZx3Y"
  },
  {
    "name": "Swim1",
    "address": "1 Santa Monica Ave, Coolum Beach QLD 4573, Australia",
    "suburb": "Coolum Beach QLD 4573",
    "state": "QLD",
    "rating": 4.9,
    "reviews": 18,
    "lat": -26.5343523,
    "lng": 153.0860707,
    "place_id": "ChIJ9Ujj5-lxk2sRQ20p1zjGmIY",
    "maps_url": "https://www.google.com/maps/place/?q=place_id:ChIJ9Ujj5-lxk2sRQ20p1zjGmIY"
  },
  {
    "name": "Flying Fish Swim School",
    "address": "21 Fishermans Rd, Kuluin QLD 4558, Australia",
    "suburb": "Kuluin QLD 4558",
    "state": "QLD",
    "rating": 4.7,
    "reviews": 79,
    "lat": -26.6546809,
    "lng": 153.0539738,
    "place_id": "ChIJrSHq37F3k2sRhyLIUbkmFms",
    "maps_url": "https://www.google.com/maps/place/?q=place_id:ChIJrSHq37F3k2sRhyLIUbkmFms"
  },
  {
    "name": "Alite Edvantage @ Mountain Creek Aquatic Complex",
    "address": "100 Lady Musgrave Dr, Mountain Creek QLD 4557, Australia",
    "suburb": "Mountain Creek QLD 4557",
    "state": "QLD",
    "rating": 4.4,
    "reviews": 48,
    "lat": -26.6897117,
    "lng": 153.1035353,
    "place_id": "ChIJ-U_UKAR2k2sRNa3J4vuA19I",
    "maps_url": "https://www.google.com/maps/place/?q=place_id:ChIJ-U_UKAR2k2sRNa3J4vuA19I"
  },
  {
    "name": "Kawana Aquatic Centre",
    "address": "45 Sportsmans Parade, Bokarina QLD 4575, Australia",
    "suburb": "Bokarina QLD 4575",
    "state": "QLD",
    "rating": 4.3,
    "reviews": 319,
    "lat": -26.7353852,
    "lng": 153.1258095,
    "place_id": "ChIJF3RF72Wek2sRUKV8wyBe4qE",
    "maps_url": "https://www.google.com/maps/place/?q=place_id:ChIJF3RF72Wek2sRUKV8wyBe4qE"
  },
  {
    "name": "Moffat Beach Swim School",
    "address": "54 George St, Moffat Beach QLD 4551, Australia",
    "suburb": "Moffat Beach QLD 4551",
    "state": "QLD",
    "rating": 5,
    "reviews": 54,
    "lat": -26.7932713,
    "lng": 153.1359959,
    "place_id": "ChIJp3iSfamZk2sRSVwr3oCxbLg",
    "maps_url": "https://www.google.com/maps/place/?q=place_id:ChIJp3iSfamZk2sRSVwr3oCxbLg"
  },
  {
    "name": "Grammar Aquatic Centre",
    "address": "372 Mons Rd, Forest Glen QLD 4556, Australia",
    "suburb": "Forest Glen QLD 4556",
    "state": "QLD",
    "rating": 4.8,
    "reviews": 23,
    "lat": -26.6831601,
    "lng": 153.0092966,
    "place_id": "ChIJDwpx-fyDk2sRIqL8cDoR5Eg",
    "maps_url": "https://www.google.com/maps/place/?q=place_id:ChIJDwpx-fyDk2sRIqL8cDoR5Eg"
  },
  {
    "name": "Caloundra Aquatic Centre",
    "address": "Central Park Rd, Caloundra QLD 4551, Australia",
    "suburb": "Caloundra QLD 4551",
    "state": "QLD",
    "rating": 4.5,
    "reviews": 268,
    "lat": -26.7991173,
    "lng": 153.1279024,
    "place_id": "ChIJLWh6okiZk2sRpKVqx73Rpzc",
    "maps_url": "https://www.google.com/maps/place/?q=place_id:ChIJLWh6okiZk2sRpKVqx73Rpzc"
  },
  {
    "name": "John Wallace Swim School",
    "address": "1 Edwards Tce, Baringa QLD 4551, Australia",
    "suburb": "Baringa QLD 4551",
    "state": "QLD",
    "rating": 4.7,
    "reviews": 97,
    "lat": -26.8092256,
    "lng": 153.0828959,
    "place_id": "ChIJA-Ug6kiZk2sRGY-QckqIrNA",
    "maps_url": "https://www.google.com/maps/place/?q=place_id:ChIJA-Ug6kiZk2sRGY-QckqIrNA"
  },
  {
    "name": "Noosa Aquatic Centre",
    "address": "6 Girraween Ct, Sunshine Beach QLD 4567, Australia",
    "suburb": "Sunshine Beach QLD 4567",
    "state": "QLD",
    "rating": 4.4,
    "reviews": 123,
    "lat": -26.4071813,
    "lng": 153.0980823,
    "place_id": "ChIJKw31_WVpk2sRYBIi11ujAg8",
    "maps_url": "https://www.google.com/maps/place/?q=place_id:ChIJKw31_WVpk2sRYBIi11ujAg8"
  },
  {
    "name": "Gina's Blue Water Babies Swim School",
    "address": "21 Banksia Ave, Coolum Beach QLD 4573, Australia",
    "suburb": "Coolum Beach QLD 4573",
    "state": "QLD",
    "rating": 5,
    "reviews": 41,
    "lat": -26.5306849,
    "lng": 153.0871259,
    "place_id": "ChIJMetwdOhxk2sRpqSfwRjwzJk",
    "maps_url": "https://www.google.com/maps/place/?q=place_id:ChIJMetwdOhxk2sRpqSfwRjwzJk"
  },
  {
    "name": "FLINDERS AQUATIC ACADEMY",
    "address": "1/47 Stringybark Rd, Buderim QLD 4556, Australia",
    "suburb": "Buderim QLD 4556",
    "state": "QLD",
    "rating": 4.6,
    "reviews": 23,
    "lat": -26.6973743,
    "lng": 153.0597478,
    "place_id": "ChIJJ_8PQHidk2sRqcgq5MdZcaE",
    "maps_url": "https://www.google.com/maps/place/?q=place_id:ChIJJ_8PQHidk2sRqcgq5MdZcaE"
  },
  {
    "name": "Goodlife Community Centre",
    "address": "100 Buderim Pines Dr, Buderim QLD 4556, Australia",
    "suburb": "Buderim QLD 4556",
    "state": "QLD",
    "rating": 4.8,
    "reviews": 208,
    "lat": -26.686793,
    "lng": 153.089936,
    "place_id": "ChIJyyHpchl2k2sRPB05M62Zprw",
    "maps_url": "https://www.google.com/maps/place/?q=place_id:ChIJyyHpchl2k2sRPB05M62Zprw"
  },
  {
    "name": "Shapland Swim School Aura",
    "address": "2 Packer Rd, Baringa QLD 4551, Australia",
    "suburb": "Baringa QLD 4551",
    "state": "QLD",
    "rating": 5,
    "reviews": 51,
    "lat": -26.8029798,
    "lng": 153.0678501,
    "place_id": "ChIJDfmO3g2bk2sRVPdKcqQdMb8",
    "maps_url": "https://www.google.com/maps/place/?q=place_id:ChIJDfmO3g2bk2sRVPdKcqQdMb8"
  },
  {
    "name": "Little Mountain Aquatic Centre",
    "address": "211 Parklands Blvd, Little Mountain QLD 4551, Australia",
    "suburb": "Little Mountain QLD 4551",
    "state": "QLD",
    "rating": 4.8,
    "reviews": 55,
    "lat": -26.7746631,
    "lng": 153.1030991,
    "place_id": "ChIJ6eVz8Bydk2sRVH8yeP32l0M",
    "maps_url": "https://www.google.com/maps/place/?q=place_id:ChIJ6eVz8Bydk2sRVH8yeP32l0M"
  },
  {
    "name": "Palmwoods Aquatic Centre",
    "address": "87 Dunning St, Palmwoods QLD 4555, Australia",
    "suburb": "Palmwoods QLD 4555",
    "state": "QLD",
    "rating": 4.5,
    "reviews": 119,
    "lat": -26.690447,
    "lng": 152.9511851,
    "place_id": "ChIJX8JvJ0eCk2sRnX8zoagLgZI",
    "maps_url": "https://www.google.com/maps/place/?q=place_id:ChIJX8JvJ0eCk2sRnX8zoagLgZI"
  },
  {
    "name": "UniSC Aquatic Centre",
    "address": "32 Olympic Way, Sippy Downs QLD 4556, Australia",
    "suburb": "Sippy Downs QLD 4556",
    "state": "QLD",
    "rating": 4.7,
    "reviews": 17,
    "lat": -26.7162826,
    "lng": 153.0681446,
    "place_id": "ChIJ8fWVBTadk2sRdHaGKJAokAY",
    "maps_url": "https://www.google.com/maps/place/?q=place_id:ChIJ8fWVBTadk2sRdHaGKJAokAY"
  },
  {
    "name": "Coolum Aquatic Centre",
    "address": "1930 David Low Way, Coolum Beach QLD 4573, Australia",
    "suburb": "Coolum Beach QLD 4573",
    "state": "QLD",
    "rating": 4.1,
    "reviews": 55,
    "lat": -26.516576,
    "lng": 153.088247,
    "place_id": "ChIJ3wsM-x5uk2sRYsDZeXm9CEw",
    "maps_url": "https://www.google.com/maps/place/?q=place_id:ChIJ3wsM-x5uk2sRYsDZeXm9CEw"
  },
  {
    "name": "Townsville Swimming Academy",
    "address": "154 Ross River Rd, Mundingburra QLD 4812, Australia",
    "suburb": "Mundingburra QLD 4812",
    "state": "QLD",
    "rating": 5,
    "reviews": 11,
    "lat": -19.2973482,
    "lng": 146.7800776,
    "place_id": "ChIJF7p9X4351WsRaZbvy-5A1zI",
    "maps_url": "https://www.google.com/maps/place/?q=place_id:ChIJF7p9X4351WsRaZbvy-5A1zI"
  },
  {
    "name": "Tobruk Memorial Baths",
    "address": "Tobruk Baths, 32 The Strand, Townsville City QLD 4810, Australia",
    "suburb": "32 The Strand",
    "state": "QLD",
    "rating": 4.6,
    "reviews": 252,
    "lat": -19.2536111,
    "lng": 146.82,
    "place_id": "ChIJNVY4h8X41WsRWbyAmv7rcq4",
    "maps_url": "https://www.google.com/maps/place/?q=place_id:ChIJNVY4h8X41WsRWbyAmv7rcq4"
  },
  {
    "name": "Ashley Scott Learn to Swim",
    "address": "1/24 Lancaster St, Garbutt QLD 4814, Australia",
    "suburb": "Garbutt QLD 4814",
    "state": "QLD",
    "rating": 4.9,
    "reviews": 7,
    "lat": -19.2594055,
    "lng": 146.7796974,
    "place_id": "ChIJrapqisf51WsR53yK0PNY0NI",
    "maps_url": "https://www.google.com/maps/place/?q=place_id:ChIJrapqisf51WsR53yK0PNY0NI"
  },
  {
    "name": "Fish N Flips Swim School Riverside Gardens",
    "address": "20-22 Freshwater Dr, Douglas QLD 4814, Australia",
    "suburb": "Douglas QLD 4814",
    "state": "QLD",
    "rating": 4.9,
    "reviews": 50,
    "lat": -19.3199987,
    "lng": 146.7362827,
    "place_id": "ChIJJ5ia-Tbx1WsRljAXSBwzzRI",
    "maps_url": "https://www.google.com/maps/place/?q=place_id:ChIJJ5ia-Tbx1WsRljAXSBwzzRI"
  },
  {
    "name": "Kylie's Swim School Garbutt",
    "address": "389 Woolcock St, Garbutt QLD 4814, Australia",
    "suburb": "Garbutt QLD 4814",
    "state": "QLD",
    "rating": 4.6,
    "reviews": 10,
    "lat": -19.2675077,
    "lng": 146.7635877,
    "place_id": "ChIJ1ZpeTSP51WsRuJIGq_EQlvo",
    "maps_url": "https://www.google.com/maps/place/?q=place_id:ChIJ1ZpeTSP51WsRuJIGq_EQlvo"
  },
  {
    "name": "Kylie's Swim School Rasmussen",
    "address": "76 Allambie Ln, Rasmussen QLD 4815, Australia",
    "suburb": "Rasmussen QLD 4815",
    "state": "QLD",
    "rating": 5,
    "reviews": 81,
    "lat": -19.3653524,
    "lng": 146.7232623,
    "place_id": "ChIJgTnSbBnw1WsRkopfq5LDCn0",
    "maps_url": "https://www.google.com/maps/place/?q=place_id:ChIJgTnSbBnw1WsRkopfq5LDCn0"
  },
  {
    "name": "Seahorse Aquatic Centre",
    "address": "Swim School - Swimming Lessons Townsville, 114 Geaney Ln, Deeragun QLD 4818, Australia",
    "suburb": "114 Geaney Ln",
    "state": "QLD",
    "rating": 5,
    "reviews": 39,
    "lat": -19.2494597,
    "lng": 146.6716779,
    "place_id": "ChIJ0zEbBZP21WsR5ulCisN2Bnw",
    "maps_url": "https://www.google.com/maps/place/?q=place_id:ChIJ0zEbBZP21WsR5ulCisN2Bnw"
  },
  {
    "name": "Kokoda Memorial Pool",
    "address": "41 Wellington St, Mundingburra QLD 4812, Australia",
    "suburb": "Mundingburra QLD 4812",
    "state": "QLD",
    "rating": 4.4,
    "reviews": 292,
    "lat": -19.2920291,
    "lng": 146.7822403,
    "place_id": "ChIJJ_uyAoP51WsR_ps2Dv4IMGQ",
    "maps_url": "https://www.google.com/maps/place/?q=place_id:ChIJJ_uyAoP51WsR_ps2Dv4IMGQ"
  },
  {
    "name": "Love2swim School Mundingburra",
    "address": "41 Wellington St, Mundingburra QLD 4812, Australia",
    "suburb": "Mundingburra QLD 4812",
    "state": "QLD",
    "rating": 5,
    "reviews": 3,
    "lat": -19.291958,
    "lng": 146.782675,
    "place_id": "ChIJ9yONe4P51WsRbZn1OgLGZnE",
    "maps_url": "https://www.google.com/maps/place/?q=place_id:ChIJ9yONe4P51WsRbZn1OgLGZnE"
  },
  {
    "name": "Riverway Lagoons",
    "address": "15 Sporting Dr, Thuringowa Central QLD 4817, Australia",
    "suburb": "Thuringowa Central QLD 4817",
    "state": "QLD",
    "rating": 4.5,
    "reviews": 509,
    "lat": -19.3195119,
    "lng": 146.731303,
    "place_id": "ChIJcyI4i5rw1WsRgRo99HOQpBw",
    "maps_url": "https://www.google.com/maps/place/?q=place_id:ChIJcyI4i5rw1WsRgRo99HOQpBw"
  },
  {
    "name": "Glenn Buchanan Swim School",
    "address": "8 Burnda St, Kirwan QLD 4817, Australia",
    "suburb": "Kirwan QLD 4817",
    "state": "QLD",
    "rating": 4.8,
    "reviews": 25,
    "lat": -19.2998223,
    "lng": 146.7351087,
    "place_id": "ChIJazdrMK_w1WsRt33SYMxkSWk",
    "maps_url": "https://www.google.com/maps/place/?q=place_id:ChIJazdrMK_w1WsRt33SYMxkSWk"
  },
  {
    "name": "Long Tan Memorial Pool",
    "address": "316 Fulham Rd, Heatley QLD 4814, Australia",
    "suburb": "Heatley QLD 4814",
    "state": "QLD",
    "rating": 4.4,
    "reviews": 137,
    "lat": -19.2879674,
    "lng": 146.7550647,
    "place_id": "ChIJSwZiVfD51WsRHIL6z911oRI",
    "maps_url": "https://www.google.com/maps/place/?q=place_id:ChIJSwZiVfD51WsRHIL6z911oRI"
  },
  {
    "name": "Swim HQ",
    "address": "9 Puffer Ct, Mount Louisa QLD 4814, Australia",
    "suburb": "Mount Louisa QLD 4814",
    "state": "QLD",
    "rating": 5,
    "reviews": 4,
    "lat": -19.268299,
    "lng": 146.7246977,
    "place_id": "ChIJreZ-_mn31WsRJ1L9Y9O3V-c",
    "maps_url": "https://www.google.com/maps/place/?q=place_id:ChIJreZ-_mn31WsRJ1L9Y9O3V-c"
  },
  {
    "name": "Northern Beaches Leisure Centre",
    "address": "7-31 Erskine Pl, Burdell QLD 4818, Australia",
    "suburb": "Burdell QLD 4818",
    "state": "QLD",
    "rating": 4.3,
    "reviews": 218,
    "lat": -19.2534815,
    "lng": 146.7034016,
    "place_id": "ChIJaWYBzwT31WsRgJtKIssxtdw",
    "maps_url": "https://www.google.com/maps/place/?q=place_id:ChIJaWYBzwT31WsRgJtKIssxtdw"
  },
  {
    "name": "Fish N Flips Swim School Fairfield",
    "address": "2/1 Darcy Dr, Idalia QLD 4811, Australia",
    "suburb": "Idalia QLD 4811",
    "state": "QLD",
    "rating": 4.8,
    "reviews": 24,
    "lat": -19.313867,
    "lng": 146.820764,
    "place_id": "ChIJn2NPj2v71WsR0S4MMgbswjI",
    "maps_url": "https://www.google.com/maps/place/?q=place_id:ChIJn2NPj2v71WsR0S4MMgbswjI"
  },
  {
    "name": "Hanson School of Swimming (Townsville Aqua Jets)",
    "address": "4 Hugh St, Garbutt QLD 4814, Australia",
    "suburb": "Garbutt QLD 4814",
    "state": "QLD",
    "rating": 5,
    "reviews": 1,
    "lat": -19.2560827,
    "lng": 146.785315,
    "place_id": "ChIJa0_PM9751WsRfvD6vNptG9g",
    "maps_url": "https://www.google.com/maps/place/?q=place_id:ChIJa0_PM9751WsRfvD6vNptG9g"
  },
  {
    "name": "Swim Skills",
    "address": "32 Fishburn St, Bentley Park QLD 4869, Australia",
    "suburb": "Bentley Park QLD 4869",
    "state": "QLD",
    "rating": 4.9,
    "reviews": 65,
    "lat": -17.005626,
    "lng": 145.735949,
    "place_id": "ChIJE_bWUxVieGkR6aYI--0qPx8",
    "maps_url": "https://www.google.com/maps/place/?q=place_id:ChIJE_bWUxVieGkR6aYI--0qPx8"
  },
  {
    "name": "Tobruk Memorial Pool",
    "address": "370 Sheridan St, Cairns North QLD 4870, Australia",
    "suburb": "Cairns North QLD 4870",
    "state": "QLD",
    "rating": 4.6,
    "reviews": 657,
    "lat": -16.9025676,
    "lng": 145.7576836,
    "place_id": "ChIJkYwkUX9meGkRoONhYvLuAA8",
    "maps_url": "https://www.google.com/maps/place/?q=place_id:ChIJkYwkUX9meGkRoONhYvLuAA8"
  },
  {
    "name": "Saints Swimming",
    "address": "St. Augustine's College, Severin Street (Cnr Scott St), Paramatta Park, Cairns City QLD 4870, Australia",
    "suburb": "Severin Street (Cnr Scott St)",
    "state": "QLD",
    "rating": 5,
    "reviews": 2,
    "lat": -16.9275915,
    "lng": 145.7668134,
    "place_id": "ChIJYzvyqZ5meGkRgG7ueSwBZaE",
    "maps_url": "https://www.google.com/maps/place/?q=place_id:ChIJYzvyqZ5meGkRgG7ueSwBZaE"
  },
  {
    "name": "Little Pearls Swim School",
    "address": "1 Cumberland Ave, Smithfield QLD 4878, Australia",
    "suburb": "Smithfield QLD 4878",
    "state": "QLD",
    "rating": 4.9,
    "reviews": 16,
    "lat": -16.8384118,
    "lng": 145.6887939,
    "place_id": "ChIJwVk5j-xveGkRvpJyUDyNgsI",
    "maps_url": "https://www.google.com/maps/place/?q=place_id:ChIJwVk5j-xveGkRvpJyUDyNgsI"
  },
  {
    "name": "Swimming and Water Safety at Tobruk Memorial Pool",
    "address": "370 Sheridan St, Cairns North QLD 4870, Australia",
    "suburb": "Cairns North QLD 4870",
    "state": "QLD",
    "rating": 5,
    "reviews": 2,
    "lat": -16.9026128,
    "lng": 145.7575971,
    "place_id": "ChIJf3IQ8tVleGkR3An0bmLGvcY",
    "maps_url": "https://www.google.com/maps/place/?q=place_id:ChIJf3IQ8tVleGkR3An0bmLGvcY"
  },
  {
    "name": "Waterwise Aquatic Centre",
    "address": "151 Harvey Rd, Redlynch QLD 4870, Australia",
    "suburb": "Redlynch QLD 4870",
    "state": "QLD",
    "rating": 4.9,
    "reviews": 39,
    "lat": -16.8917534,
    "lng": 145.6926211,
    "place_id": "ChIJQyANDx9leGkR3vKLbmFfYGE",
    "maps_url": "https://www.google.com/maps/place/?q=place_id:ChIJQyANDx9leGkR3vKLbmFfYGE"
  },
  {
    "name": "Woree Sports and Aquatic Centre",
    "address": "1 Pool Cl, Woree QLD 4868, Australia",
    "suburb": "Woree QLD 4868",
    "state": "QLD",
    "rating": 4.5,
    "reviews": 183,
    "lat": -16.9630537,
    "lng": 145.7440527,
    "place_id": "ChIJwycU4OhjeGkRfYEIl431q0E",
    "maps_url": "https://www.google.com/maps/place/?q=place_id:ChIJwycU4OhjeGkRfYEIl431q0E"
  },
  {
    "name": "Cairns Esplanade Lagoon",
    "address": "52/54 Esplanade, Cairns City QLD 4870, Australia",
    "suburb": "Cairns City QLD 4870",
    "state": "QLD",
    "rating": 4.7,
    "reviews": 6079,
    "lat": -16.9194249,
    "lng": 145.7781908,
    "place_id": "ChIJbXt2DY1meGkR-CMogfjvpQI",
    "maps_url": "https://www.google.com/maps/place/?q=place_id:ChIJbXt2DY1meGkR-CMogfjvpQI"
  },
  {
    "name": "Marlin Coast Recreation Centre",
    "address": "27 Leisure Park Rd, Smithfield QLD 4878, Australia",
    "suburb": "Smithfield QLD 4878",
    "state": "QLD",
    "rating": 4.4,
    "reviews": 31,
    "lat": -16.8146448,
    "lng": 145.6955575,
    "place_id": "ChIJtaRUvrRveGkRFCWENIgODuo",
    "maps_url": "https://www.google.com/maps/place/?q=place_id:ChIJtaRUvrRveGkRFCWENIgODuo"
  },
  {
    "name": "Herbies Swim School",
    "address": "7 Palm Ave, Portsmith QLD 4870, Australia",
    "suburb": "Portsmith QLD 4870",
    "state": "QLD",
    "rating": 5,
    "reviews": 2,
    "lat": -16.9288787,
    "lng": 145.7688584,
    "place_id": "ChIJNf158UNneGkRv9gf5lnyA0g",
    "maps_url": "https://www.google.com/maps/place/?q=place_id:ChIJNf158UNneGkRv9gf5lnyA0g"
  },
  {
    "name": "Smithfield Pool",
    "address": "41 Leisure Park Rd, Smithfield QLD 4878, Australia",
    "suburb": "Smithfield QLD 4878",
    "state": "QLD",
    "rating": 4.5,
    "reviews": 159,
    "lat": -16.8153053,
    "lng": 145.6967325,
    "place_id": "ChIJMXRXYLRveGkR8zOUSoi_7gQ",
    "maps_url": "https://www.google.com/maps/place/?q=place_id:ChIJMXRXYLRveGkR8zOUSoi_7gQ"
  },
  {
    "name": "Southside Swim School",
    "address": "37 Stokes St, Edmonton QLD 4869, Australia",
    "suburb": "Edmonton QLD 4869",
    "state": "QLD",
    "rating": 4.3,
    "reviews": 22,
    "lat": -17.0204318,
    "lng": 145.7404206,
    "place_id": "ChIJz1wmEQxieGkR3to68xLnjpI",
    "maps_url": "https://www.google.com/maps/place/?q=place_id:ChIJz1wmEQxieGkR3to68xLnjpI"
  },
  {
    "name": "TAS Aquatic Centre",
    "address": "200-212 Progress Rd, White Rock QLD 4868, Australia",
    "suburb": "White Rock QLD 4868",
    "state": "QLD",
    "rating": 5,
    "reviews": 7,
    "lat": -16.9789087,
    "lng": 145.7443626,
    "place_id": "ChIJdyn_B3BjeGkRS2DUlos1EWA",
    "maps_url": "https://www.google.com/maps/place/?q=place_id:ChIJdyn_B3BjeGkRS2DUlos1EWA"
  },
  {
    "name": "Deb's Dolphins Swim School",
    "address": "160 Butler Blvd, Butler WA 6036, Australia",
    "suburb": "Butler WA 6036",
    "state": "WA",
    "rating": 4.8,
    "reviews": 40,
    "lat": -31.6375441,
    "lng": 115.6997374,
    "place_id": "ChIJS6_dV7BXzSsRQxey-MMYD1A",
    "maps_url": "https://www.google.com/maps/place/?q=place_id:ChIJS6_dV7BXzSsRQxey-MMYD1A"
  },
  {
    "name": "State Swim Butler",
    "address": "198 Landbeach Blvd, Butler WA 6036, Australia",
    "suburb": "Butler WA 6036",
    "state": "WA",
    "rating": 4.4,
    "reviews": 94,
    "lat": -31.6353698,
    "lng": 115.7085221,
    "place_id": "ChIJv8Mpp6dXzSsRPEl_45L9_fY",
    "maps_url": "https://www.google.com/maps/place/?q=place_id:ChIJv8Mpp6dXzSsRPEl_45L9_fY"
  },
  {
    "name": "Water Ponyz Swim School Merriwa",
    "address": "Unit 3/10 Hughie Edwards Dr, Merriwa WA 6030, Australia",
    "suburb": "Merriwa WA 6030",
    "state": "WA",
    "rating": 4.7,
    "reviews": 119,
    "lat": -31.6598158,
    "lng": 115.7067922,
    "place_id": "ChIJn-hhJ7lUzSsRDj-EH6c3knY",
    "maps_url": "https://www.google.com/maps/place/?q=place_id:ChIJn-hhJ7lUzSsRDj-EH6c3knY"
  },
  {
    "name": "BlueFit Swimming - WACA",
    "address": "Nelson Cr, Perth WA 6000, Australia",
    "suburb": "Perth WA 6000",
    "state": "WA",
    "rating": 5,
    "reviews": 27,
    "lat": -31.9593447,
    "lng": 115.8796531,
    "place_id": "ChIJuyU64-C7MioRkdFDT_d21Eo",
    "maps_url": "https://www.google.com/maps/place/?q=place_id:ChIJuyU64-C7MioRkdFDT_d21Eo"
  },
  {
    "name": "Kids Aquatic Survival School Quinns Rocks",
    "address": "54 Littleham Loop, Quinns Rocks WA 6030, Australia",
    "suburb": "Quinns Rocks WA 6030",
    "state": "WA",
    "rating": 5,
    "reviews": 16,
    "lat": -31.6689637,
    "lng": 115.7056918,
    "place_id": "ChIJRdO0al5WzSsR1bALj9qkQ1Q",
    "maps_url": "https://www.google.com/maps/place/?q=place_id:ChIJRdO0al5WzSsR1bALj9qkQ1Q"
  },
  {
    "name": "Beatty Park Swim School",
    "address": "Leisure Centre, 220 Vincent St, North Perth WA 6006, Australia",
    "suburb": "220 Vincent St",
    "state": "WA",
    "rating": 4,
    "reviews": 39,
    "lat": -31.9352031,
    "lng": 115.8492471,
    "place_id": "ChIJvcuQfkqlMioRcWlmss_fLDU",
    "maps_url": "https://www.google.com/maps/place/?q=place_id:ChIJvcuQfkqlMioRcWlmss_fLDU"
  },
  {
    "name": "JUMP! Swim Schools Clarkson",
    "address": "Unit 6/61 Key Largo Dr, Clarkson WA 6030, Australia",
    "suburb": "Clarkson WA 6030",
    "state": "WA",
    "rating": 5,
    "reviews": 51,
    "lat": -31.6917057,
    "lng": 115.7198181,
    "place_id": "ChIJ74kbdL1VzSsR7V0PWMfUecs",
    "maps_url": "https://www.google.com/maps/place/?q=place_id:ChIJ74kbdL1VzSsR7V0PWMfUecs"
  },
  {
    "name": "JUMP! Swim Schools Joondalup",
    "address": "3/23 Franklin Ln, Joondalup WA 6027, Australia",
    "suburb": "Joondalup WA 6027",
    "state": "WA",
    "rating": 5,
    "reviews": 49,
    "lat": -31.7422826,
    "lng": 115.761109,
    "place_id": "ChIJN_ylGldTzSsRypyvP2pjM-Y",
    "maps_url": "https://www.google.com/maps/place/?q=place_id:ChIJN_ylGldTzSsRypyvP2pjM-Y"
  },
  {
    "name": "State Swim Joondalup",
    "address": "6 Buick Way, Joondalup WA 6027, Australia",
    "suburb": "Joondalup WA 6027",
    "state": "WA",
    "rating": 4.3,
    "reviews": 86,
    "lat": -31.7536211,
    "lng": 115.7648669,
    "place_id": "ChIJJ06pmFBTzSsRZuC7b3x7dAQ",
    "maps_url": "https://www.google.com/maps/place/?q=place_id:ChIJJ06pmFBTzSsRZuC7b3x7dAQ"
  },
  {
    "name": "Arena Swim Club",
    "address": "Joondalup WA 6027, Australia",
    "suburb": "Australia",
    "state": "WA",
    "rating": 4.8,
    "reviews": 17,
    "lat": -31.7346083,
    "lng": 115.7602234,
    "place_id": "ChIJWwheexRTzSsROFfs0ZD6LFU",
    "maps_url": "https://www.google.com/maps/place/?q=place_id:ChIJWwheexRTzSsROFfs0ZD6LFU"
  },
  {
    "name": "Water Ponyz Swim School Wanneroo",
    "address": "Drovers Market, next to Dan Murphy, 2c/1387 Wanneroo Rd, Wanneroo WA 6065, Australia",
    "suburb": "next to Dan Murphy",
    "state": "WA",
    "rating": 4.7,
    "reviews": 26,
    "lat": -31.7184892,
    "lng": 115.7811009,
    "place_id": "ChIJwb27fnRTzSsRub31Be-3usQ",
    "maps_url": "https://www.google.com/maps/place/?q=place_id:ChIJwb27fnRTzSsRub31Be-3usQ"
  },
  {
    "name": "Beatty Park Leisure Centre",
    "address": "220 Vincent St, North Perth WA 6006, Australia",
    "suburb": "North Perth WA 6006",
    "state": "WA",
    "rating": 4.4,
    "reviews": 2113,
    "lat": -31.9356784,
    "lng": 115.8495864,
    "place_id": "ChIJ95cemkqlMioRIKfxGLbwBA8",
    "maps_url": "https://www.google.com/maps/place/?q=place_id:ChIJ95cemkqlMioRIKfxGLbwBA8"
  },
  {
    "name": "Stirling Leisure - Inglewood",
    "address": "Suite 1 & 2/62 Alexander Dr, Inglewood WA 6052, Australia",
    "suburb": "Inglewood WA 6052",
    "state": "WA",
    "rating": 4.2,
    "reviews": 712,
    "lat": -31.9088154,
    "lng": 115.8700114,
    "place_id": "ChIJmbuOJwqwMioRTeWD3_jMP90",
    "maps_url": "https://www.google.com/maps/place/?q=place_id:ChIJmbuOJwqwMioRTeWD3_jMP90"
  },
  {
    "name": "Water Ponyz Swim School Ocean Reef",
    "address": "68 Constellation Dr, Ocean Reef WA 6027, Australia",
    "suburb": "Ocean Reef WA 6027",
    "state": "WA",
    "rating": 4.7,
    "reviews": 62,
    "lat": -31.750484,
    "lng": 115.734357,
    "place_id": "ChIJwX3djL9UzSsRBlQFuew3pfQ",
    "maps_url": "https://www.google.com/maps/place/?q=place_id:ChIJwX3djL9UzSsRBlQFuew3pfQ"
  },
  {
    "name": "Wanneroo Aquamotion",
    "address": "19 Civic Dr, Wanneroo WA 6065, Australia",
    "suburb": "Wanneroo WA 6065",
    "state": "WA",
    "rating": 4.1,
    "reviews": 502,
    "lat": -31.7525778,
    "lng": 115.80685,
    "place_id": "ChIJ66BsJiutMioR_24wnSQPPCo",
    "maps_url": "https://www.google.com/maps/place/?q=place_id:ChIJ66BsJiutMioR_24wnSQPPCo"
  },
  {
    "name": "Riverton Leisureplex",
    "address": "67 Riley Rd, Riverton WA 6148, Australia",
    "suburb": "Riverton WA 6148",
    "state": "WA",
    "rating": 4.2,
    "reviews": 1130,
    "lat": -32.0383835,
    "lng": 115.9020767,
    "place_id": "ChIJmWpip6m9MioRIns6_ghPBu4",
    "maps_url": "https://www.google.com/maps/place/?q=place_id:ChIJmWpip6m9MioRIns6_ghPBu4"
  },
  {
    "name": "JUMP! Swim Schools Wanneroo",
    "address": "637 Wanneroo Rd, Wanneroo WA 6065, Australia",
    "suburb": "Wanneroo WA 6065",
    "state": "WA",
    "rating": 5,
    "reviews": 45,
    "lat": -31.7786941,
    "lng": 115.8082275,
    "place_id": "ChIJK7QE_B6tMioRkkZBIXzR7dg",
    "maps_url": "https://www.google.com/maps/place/?q=place_id:ChIJK7QE_B6tMioRkkZBIXzR7dg"
  },
  {
    "name": "Distinction Training",
    "address": "Belmont Oasis Leisure Centre Progress Way, Belmont WA 6104, Belmont WA 6149, Australia",
    "suburb": "Belmont WA 6104",
    "state": "WA",
    "rating": 4.9,
    "reviews": 59,
    "lat": -31.9596172,
    "lng": 115.9314058,
    "place_id": "ChIJhdwBX-K9MioRB3BF4SXSnco",
    "maps_url": "https://www.google.com/maps/place/?q=place_id:ChIJhdwBX-K9MioRB3BF4SXSnco"
  },
  {
    "name": "Carlile Swim Karrinyup",
    "address": "707 N Beach Rd, Gwelup WA 6018, Australia",
    "suburb": "Gwelup WA 6018",
    "state": "WA",
    "rating": 4.5,
    "reviews": 132,
    "lat": -31.8762747,
    "lng": 115.7971838,
    "place_id": "ChIJa6RfUPquMioReBZ0j89BAgw",
    "maps_url": "https://www.google.com/maps/place/?q=place_id:ChIJa6RfUPquMioReBZ0j89BAgw"
  },
  {
    "name": "State Swim Whitford City",
    "address": "Cnr Marmion Avenue and, Banks Ave, Hillarys WA 6025, Australia",
    "suburb": "Banks Ave",
    "state": "WA",
    "rating": 4.4,
    "reviews": 44,
    "lat": -31.7972311,
    "lng": 115.7524807,
    "place_id": "ChIJBdEft2SrMioRFy3iXxzTEkk",
    "maps_url": "https://www.google.com/maps/place/?q=place_id:ChIJBdEft2SrMioRFy3iXxzTEkk"
  },
  {
    "name": "Fremantle Leisure Centre",
    "address": "10 Shuffrey St, Fremantle WA 6160, Australia",
    "suburb": "Fremantle WA 6160",
    "state": "WA",
    "rating": 4.3,
    "reviews": 357,
    "lat": -32.047957,
    "lng": 115.752858,
    "place_id": "ChIJ2zRb7mOhMioRnguZkAevn6s",
    "maps_url": "https://www.google.com/maps/place/?q=place_id:ChIJ2zRb7mOhMioRnguZkAevn6s"
  },
  {
    "name": "State Swim East Fremantle",
    "address": "160 Canning Hwy, East Fremantle WA 6158, Australia",
    "suburb": "East Fremantle WA 6158",
    "state": "WA",
    "rating": 4.8,
    "reviews": 70,
    "lat": -32.040306,
    "lng": 115.7653427,
    "place_id": "ChIJB7ubkd2jMioRbyE-b6_UqWc",
    "maps_url": "https://www.google.com/maps/place/?q=place_id:ChIJB7ubkd2jMioRbyE-b6_UqWc"
  },
  {
    "name": "Arena Joondalup",
    "address": "Kennedya Dr, Joondalup WA 6027, Australia",
    "suburb": "Joondalup WA 6027",
    "state": "WA",
    "rating": 4.3,
    "reviews": 1403,
    "lat": -31.7346458,
    "lng": 115.760704,
    "place_id": "ChIJmWhev2JTzSsRXEkdHedC3rE",
    "maps_url": "https://www.google.com/maps/place/?q=place_id:ChIJmWhev2JTzSsRXEkdHedC3rE"
  },
  {
    "name": "Craigie Leisure Centre",
    "address": "751 Whitfords Ave, Craigie WA 6025, Australia",
    "suburb": "Craigie WA 6025",
    "state": "WA",
    "rating": 4.3,
    "reviews": 1183,
    "lat": -31.795318,
    "lng": 115.7759077,
    "place_id": "ChIJGXJr2Y2sMioRBl36s7z6c9w",
    "maps_url": "https://www.google.com/maps/place/?q=place_id:ChIJGXJr2Y2sMioRBl36s7z6c9w"
  },
  {
    "name": "Mandurah Aquatic And Recreation Centre",
    "address": "3/303 Pinjarra Rd, Mandurah WA 6210, Australia",
    "suburb": "Mandurah WA 6210",
    "state": "WA",
    "rating": 4,
    "reviews": 285,
    "lat": -32.5369825,
    "lng": 115.7369599,
    "place_id": "ChIJVVVV2Et5MioRpoU-EW89aoY",
    "maps_url": "https://www.google.com/maps/place/?q=place_id:ChIJVVVV2Et5MioRpoU-EW89aoY"
  },
  {
    "name": "Carlile Swim Mandurah",
    "address": "36 Wattleglen Ave, Erskine WA 6210, Australia",
    "suburb": "Erskine WA 6210",
    "state": "WA",
    "rating": 4.7,
    "reviews": 63,
    "lat": -32.5611446,
    "lng": 115.6879603,
    "place_id": "ChIJ6QhJ-MB4MioRG72n05wEa0c",
    "maps_url": "https://www.google.com/maps/place/?q=place_id:ChIJ6QhJ-MB4MioRG72n05wEa0c"
  },
  {
    "name": "BlueFit Swimming - Lakelands",
    "address": "49 Banksiadale Gate, Lakelands WA 6180, Australia",
    "suburb": "Lakelands WA 6180",
    "state": "WA",
    "rating": 4.8,
    "reviews": 54,
    "lat": -32.47227610000001,
    "lng": 115.7590682,
    "place_id": "ChIJS1vvJQF9MioRG4-ohRK8Wgc",
    "maps_url": "https://www.google.com/maps/place/?q=place_id:ChIJS1vvJQF9MioRG4-ohRK8Wgc"
  },
  {
    "name": "MANDURAH SWIMMING CLUB",
    "address": "303 Pinjarra Rd, Mandurah WA 6210, Australia",
    "suburb": "Mandurah WA 6210",
    "state": "WA",
    "rating": 4.7,
    "reviews": 27,
    "lat": -32.537426,
    "lng": 115.737349,
    "place_id": "ChIJJQsNFEl5MioRNyCxT5U4DXg",
    "maps_url": "https://www.google.com/maps/place/?q=place_id:ChIJJQsNFEl5MioRNyCxT5U4DXg"
  },
  {
    "name": "4SwimSake Mandurah",
    "address": "Halls Head WA 6210, Australia",
    "suburb": "Australia",
    "state": "WA",
    "rating": null,
    "reviews": 0,
    "lat": -32.5331784,
    "lng": 115.6937976,
    "place_id": "ChIJ66K-2IJ_MioRdtUgfFYmTqc",
    "maps_url": "https://www.google.com/maps/place/?q=place_id:ChIJ66K-2IJ_MioRdtUgfFYmTqc"
  },
  {
    "name": "South West Sports Centre",
    "address": "1 Rotary Dr, Withers WA 6230, Australia",
    "suburb": "Withers WA 6230",
    "state": "WA",
    "rating": 4.4,
    "reviews": 441,
    "lat": -33.368268,
    "lng": 115.640708,
    "place_id": "ChIJeQgK2ZUdLioRuZ-2HTGY7zg",
    "maps_url": "https://www.google.com/maps/place/?q=place_id:ChIJeQgK2ZUdLioRuZ-2HTGY7zg"
  },
  {
    "name": "Leschenault Leisure Centre",
    "address": "Leisure Dr, Australind WA 6233, Australia",
    "suburb": "Australind WA 6233",
    "state": "WA",
    "rating": 4.2,
    "reviews": 233,
    "lat": -33.2698996,
    "lng": 115.7379771,
    "place_id": "ChIJy5EhWb78MSoRFM-3rpiIgaU",
    "maps_url": "https://www.google.com/maps/place/?q=place_id:ChIJy5EhWb78MSoRFM-3rpiIgaU"
  },
  {
    "name": "Koala Splash",
    "address": "8 Batavia Pl, Australind WA 6233, Australia",
    "suburb": "Australind WA 6233",
    "state": "WA",
    "rating": 5,
    "reviews": 8,
    "lat": -33.2829927,
    "lng": 115.7177626,
    "place_id": "ChIJV-LTOaj9MSoRhN5582AO_Ss",
    "maps_url": "https://www.google.com/maps/place/?q=place_id:ChIJV-LTOaj9MSoRhN5582AO_Ss"
  },
  {
    "name": "Dolphin Discovery Centre Bunbury",
    "address": "Anchorage Cove off, Koombana Dr, Bunbury WA 6230, Australia",
    "suburb": "Koombana Dr",
    "state": "WA",
    "rating": 4.5,
    "reviews": 2556,
    "lat": -33.320813,
    "lng": 115.649534,
    "place_id": "ChIJG5PrpzkdLioR9139754bqrs",
    "maps_url": "https://www.google.com/maps/place/?q=place_id:ChIJG5PrpzkdLioR9139754bqrs"
  },
  {
    "name": "City of Bunbury Surf Life Saving Club",
    "address": "Box 81, Lot 757 Ocean Dr, Bunbury WA 6231, Australia",
    "suburb": "Lot 757 Ocean Dr",
    "state": "WA",
    "rating": 4.9,
    "reviews": 30,
    "lat": -33.3272761,
    "lng": 115.6299023,
    "place_id": "ChIJyxs_CTsdLioRtPpTXkpX_lY",
    "maps_url": "https://www.google.com/maps/place/?q=place_id:ChIJyxs_CTsdLioRtPpTXkpX_lY"
  },