[
  {
    "name": "Flip Out Gladesville",
    "address": "Entrance via Tennyson Rd, 480 Victoria Rd, Gladesville NSW 2111, Australia",
    "suburb": "480 Victoria Rd",
    "state": "NSW",
    "rating": 4.8,
    "reviews": 945,
    "lat": -33.8243254,
    "lng": 151.1223517,
    "place_id": "ChIJreoSK0GlEmsREm6FsPOuD2o",
    "maps_url": "https://www.google.com/maps/place/?q=place_id:ChIJreoSK0GlEmsREm6FsPOuD2o"
  },
  {
    "name": "Ultimate Family Entertainment Centre",
    "address": "5/1B Redbank Rd, Northmead NSW 2152, Australia",
    "suburb": "Northmead NSW 2152",
    "state": "NSW",
    "rating": 4,
    "reviews": 1505,
    "lat": -33.798117,
    "lng": 150.990209,
    "place_id": "ChIJ9agtGPqiEmsRi9j3Jj3s4cI",
    "maps_url": "https://www.google.com/maps/place/?q=place_id:ChIJ9agtGPqiEmsRi9j3Jj3s4cI"
  },
  {
    "name": "Flymotion",
    "address": "Entertainment Quarter, Moore Park NSW 2021, Australia",
    "suburb": "Moore Park NSW 2021",
    "state": "NSW",
    "rating": 4.5,
    "reviews": 17,
    "lat": -33.8943516,
    "lng": 151.2277743,
    "place_id": "ChIJWYBp8u6xEmsRdzzZY4MRE40",
    "maps_url": "https://www.google.com/maps/place/?q=place_id:ChIJWYBp8u6xEmsRdzzZY4MRE40"
  },
  {
    "name": "Wimbo Park",
    "address": "560 Bourke St, Surry Hills NSW 2010, Australia",
    "suburb": "Surry Hills NSW 2010",
    "state": "NSW",
    "rating": 3.8,
    "reviews": 24,
    "lat": -33.8899291,
    "lng": 151.2160835,
    "place_id": "ChIJH865Ch2vEmsRKhYRHP9ysMs",
    "maps_url": "https://www.google.com/maps/place/?q=place_id:ChIJH865Ch2vEmsRKhYRHP9ysMs"
  },
  {
    "name": "Power Play Sydney",
    "address": "Ground Floor/48-58 Druitt St, Sydney NSW 2000, Australia",
    "suburb": "Sydney NSW 2000",
    "state": "NSW",
    "rating": 4.9,
    "reviews": 899,
    "lat": -33.8726387,
    "lng": 151.2045043,
    "place_id": "ChIJRRH5RFKvEmsRPPGnHU71D-k",
    "maps_url": "https://www.google.com/maps/place/?q=place_id:ChIJRRH5RFKvEmsRPPGnHU71D-k"
  },
  {
    "name": "Timezone Haymarket",
    "address": "Shop 9/13 Hay St, Haymarket NSW 2000, Australia",
    "suburb": "Haymarket NSW 2000",
    "state": "NSW",
    "rating": 4.5,
    "reviews": 2020,
    "lat": -33.8799445,
    "lng": 151.2035053,
    "place_id": "ChIJ1awzXCSuEmsRGNU50w2fKcc",
    "maps_url": "https://www.google.com/maps/place/?q=place_id:ChIJ1awzXCSuEmsRGNU50w2fKcc"
  },
  {
    "name": "BOUNCE Inc Homebush",
    "address": "201 Parramatta Rd, Homebush West NSW 2140, Australia",
    "suburb": "Homebush West NSW 2140",
    "state": "NSW",
    "rating": 3.8,
    "reviews": 723,
    "lat": -33.8589425,
    "lng": 151.0714719,
    "place_id": "ChIJa3dAAS-7EmsR86T5LxSrVOk",
    "maps_url": "https://www.google.com/maps/place/?q=place_id:ChIJa3dAAS-7EmsR86T5LxSrVOk"
  },
  {
    "name": "360 Action Park (Formerly Flip Out Castle Hill) - Kids Parties, Kids Play Area, Birthday Parties Castle Hill",
    "address": "Unit 2/16-18 Anella Ave, Castle Hill NSW 2154, Australia",
    "suburb": "Castle Hill NSW 2154",
    "state": "NSW",
    "rating": 4.4,
    "reviews": 2716,
    "lat": -33.726339,
    "lng": 150.9817822,
    "place_id": "ChIJP-JsceyhEmsRGVrbNb6XRGY",
    "maps_url": "https://www.google.com/maps/place/?q=place_id:ChIJP-JsceyhEmsRGVrbNb6XRGY"
  },
  {
    "name": "Digipark Sydney - Immersive Entertainment, 7D Cinema, Indoor Activities Sydney, Things to do in Sydney",
    "address": "Westfield Sydney, Level 5 Shop 50178A/108 Market St, Sydney NSW 2000, Australia",
    "suburb": "Level 5 Shop 50178A/108 Market St",
    "state": "NSW",
    "rating": 4.6,
    "reviews": 425,
    "lat": -33.870332,
    "lng": 151.2089688,
    "place_id": "ChIJTbZpk4qvEmsRHJRpFvlrbrU",
    "maps_url": "https://www.google.com/maps/place/?q=place_id:ChIJTbZpk4qvEmsRHJRpFvlrbrU"
  },
  {
    "name": "Flip Out Caringbah - Adventure Park",
    "address": "12 Parraweena Rd, Caringbah NSW 2229, Australia",
    "suburb": "Caringbah NSW 2229",
    "state": "NSW",
    "rating": 4.1,
    "reviews": 448,
    "lat": -34.0271894,
    "lng": 151.129283,
    "place_id": "ChIJQWhc7gW4EmsRyRB2L8ZPpQg",
    "maps_url": "https://www.google.com/maps/place/?q=place_id:ChIJQWhc7gW4EmsRyRB2L8ZPpQg"
  },
  {
    "name": "Flip Out Lidcombe",
    "address": "M004, 92 Parramatta Road Entry from, Rear of Lidcombe Shopping Centre, Hastings St, Lidcombe NSW 2141, Australia",
    "suburb": "92 Parramatta Road Entry from",
    "state": "NSW",
    "rating": 4.8,
    "reviews": 257,
    "lat": -33.8492998,
    "lng": 151.0489549,
    "place_id": "ChIJj_zgShq7EmsRjlNkBDTjBGQ",
    "maps_url": "https://www.google.com/maps/place/?q=place_id:ChIJj_zgShq7EmsRjlNkBDTjBGQ"
  },
  {
    "name": "Flip Out WETHERILL PARK",
    "address": "In between UFC gym & Jaycar, Greenway Shopping Centre, Unit 56/1187 The Horsley Dr, Wetherill Park NSW 2164, Australia",
    "suburb": "Greenway Shopping Centre",
    "state": "NSW",
    "rating": 4.2,
    "reviews": 542,
    "lat": -33.8497854,
    "lng": 150.8973897,
    "place_id": "ChIJYXgWAFmUEmsRHBvaV_bMebs",
    "maps_url": "https://www.google.com/maps/place/?q=place_id:ChIJYXgWAFmUEmsRHBvaV_bMebs"
  },
  {
    "name": "Flip Out Marsden Park",
    "address": "Shop 29/9 Hollinsworth Rd, Marsden Park NSW 2765, Australia",
    "suburb": "Marsden Park NSW 2765",
    "state": "NSW",
    "rating": 4.3,
    "reviews": 709,
    "lat": -33.7189746,
    "lng": 150.8409595,
    "place_id": "ChIJ50PgdiibEmsR2S37aHzDy0Q",
    "maps_url": "https://www.google.com/maps/place/?q=place_id:ChIJ50PgdiibEmsR2S37aHzDy0Q"
  },
  {
    "name": "Tumbalong Park Playground",
    "address": "Darling Harbour, 11 Harbour St, Sydney NSW 2000, Australia",
    "suburb": "11 Harbour St",
    "state": "NSW",
    "rating": 4.7,
    "reviews": 389,
    "lat": -33.874661,
    "lng": 151.2014052,
    "place_id": "ChIJwah7mMGvEmsRK5faXIs7P68",
    "maps_url": "https://www.google.com/maps/place/?q=place_id:ChIJwah7mMGvEmsRK5faXIs7P68"
  },
  {
    "name": "Flip Out Blacktown",
    "address": "G3B/14 St Martins Cres, Blacktown NSW 2148, Australia",
    "suburb": "Blacktown NSW 2148",
    "state": "NSW",
    "rating": 3.9,
    "reviews": 270,
    "lat": -33.7810817,
    "lng": 150.9180349,
    "place_id": "ChIJoTxZ2diZEmsRkrNabi3UdzM",
    "maps_url": "https://www.google.com/maps/place/?q=place_id:ChIJoTxZ2diZEmsRkrNabi3UdzM"
  },
  {
    "name": "Flip Out Villawood",
    "address": "3/824 - 850 Woodville Rd, Villawood NSW 2163, Australia",
    "suburb": "Villawood NSW 2163",
    "state": "NSW",
    "rating": 4.1,
    "reviews": 435,
    "lat": -33.8789539,
    "lng": 150.9778035,
    "place_id": "ChIJRQlrinO9EmsRFWKTXxjwqsI",
    "maps_url": "https://www.google.com/maps/place/?q=place_id:ChIJRQlrinO9EmsRFWKTXxjwqsI"
  },
  {
    "name": "Bounce Luggage Storage - Circular Quay",
    "address": "E4 East Podium, Between Wharf 3 & 4 where the Manly Ferry pulls in, Sydney NSW 2000, Australia",
    "suburb": "Between Wharf 3 & 4 where the Manly Ferry pulls in",
    "state": "NSW",
    "rating": 4.8,
    "reviews": 2305,
    "lat": -33.8611531,
    "lng": 151.2113789,
    "place_id": "ChIJW-dGfsyvEmsRV09B7PZONFI",
    "maps_url": "https://www.google.com/maps/place/?q=place_id:ChIJW-dGfsyvEmsRV09B7PZONFI"
  },
  {
    "name": "Entermission Sydney CBD - VR Escape Rooms",
    "address": "1/484 Kent St, Sydney NSW 2000, Australia",
    "suburb": "Sydney NSW 2000",
    "state": "NSW",
    "rating": 4.9,
    "reviews": 1826,
    "lat": -33.8745577,
    "lng": 151.2055435,
    "place_id": "ChIJ__9PaTyuEmsR73SEdCl2H0U",
    "maps_url": "https://www.google.com/maps/place/?q=place_id:ChIJ__9PaTyuEmsR73SEdCl2H0U"
  },
  {
    "name": "BOUNCE Inc Cromer",
    "address": "Unit 7&8, Northern Beaches Business Park, 4/10 Inman Rd, Cromer NSW 2099, Australia",
    "suburb": "Northern Beaches Business Park",
    "state": "NSW",
    "rating": 4.4,
    "reviews": 286,
    "lat": -33.7388115,
    "lng": 151.2872771,
    "place_id": "ChIJ0YTcUQBVDWsRo683i6-8vjs",
    "maps_url": "https://www.google.com/maps/place/?q=place_id:ChIJ0YTcUQBVDWsRo683i6-8vjs"
  },
  {
    "name": "Flip Out Penrith",
    "address": "D/62-72 Batt St, South Penrith NSW 2750, Australia",
    "suburb": "South Penrith NSW 2750",
    "state": "NSW",
    "rating": 3.9,
    "reviews": 807,
    "lat": -33.7693624,
    "lng": 150.6863036,
    "place_id": "ChIJ38IYEk6PEmsR-CJpefS0Axc",
    "maps_url": "https://www.google.com/maps/place/?q=place_id:ChIJ38IYEk6PEmsR-CJpefS0Axc"
  },
  {
    "name": "Frenzy Park",
    "address": "72 Ferndell St, Guildford NSW 2161, Australia",
    "suburb": "Guildford NSW 2161",
    "state": "NSW",
    "rating": 4.4,
    "reviews": 457,
    "lat": -33.8714898,
    "lng": 151.0068397,
    "place_id": "ChIJRTYZgs69EmsRgiE4KKq_txo",
    "maps_url": "https://www.google.com/maps/place/?q=place_id:ChIJRTYZgs69EmsRgiE4KKq_txo"
  },
  {
    "name": "Timezone Parramatta",
    "address": "159, 175 Church St, Parramatta NSW 2150, Australia",
    "suburb": "175 Church St",
    "state": "NSW",
    "rating": 4.7,
    "reviews": 1508,
    "lat": -33.8177503,
    "lng": 151.002406,
    "place_id": "ChIJ55oUUTejEmsR3bRtkZR-kos",
    "maps_url": "https://www.google.com/maps/place/?q=place_id:ChIJ55oUUTejEmsR3bRtkZR-kos"
  },
  {
    "name": "Zero Latency VR Parramatta",
    "address": "Level 1/202-208 Church St, Parramatta NSW 2150, Australia",
    "suburb": "Parramatta NSW 2150",
    "state": "NSW",
    "rating": 4.9,
    "reviews": 158,
    "lat": -33.8147983,
    "lng": 151.0031185,
    "place_id": "ChIJ5yYOo1-jEmsR6TTSqQX7_LE",
    "maps_url": "https://www.google.com/maps/place/?q=place_id:ChIJ5yYOo1-jEmsR6TTSqQX7_LE"
  },
  {
    "name": "Revolution Sports Park",
    "address": "55 The Avenue, Maryville NSW 2293, Australia",
    "suburb": "Maryville NSW 2293",
    "state": "NSW",
    "rating": 4,
    "reviews": 499,
    "lat": -32.913447,
    "lng": 151.755996,
    "place_id": "ChIJzYDhffgUc2sRkwhuzQKH33k",
    "maps_url": "https://www.google.com/maps/place/?q=place_id:ChIJzYDhffgUc2sRkwhuzQKH33k"
  },
  {
    "name": "Springloaded Newcastle",
    "address": "26A Oakdale Rd, Gateshead NSW 2290, Australia",
    "suburb": "Gateshead NSW 2290",
    "state": "NSW",
    "rating": 4.3,
    "reviews": 378,
    "lat": -32.989959,
    "lng": 151.6973677,
    "place_id": "ChIJz1V-HX09c2sRkGNl0VR3Nzw",
    "maps_url": "https://www.google.com/maps/place/?q=place_id:ChIJz1V-HX09c2sRkGNl0VR3Nzw"
  },
  {
    "name": "Flip Out Junior Charlestown",
    "address": "Shop G8042a/30 Pearson St, Charlestown NSW 2290, Australia",
    "suburb": "Charlestown NSW 2290",
    "state": "NSW",
    "rating": 3.9,
    "reviews": 57,
    "lat": -32.9652189,
    "lng": 151.6942966,
    "place_id": "ChIJ2xXtPNA9c2sRXouZ0x1ZnWM",
    "maps_url": "https://www.google.com/maps/place/?q=place_id:ChIJ2xXtPNA9c2sRXouZ0x1ZnWM"
  },
  {
    "name": "Ninja Parc Newcastle",
    "address": "Cnr Tooke and, Brooks St, Cooks Hill NSW 2300, Australia",
    "suburb": "Brooks St",
    "state": "NSW",
    "rating": 4.3,
    "reviews": 253,
    "lat": -32.9364664,
    "lng": 151.7686798,
    "place_id": "ChIJLftBi0AUc2sRyi4431G7GHY",
    "maps_url": "https://www.google.com/maps/place/?q=place_id:ChIJLftBi0AUc2sRyi4431G7GHY"
  },
  {
    "name": "GravityX",
    "address": "18 Bradmill Ave, Rutherford NSW 2320, Australia",
    "suburb": "Rutherford NSW 2320",
    "state": "NSW",
    "rating": 4,
    "reviews": 232,
    "lat": -32.711604,
    "lng": 151.5060998,
    "place_id": "ChIJ16r8a1xPc2sRaw5R-YY9LtI",
    "maps_url": "https://www.google.com/maps/place/?q=place_id:ChIJ16r8a1xPc2sRaw5R-YY9LtI"
  },
  {
    "name": "Bounce Newcastle East",
    "address": "Train Sheds, Foreshore Park, Newcastle East NSW 2300, Australia",
    "suburb": "Foreshore Park",
    "state": "NSW",
    "rating": null,
    "reviews": 0,
    "lat": -32.9258864,
    "lng": 151.788209,
    "place_id": "ChIJ77Q20_QVc2sRgCKTyvYxCag",
    "maps_url": "https://www.google.com/maps/place/?q=place_id:ChIJ77Q20_QVc2sRgCKTyvYxCag"
  },
  {
    "name": "Sports Parc",
    "address": "Brooks St & Tooke St, Cooks Hill NSW 2300, Australia",
    "suburb": "Cooks Hill NSW 2300",
    "state": "NSW",
    "rating": 4.1,
    "reviews": 113,
    "lat": -32.9360694,
    "lng": 151.7683563,
    "place_id": "ChIJs5U49UAUc2sRfRpdLzywlTo",
    "maps_url": "https://www.google.com/maps/place/?q=place_id:ChIJs5U49UAUc2sRfRpdLzywlTo"
  },
  {
    "name": "EMF Jnr Kotara",
    "address": "Northcott Dr, Kotara NSW 2289, Australia",
    "suburb": "Kotara NSW 2289",
    "state": "NSW",
    "rating": 2.9,
    "reviews": 42,
    "lat": -32.9421678,
    "lng": 151.7112382,
    "place_id": "ChIJsUr0j4cVc2sR3Dc5EaPrUI4",
    "maps_url": "https://www.google.com/maps/place/?q=place_id:ChIJsUr0j4cVc2sR3Dc5EaPrUI4"
  },
  {
    "name": "Newcastle Indoor Sports",
    "address": "314 Hillsborough Rd, Warners Bay NSW 2282, Australia",
    "suburb": "Warners Bay NSW 2282",
    "state": "NSW",
    "rating": 4.2,
    "reviews": 80,
    "lat": -32.9663502,
    "lng": 151.6571681,
    "place_id": "ChIJla6tZKw9c2sRCKc3rXWjwy4",
    "maps_url": "https://www.google.com/maps/place/?q=place_id:ChIJla6tZKw9c2sRCKc3rXWjwy4"
  },
  {
    "name": "Novacade VR",
    "address": "Level 1, 451/459 Hunter St, Newcastle NSW 2300, Australia",
    "suburb": "451/459 Hunter St",
    "state": "NSW",
    "rating": 5,
    "reviews": 34,
    "lat": -32.927477,
    "lng": 151.7695819,
    "place_id": "ChIJsUM-AZYVc2sRSuttHr58pSw",
    "maps_url": "https://www.google.com/maps/place/?q=place_id:ChIJsUM-AZYVc2sRSuttHr58pSw"
  },
  {
    "name": "Inflatable World",
    "address": "314 Hillsborough Rd, Warners Bay NSW 2282, Australia",
    "suburb": "Warners Bay NSW 2282",
    "state": "NSW",
    "rating": 4,
    "reviews": 209,
    "lat": -32.9662824,
    "lng": 151.6572251,
    "place_id": "ChIJZxPHZKw9c2sRVSpAt89XfSo",
    "maps_url": "https://www.google.com/maps/place/?q=place_id:ChIJZxPHZKw9c2sRVSpAt89XfSo"
  },
  {
    "name": "Jump 360 Newcastle Trampoline Park",
    "address": "Bellway Industrial Estate Whitley Road Longbenton, Bellway Industrial Estate, Newcastle upon Tyne NE12 9SW, UK",
    "suburb": "Bellway Industrial Estate",
    "state": "NSW",
    "rating": 4.4,
    "reviews": 953,
    "lat": 55.017817,
    "lng": -1.5524067,
    "place_id": "ChIJN90I3JdxfkgRpEDsInj-V-s",
    "maps_url": "https://www.google.com/maps/place/?q=place_id:ChIJN90I3JdxfkgRpEDsInj-V-s"
  },
  {
    "name": "Chipmunks Playland & Café Belmont",
    "address": "1 High St, Belmont NSW 2280, Australia",
    "suburb": "Belmont NSW 2280",
    "state": "NSW",
    "rating": 4.5,
    "reviews": 167,
    "lat": -33.0372996,
    "lng": 151.6586768,
    "place_id": "ChIJBRfWNCMjc2sRCpCOCHiqJ5Q",
    "maps_url": "https://www.google.com/maps/place/?q=place_id:ChIJBRfWNCMjc2sRCpCOCHiqJ5Q"
  },
  {
    "name": "Jump Giants Newcastle (Trampoline Park & Softplay)",
    "address": "Forge Rd, Dunston, Gateshead NE8 2RB, UK",
    "suburb": "Dunston",
    "state": "NSW",
    "rating": 3.7,
    "reviews": 438,
    "lat": 54.9486618,
    "lng": -1.6351958,
    "place_id": "ChIJ6eQwxnp5fkgR_HAAjwEC0LA",
    "maps_url": "https://www.google.com/maps/place/?q=place_id:ChIJ6eQwxnp5fkgR_HAAjwEC0LA"
  },
  {
    "name": "Newcastle Trampoline Park, Soft Play and Gym",
    "address": "West Rd, Newcastle upon Tyne NE4 9LG, UK",
    "suburb": "Newcastle upon Tyne NE4 9LG",
    "state": "NSW",
    "rating": 4.4,
    "reviews": 611,
    "lat": 54.97711169999999,
    "lng": -1.6593238,
    "place_id": "ChIJLSJzLxJ3fkgRU-yCk50vWdA",
    "maps_url": "https://www.google.com/maps/place/?q=place_id:ChIJLSJzLxJ3fkgRU-yCk50vWdA"
  },
  {
    "name": "Flip Out Gosford",
    "address": "10 Hely St, West Gosford NSW 2250, Australia",
    "suburb": "West Gosford NSW 2250",
    "state": "NSW",
    "rating": 3.7,
    "reviews": 471,
    "lat": -33.4262747,
    "lng": 151.3292712,
    "place_id": "ChIJWWCiiarKcmsR6-mBjgM72ME",
    "maps_url": "https://www.google.com/maps/place/?q=place_id:ChIJWWCiiarKcmsR6-mBjgM72ME"
  },
  {
    "name": "Inflatable World Charmhaven",
    "address": "128 Chelmsford Rd, Charmhaven NSW 2263, Australia",
    "suburb": "Charmhaven NSW 2263",
    "state": "NSW",
    "rating": 4.2,
    "reviews": 281,
    "lat": -33.2387296,
    "lng": 151.4958503,
    "place_id": "ChIJo6IunL7QcmsR-O-jjgOb5W0",
    "maps_url": "https://www.google.com/maps/place/?q=place_id:ChIJo6IunL7QcmsR-O-jjgOb5W0"
  },
  {
    "name": "Eastlake Trampoline Sports",
    "address": "Belmont High School, 424 Pacific Hwy, Belmont NSW 2280, Australia",
    "suburb": "424 Pacific Hwy",
    "state": "NSW",
    "rating": 5,
    "reviews": 1,
    "lat": -33.0272665,
    "lng": 151.6596545,
    "place_id": "ChIJ7caHkP8jc2sRIyUfjDCF4nk",
    "maps_url": "https://www.google.com/maps/place/?q=place_id:ChIJ7caHkP8jc2sRIyUfjDCF4nk"
  },
  {
    "name": "Flip Out North Wollongong",
    "address": "1/20 Ralph Black Dr, North Wollongong NSW 2500, Australia",
    "suburb": "North Wollongong NSW 2500",
    "state": "NSW",
    "rating": 4.2,
    "reviews": 326,
    "lat": -34.4082652,
    "lng": 150.8931678,
    "place_id": "ChIJUwjcyhEZE2sRFHIGLeXTmR0",
    "maps_url": "https://www.google.com/maps/place/?q=place_id:ChIJUwjcyhEZE2sRFHIGLeXTmR0"
  },
  {
    "name": "Treetops Adventure Central Coast",
    "address": "Ourimbah, State Forest, 1 Red Hill Rd, Wyong Creek NSW 2259, Australia",
    "suburb": "State Forest",
    "state": "NSW",
    "rating": 4.6,
    "reviews": 1280,
    "lat": -33.2734896,
    "lng": 151.3770479,
    "place_id": "ChIJYduPF3_ScmsR7nxL23z6Xuc",
    "maps_url": "https://www.google.com/maps/place/?q=place_id:ChIJYduPF3_ScmsR7nxL23z6Xuc"
  },
  {
    "name": "Ninja Kids Erina",
    "address": "5 Bonnal Rd, Erina NSW 2250, Australia",
    "suburb": "Erina NSW 2250",
    "state": "NSW",
    "rating": 4.8,
    "reviews": 43,
    "lat": -33.434767,
    "lng": 151.3832755,
    "place_id": "ChIJG12HaqXLcmsRcbElo8Rc4iI",
    "maps_url": "https://www.google.com/maps/place/?q=place_id:ChIJG12HaqXLcmsRcbElo8Rc4iI"
  },
  {
    "name": "iPlay Tuggerah",
    "address": "Shop E08, Westfield Tuggerah, level 1/50 Wyong Rd, Tuggerah NSW 2259, Australia",
    "suburb": "Westfield Tuggerah",
    "state": "NSW",
    "rating": 3.7,
    "reviews": 56,
    "lat": -33.3077449,
    "lng": 151.4119118,
    "place_id": "ChIJT8PCfPDNcmsRidnAE_cdF8k",
    "maps_url": "https://www.google.com/maps/place/?q=place_id:ChIJT8PCfPDNcmsRidnAE_cdF8k"
  },
  {
    "name": "Bounce! Central Coast",
    "address": "3/144 Tuggerawong Rd, Wyongah NSW 2259, Australia",
    "suburb": "Wyongah NSW 2259",
    "state": "NSW",
    "rating": 5,
    "reviews": 6,
    "lat": -33.2754079,
    "lng": 151.4909115,
    "place_id": "ChIJq7noDgDRcmsR4radzxPFB7w",
    "maps_url": "https://www.google.com/maps/place/?q=place_id:ChIJq7noDgDRcmsR4radzxPFB7w"
  },
  {
    "name": "Amazement Farm & Fun Park",
    "address": "170 Yarramalong Rd, Wyong Creek NSW 2259, Australia",
    "suburb": "Wyong Creek NSW 2259",
    "state": "NSW",
    "rating": 4.2,
    "reviews": 992,
    "lat": -33.2721468,
    "lng": 151.3895691,
    "place_id": "ChIJnfX06nbScmsRt5yw2fsYk_A",
    "maps_url": "https://www.google.com/maps/place/?q=place_id:ChIJnfX06nbScmsRt5yw2fsYk_A"
  },
  {
    "name": "Slam Factory Indoor Skatepark & Shop",
    "address": "93 Gavenlock Rd, Tuggerah NSW 2259, Australia",
    "suburb": "Tuggerah NSW 2259",
    "state": "NSW",
    "rating": 4.6,
    "reviews": 215,
    "lat": -33.2966509,
    "lng": 151.4180586,
    "place_id": "ChIJFdyl6OLNcmsRGsw1f_L9t30",
    "maps_url": "https://www.google.com/maps/place/?q=place_id:ChIJFdyl6OLNcmsRGsw1f_L9t30"
  },
  {
    "name": "Clip 'N Climb Central Coast",
    "address": "Level 1 Central Coast Leagues Club, 1 Dane Dr, Gosford NSW 2250, Australia",
    "suburb": "1 Dane Dr",
    "state": "NSW",
    "rating": 4.5,
    "reviews": 350,
    "lat": -33.4278849,
    "lng": 151.3394005,
    "place_id": "ChIJ9VSUxqfKcmsR1exYBPHa52E",
    "maps_url": "https://www.google.com/maps/place/?q=place_id:ChIJ9VSUxqfKcmsR1exYBPHa52E"
  },
  {
    "name": "Monkey Mania Central Coast",
    "address": "2 Central Coast Leagues Club, 1 Dane Dr, Gosford NSW 2250, Australia",
    "suburb": "1 Dane Dr",
    "state": "NSW",
    "rating": 4.5,
    "reviews": 770,
    "lat": -33.4279683,
    "lng": 151.3399891,
    "place_id": "ChIJuzZbyKfKcmsRG2J_DMZZguw",
    "maps_url": "https://www.google.com/maps/place/?q=place_id:ChIJuzZbyKfKcmsRG2J_DMZZguw"
  },
  {
    "name": "Impact Kidsworld Play Centre",
    "address": "19 Chetwynd Rd, Erina NSW 2250, Australia",
    "suburb": "Erina NSW 2250",
    "state": "NSW",
    "rating": 4.2,
    "reviews": 32,
    "lat": -33.4336166,
    "lng": 151.3977203,
    "place_id": "ChIJ5Wn4sRLKcmsRO5iR_Aua3mM",
    "maps_url": "https://www.google.com/maps/place/?q=place_id:ChIJ5Wn4sRLKcmsRO5iR_Aua3mM"
  },
  {
    "name": "Laser Tag Central Coast",
    "address": "13 Brooks Ave, Wyoming NSW 2250, Australia",
    "suburb": "Wyoming NSW 2250",
    "state": "NSW",
    "rating": 4.6,
    "reviews": 210,
    "lat": -33.4016167,
    "lng": 151.3476529,
    "place_id": "ChIJv39TxcLKcmsRjLSRfnWTeSI",
    "maps_url": "https://www.google.com/maps/place/?q=place_id:ChIJv39TxcLKcmsRjLSRfnWTeSI"
  },
  {
    "name": "Gosford Waterfront Park",
    "address": "Gosford NSW 2250, Australia",
    "suburb": "Australia",
    "state": "NSW",
    "rating": 4.3,
    "reviews": 305,
    "lat": -33.430316,
    "lng": 151.3395784,
    "place_id": "ChIJO-4sb1S1cmsRX03fIghaQZ0",
    "maps_url": "https://www.google.com/maps/place/?q=place_id:ChIJO-4sb1S1cmsRX03fIghaQZ0"
  },
  {
    "name": "Flayme Kids",
    "address": "Unit 63/91-95 John Whiteway Dr, Gosford NSW 2250, Australia",
    "suburb": "Gosford NSW 2250",
    "state": "NSW",
    "rating": 5,
    "reviews": 2,
    "lat": -33.4313947,
    "lng": 151.3450018,
    "place_id": "ChIJF1_oN4K1cmsRROIRHR0_cYQ",
    "maps_url": "https://www.google.com/maps/place/?q=place_id:ChIJF1_oN4K1cmsRROIRHR0_cYQ"
  },
  {
    "name": "Jetpack Adventures - Central Coast",
    "address": "Mt Penang Gardens, Parklands Road, Kariong NSW 2250, Australia",
    "suburb": "Parklands Road",
    "state": "NSW",
    "rating": 4.3,
    "reviews": 59,
    "lat": -33.426701,
    "lng": 151.296198,
    "place_id": "ChIJGZKiSppKDWsRrTYGJ7T4m3s",
    "maps_url": "https://www.google.com/maps/place/?q=place_id:ChIJGZKiSppKDWsRrTYGJ7T4m3s"
  },
  {
    "name": "Flip Out Revesby Junior",
    "address": "Workers Club, Level 1/2B Brett St, Revesby NSW 2212, Australia",
    "suburb": "Level 1/2B Brett St",
    "state": "NSW",
    "rating": 3.8,
    "reviews": 265,
    "lat": -33.9533366,
    "lng": 151.0139501,
    "place_id": "ChIJpbJ5N92_EmsRPOtGvwioPbw",
    "maps_url": "https://www.google.com/maps/place/?q=place_id:ChIJpbJ5N92_EmsRPOtGvwioPbw"
  },
  {
    "name": "iPlay Liverpool",
    "address": "Shop 2024, Westfield Liverpool, Level/1 Macquarie St, Liverpool NSW 2170, Australia",
    "suburb": "Westfield Liverpool",
    "state": "NSW",
    "rating": 3.8,
    "reviews": 125,
    "lat": -33.91947469999999,
    "lng": 150.9239989,
    "place_id": "ChIJcQ_p72iVEmsRZXC-6NxU8Do",
    "maps_url": "https://www.google.com/maps/place/?q=place_id:ChIJcQ_p72iVEmsRZXC-6NxU8Do"
  },
  {
    "name": "Entertainment Park",
    "address": "361 Milperra Rd, Bankstown NSW 2200, Australia",
    "suburb": "Bankstown NSW 2200",
    "state": "NSW",
    "rating": 4.4,
    "reviews": 1391,
    "lat": -33.9284534,
    "lng": 150.9900332,
    "place_id": "ChIJ_e7au4y_EmsREr8vzq9p_uA",
    "maps_url": "https://www.google.com/maps/place/?q=place_id:ChIJ_e7au4y_EmsREr8vzq9p_uA"
  },
  {
    "name": "Jump Inc by AirHop Adventure & Trampoline Park Liverpool",
    "address": "Unit C, F, Hunts Cross Shopping Centre, Triumph Way, Speke Hall Rd, Hunt's Cross, Liverpool L24 9GB, UK",
    "suburb": "F",
    "state": "NSW",
    "rating": 4.8,
    "reviews": 473,
    "lat": 53.3577935,
    "lng": -2.8700485,
    "place_id": "ChIJ2R7FbSMfe0gRgWHdsYXxcRY",
    "maps_url": "https://www.google.com/maps/place/?q=place_id:ChIJ2R7FbSMfe0gRgWHdsYXxcRY"
  },
  {
    "name": "Flip Out Liverpool",
    "address": "Unit 6 (Lower Ground and Upper Ground Floors Clayton Square Shopping Centre, Liverpool L1 1QR, UK",
    "suburb": "Liverpool L1 1QR",
    "state": "NSW",
    "rating": 4.1,
    "reviews": 379,
    "lat": 53.4053796,
    "lng": -2.9817972,
    "place_id": "ChIJ004XMnYhe0gRhrIbAEQqyUo",
    "maps_url": "https://www.google.com/maps/place/?q=place_id:ChIJ004XMnYhe0gRhrIbAEQqyUo"
  },
  {
    "name": "Bounce House Inflatable Theme Park",
    "address": "1 & 2, Glacier Buildings Harrington Road Liverpool (sat nav L3 4ED, Liverpool L3 4BH, UK",
    "suburb": "Glacier Buildings Harrington Road Liverpool (sat nav L3 4ED",
    "state": "NSW",
    "rating": 4.4,
    "reviews": 779,
    "lat": 53.3794032,
    "lng": -2.9738765,
    "place_id": "ChIJN2lfNsEge0gRTD7wHNVpFyo",
    "maps_url": "https://www.google.com/maps/place/?q=place_id:ChIJN2lfNsEge0gRTD7wHNVpFyo"
  },
  {
    "name": "Air Unlimited",
    "address": "Unit 4, Compass East, Speke, Liverpool L24 1YH, UK",
    "suburb": "Compass East",
    "state": "NSW",
    "rating": 4.3,
    "reviews": 705,
    "lat": 53.3426281,
    "lng": -2.8607399,
    "place_id": "ChIJ7cVG2hbgekgR3VlgZlnViKs",
    "maps_url": "https://www.google.com/maps/place/?q=place_id:ChIJ7cVG2hbgekgR3VlgZlnViKs"
  },
  {
    "name": "Zone Bowling Liverpool",
    "address": "18 Cumberland Hwy, Liverpool NSW 2170, Australia",
    "suburb": "Liverpool NSW 2170",
    "state": "NSW",
    "rating": 4.5,
    "reviews": 1124,
    "lat": -33.9068717,
    "lng": 150.9208374,
    "place_id": "ChIJiWKz9M-VEmsRkeuTqBDarPU",
    "maps_url": "https://www.google.com/maps/place/?q=place_id:ChIJiWKz9M-VEmsRkeuTqBDarPU"
  },
  {
    "name": "Vitaland Kids Cafe Liverpool",
    "address": "Sydney Outlet Village, Shop T101A, Level 1/5 Viscount Pl, Liverpool NSW 2170, Australia",
    "suburb": "Shop T101A",
    "state": "NSW",
    "rating": 4.4,
    "reviews": 109,
    "lat": -33.9080005,
    "lng": 150.9233117,
    "place_id": "ChIJFxPuBkCVEmsRnJ16kJzAZxc",
    "maps_url": "https://www.google.com/maps/place/?q=place_id:ChIJFxPuBkCVEmsRnJ16kJzAZxc"
  },
  {
    "name": "The Trampoline Place",
    "address": "2/24 Anderson Rd, Smeaton Grange NSW 2567, Australia",
    "suburb": "Smeaton Grange NSW 2567",
    "state": "NSW",
    "rating": 3.7,
    "reviews": 7,
    "lat": -34.0328149,
    "lng": 150.756943,
    "place_id": "ChIJrwGJe9vxEmsRf8RX23OoXno",
    "maps_url": "https://www.google.com/maps/place/?q=place_id:ChIJrwGJe9vxEmsRf8RX23OoXno"
  },
  {
    "name": "Funhouse HQ",
    "address": "22 Anderson Rd, Smeaton Grange NSW 2567, Australia",
    "suburb": "Smeaton Grange NSW 2567",
    "state": "NSW",
    "rating": 3.6,
    "reviews": 37,
    "lat": -34.0337679,
    "lng": 150.758736,
    "place_id": "ChIJkV85gVvxEmsRC_TbSzBWdKo",
    "maps_url": "https://www.google.com/maps/place/?q=place_id:ChIJkV85gVvxEmsRC_TbSzBWdKo"
  },
  {
    "name": "Chipmunks Playland & Café Campbelltown",
    "address": "1/185-187 Airds Rd, Leumeah NSW 2560, Australia",
    "suburb": "Leumeah NSW 2560",
    "state": "NSW",
    "rating": 4.7,
    "reviews": 68,
    "lat": -34.0487306,
    "lng": 150.8291789,
    "place_id": "ChIJjyX_QOnvEmsRcDrt6pLSOOo",
    "maps_url": "https://www.google.com/maps/place/?q=place_id:ChIJjyX_QOnvEmsRcDrt6pLSOOo"
  },
  {
    "name": "Shine Shed West Campbelltown",
    "address": "5 Mount Erin Rd, Campbelltown NSW 2560, Australia",
    "suburb": "Campbelltown NSW 2560",
    "state": "NSW",
    "rating": 4.7,
    "reviews": 135,
    "lat": -34.0588834,
    "lng": 150.8045665,
    "place_id": "ChIJ9xQ3dl3vEmsR63XWXDx2IE4",
    "maps_url": "https://www.google.com/maps/place/?q=place_id:ChIJ9xQ3dl3vEmsR63XWXDx2IE4"
  },
  {
    "name": "Crocs Playcentre Campbelltown",
    "address": "1 Tindall St, Campbelltown NSW 2560, Australia",
    "suburb": "Campbelltown NSW 2560",
    "state": "NSW",
    "rating": 4.5,
    "reviews": 305,
    "lat": -34.0723457,
    "lng": 150.8028259,
    "place_id": "ChIJkd9I1c3vEmsR1LPZYo-I1FU",
    "maps_url": "https://www.google.com/maps/place/?q=place_id:ChIJkd9I1c3vEmsR1LPZYo-I1FU"
  },
  {
    "name": "Twinkle Kids Cafe",
    "address": "Macarthur Square, Shop C030B/200 Gilchrist Dr, Campbelltown NSW 2560, Australia",
    "suburb": "Shop C030B/200 Gilchrist Dr",
    "state": "NSW",
    "rating": 3.9,
    "reviews": 147,
    "lat": -34.0732313,
    "lng": 150.796874,
    "place_id": "ChIJXYsdDwDvEmsR7IN99DC-OFI",
    "maps_url": "https://www.google.com/maps/place/?q=place_id:ChIJXYsdDwDvEmsR7IN99DC-OFI"
  },
  {
    "name": "Flip Out Mittagong",
    "address": "6B Pikkat Dr, Braemar NSW 2575, Australia",
    "suburb": "Braemar NSW 2575",
    "state": "NSW",
    "rating": 4.7,
    "reviews": 77,
    "lat": -34.4267195,
    "lng": 150.4908826,
    "place_id": "ChIJB-LXFianE2sRRHZfG7fhvn4",
    "maps_url": "https://www.google.com/maps/place/?q=place_id:ChIJB-LXFianE2sRRHZfG7fhvn4"
  },
  {
    "name": "Inflatable World Narellan",
    "address": "Unit 1 /79/83 Anderson Rd, Smeaton Grange NSW 2567, Australia",
    "suburb": "Smeaton Grange NSW 2567",
    "state": "NSW",
    "rating": 4.4,
    "reviews": 142,
    "lat": -34.034512,
    "lng": 150.7616066,
    "place_id": "ChIJSXbQiuPxEmsRdk7k2IqnOl4",
    "maps_url": "https://www.google.com/maps/place/?q=place_id:ChIJSXbQiuPxEmsRdk7k2IqnOl4"
  },
  {
    "name": "Inflatable World Peakhurst",
    "address": "1/707 Forest Rd, Peakhurst NSW 2210, Australia",
    "suburb": "Peakhurst NSW 2210",
    "state": "NSW",
    "rating": 4,
    "reviews": 254,
    "lat": -33.9601399,
    "lng": 151.062096,
    "place_id": "ChIJqZZAyTu5EmsRITCoAEU8g2E",
    "maps_url": "https://www.google.com/maps/place/?q=place_id:ChIJqZZAyTu5EmsRITCoAEU8g2E"
  },
  {
    "name": "Square Up Sydney",
    "address": "Shop 17/173 Canterbury Rd, Bankstown NSW 2200, Australia",
    "suburb": "Bankstown NSW 2200",
    "state": "NSW",
    "rating": 4.7,
    "reviews": 29,
    "lat": -33.9336633,
    "lng": 151.0291459,
    "place_id": "ChIJMwVQJbq_EmsROZVMDKZAb70",
    "maps_url": "https://www.google.com/maps/place/?q=place_id:ChIJMwVQJbq_EmsROZVMDKZAb70"
  },
  {
    "name": "Monkey Mania Bankstown",
    "address": "8 Greenfield Parade, Bankstown NSW 2200, Australia",
    "suburb": "Bankstown NSW 2200",
    "state": "NSW",
    "rating": 4.1,
    "reviews": 952,
    "lat": -33.9204377,
    "lng": 151.0339851,
    "place_id": "ChIJ457yDBu8EmsR5mqJmg3-buE",
    "maps_url": "https://www.google.com/maps/place/?q=place_id:ChIJ457yDBu8EmsR5mqJmg3-buE"
  },
  {
    "name": "Kids World Adventure Playland & Cafe - Bankstown",
    "address": "Unit 3/1618 Canterbury Rd, Punchbowl NSW 2196, Australia",
    "suburb": "Punchbowl NSW 2196",
    "state": "NSW",
    "rating": 3.6,
    "reviews": 430,
    "lat": -33.9345588,
    "lng": 151.0396728,
    "place_id": "ChIJUSc-12-_EmsRi6AcM0OZU38",
    "maps_url": "https://www.google.com/maps/place/?q=place_id:ChIJUSc-12-_EmsRi6AcM0OZU38"
  },
  {
    "name": "Cuto Kids Cafe Bankstown",
    "address": "Central, Shop MM006/Level 3 North Terrace, Bankstown NSW 2200, Australia",
    "suburb": "Shop MM006/Level 3 North Terrace",
    "state": "NSW",
    "rating": 3.5,
    "reviews": 83,
    "lat": -33.9164314,
    "lng": 151.0397474,
    "place_id": "ChIJR9C8pNm9EmsRyt19d3Cr-HY",
    "maps_url": "https://www.google.com/maps/place/?q=place_id:ChIJR9C8pNm9EmsRyt19d3Cr-HY"
  },
  {
    "name": "Turbo Climb",
    "address": "8 Greenfield Parade, Bankstown NSW 2200, Australia",
    "suburb": "Bankstown NSW 2200",
    "state": "NSW",
    "rating": 4.2,
    "reviews": 75,
    "lat": -33.9205307,
    "lng": 151.0345298,
    "place_id": "ChIJsV9PbBu8EmsRvnlDQSEdQjg",
    "maps_url": "https://www.google.com/maps/place/?q=place_id:ChIJsV9PbBu8EmsRvnlDQSEdQjg"
  },
  {
    "name": "Planet Mino Kids Club",
    "address": "10 Smith St, Chatswood NSW 2067, Australia",
    "suburb": "Chatswood NSW 2067",
    "state": "NSW",
    "rating": 4,
    "reviews": 817,
    "lat": -33.7869359,
    "lng": 151.1980571,
    "place_id": "ChIJ1S5UM86pEmsRdU-a8oipfbs",
    "maps_url": "https://www.google.com/maps/place/?q=place_id:ChIJ1S5UM86pEmsRdU-a8oipfbs"
  },
  {
    "name": "Flip Out Frenchs Forest",
    "address": "Unit 7/25 Frenchs Forest Rd E, Frenchs Forest NSW 2086, Australia",
    "suburb": "Frenchs Forest NSW 2086",
    "state": "NSW",
    "rating": 3.9,
    "reviews": 49,
    "lat": -33.7517083,
    "lng": 151.242916,
    "place_id": "ChIJOwVuAsSrEmsROn0zPO8eurQ",
    "maps_url": "https://www.google.com/maps/place/?q=place_id:ChIJOwVuAsSrEmsROn0zPO8eurQ"
  },
  {
    "name": "Timezone Chatswood",
    "address": "1 Anderson St, Westfield, Shop 605, Level 6 Victoria Ave, Chatswood NSW 2067, Australia",
    "suburb": "Westfield",
    "state": "NSW",
    "rating": 4.7,
    "reviews": 2337,
    "lat": -33.7965025,
    "lng": 151.182949,
    "place_id": "ChIJb1PVN9SoEmsRX-e0Oni3tKM",
    "maps_url": "https://www.google.com/maps/place/?q=place_id:ChIJb1PVN9SoEmsRX-e0Oni3tKM"
  },
  {
    "name": "Westfield Urban Escape Playground",
    "address": "1 Anderson St, Chatswood NSW 2067, Australia",
    "suburb": "Chatswood NSW 2067",
    "state": "NSW",
    "rating": 4.5,
    "reviews": 4,
    "lat": -33.7972424,
    "lng": 151.1842507,
    "place_id": "ChIJmQ_U3LupEmsRm3GqjfyJONQ",
    "maps_url": "https://www.google.com/maps/place/?q=place_id:ChIJmQ_U3LupEmsRm3GqjfyJONQ"
  },
  {
    "name": "Funtastic Kids",
    "address": "4 Brennan Cl, Asquith NSW 2077, Australia",
    "suburb": "Asquith NSW 2077",
    "state": "NSW",
    "rating": 4.5,
    "reviews": 175,
    "lat": -33.6962349,
    "lng": 151.1107158,
    "place_id": "ChIJn1fbcndZDWsRqz1JNaoW9p8",
    "maps_url": "https://www.google.com/maps/place/?q=place_id:ChIJn1fbcndZDWsRqz1JNaoW9p8"
  },
  {
    "name": "The Canopy Playground",
    "address": "Rosenthal Ave, Lane Cove NSW 2066, Australia",
    "suburb": "Lane Cove NSW 2066",
    "state": "NSW",
    "rating": 4.7,
    "reviews": 71,
    "lat": -33.8135428,
    "lng": 151.1689611,
    "place_id": "ChIJU_H-CKqvEmsRrnVuB8A-iUE",
    "maps_url": "https://www.google.com/maps/place/?q=place_id:ChIJU_H-CKqvEmsRrnVuB8A-iUE"
  },
  {
    "name": "Ninja Kids - Hornsby",
    "address": "1/4 Leighton Pl, Hornsby NSW 2077, Australia",
    "suburb": "Hornsby NSW 2077",
    "state": "NSW",
    "rating": 4.8,
    "reviews": 103,
    "lat": -33.6975109,
    "lng": 151.1118761,
    "place_id": "ChIJO65WIRBZDWsRgWPMYaC7JLA",
    "maps_url": "https://www.google.com/maps/place/?q=place_id:ChIJO65WIRBZDWsRgWPMYaC7JLA"
  },
  {
    "name": "KOKO Amusement Hornsby",
    "address": "Level 4 Shop 4000-1/236 Pacific Hwy, Hornsby NSW 2077, Australia",
    "suburb": "Hornsby NSW 2077",
    "state": "NSW",
    "rating": 4.9,
    "reviews": 304,
    "lat": -33.7043415,
    "lng": 151.1006823,
    "place_id": "ChIJN7CqvUunEmsRJSovXBhf6mI",
    "maps_url": "https://www.google.com/maps/place/?q=place_id:ChIJN7CqvUunEmsRJSovXBhf6mI"
  },
  {
    "name": "Moving Bodies Centre",
    "address": "10/2 Marina Cl, Mount Kuring-gai NSW 2080, Australia",
    "suburb": "Mount Kuring-gai NSW 2080",
    "state": "NSW",
    "rating": 4.7,
    "reviews": 204,
    "lat": -33.6420591,
    "lng": 151.1346305,
    "place_id": "ChIJy7SMK-FZDWsR7zFgRS1O3Ck",
    "maps_url": "https://www.google.com/maps/place/?q=place_id:ChIJy7SMK-FZDWsR7zFgRS1O3Ck"
  },
  {
    "name": "Storey Park Playground",
    "address": "12 Old Berowra Rd, Hornsby NSW 2077, Australia",
    "suburb": "Hornsby NSW 2077",
    "state": "NSW",
    "rating": 4.8,
    "reviews": 106,
    "lat": -33.689508,
    "lng": 151.1005551,
    "place_id": "ChIJq0ltEPdZDWsR49jpSni1iR8",
    "maps_url": "https://www.google.com/maps/place/?q=place_id:ChIJq0ltEPdZDWsR49jpSni1iR8"
  },
  {
    "name": "Skinner's Reserve",
    "address": "2095/101 Stuart St, Manly NSW 2095, Australia",
    "suburb": "Manly NSW 2095",
    "state": "NSW",
    "rating": 3.9,
    "reviews": 10,
    "lat": -33.8079672,
    "lng": 151.2890168,
    "place_id": "ChIJ2S2S2HKrEmsRiCpefbqJWzs",
    "maps_url": "https://www.google.com/maps/place/?q=place_id:ChIJ2S2S2HKrEmsRiCpefbqJWzs"
  },
  {
    "name": "Planet Mino Warringah Mall",
    "address": "Shop 272/145 Old Pittwater Rd, Brookvale NSW 2100, Australia",
    "suburb": "Brookvale NSW 2100",
    "state": "NSW",
    "rating": 3.8,
    "reviews": 143,
    "lat": -33.7675167,
    "lng": 151.2659218,
    "place_id": "ChIJ3-6KuSKrEmsR3Y8_H4mmHZc",
    "maps_url": "https://www.google.com/maps/place/?q=place_id:ChIJ3-6KuSKrEmsR3Y8_H4mmHZc"
  },
  {
    "name": "SaltoFit Trampoline Fitness",
    "address": "8 Gipps St, Concord NSW 2137, Australia",
    "suburb": "Concord NSW 2137",
    "state": "NSW",
    "rating": 5,
    "reviews": 89,
    "lat": -33.8671777,
    "lng": 151.1081739,
    "place_id": "ChIJVdGwx327EmsRyBc6I8n47wQ",
    "maps_url": "https://www.google.com/maps/place/?q=place_id:ChIJVdGwx327EmsRyBc6I8n47wQ"
  },
  {
    "name": "Manly Lagoon Outdoor Gym",
    "address": "351B Pittwater Rd, North Manly NSW 2100, Australia",
    "suburb": "North Manly NSW 2100",
    "state": "NSW",
    "rating": 4.3,
    "reviews": 10,
    "lat": -33.784861,
    "lng": 151.281587,
    "place_id": "ChIJyTGXHwCrEmsRGQldbcwgNKg",
    "maps_url": "https://www.google.com/maps/place/?q=place_id:ChIJyTGXHwCrEmsRGQldbcwgNKg"
  },
  {
    "name": "Little Manly Point Park",
    "address": "Stuart St, Manly NSW 2095, Australia",
    "suburb": "Manly NSW 2095",
    "state": "NSW",
    "rating": 4.6,
    "reviews": 527,
    "lat": -33.8087734,
    "lng": 151.2873475,
    "place_id": "ChIJLTOxdnOrEmsRjB6_y-F_Gn8",
    "maps_url": "https://www.google.com/maps/place/?q=place_id:ChIJLTOxdnOrEmsRjB6_y-F_Gn8"
  },
  {
    "name": "Manly Beach",
    "address": "N Steyne, Manly NSW 2095, Australia",
    "suburb": "Manly NSW 2095",
    "state": "NSW",
    "rating": 4.7,
    "reviews": 6599,
    "lat": -33.79645980000001,
    "lng": 151.2883992,
    "place_id": "ChIJQyYU8QOrEmsRFno4dKGQTYo",
    "maps_url": "https://www.google.com/maps/place/?q=place_id:ChIJQyYU8QOrEmsRFno4dKGQTYo"
  },
  {
    "name": "Gilbert Park",
    "address": "3 West Promenade, Manly NSW 2095, Australia",
    "suburb": "Manly NSW 2095",
    "state": "NSW",
    "rating": 4.1,
    "reviews": 194,
    "lat": -33.7976136,
    "lng": 151.2845472,
    "place_id": "ChIJu6r64AirEmsRPma4XXLR_Eo",
    "maps_url": "https://www.google.com/maps/place/?q=place_id:ChIJu6r64AirEmsRPma4XXLR_Eo"
  },
  {
    "name": "JumpX",
    "address": "204 Bondi Rd, Bondi NSW 2026, Australia",
    "suburb": "Bondi NSW 2026",
    "state": "NSW",
    "rating": 5,
    "reviews": 4,
    "lat": -33.893295,
    "lng": 151.263303,
    "place_id": "ChIJ0-UvMrKtEmsRZy_5ED8_IAc",
    "maps_url": "https://www.google.com/maps/place/?q=place_id:ChIJ0-UvMrKtEmsRZy_5ED8_IAc"
  },
  {
    "name": "Active8kids (Gymnastics, Ninja warrior and Parkour)",
    "address": "70 Bronte Rd, Bondi Junction NSW 2022, Australia",
    "suburb": "Bondi Junction NSW 2022",
    "state": "NSW",
    "rating": 4,
    "reviews": 8,
    "lat": -33.8946316,
    "lng": 151.2504798,
    "place_id": "ChIJu-p-rfatEmsR7sG0zHKYCdI",
    "maps_url": "https://www.google.com/maps/place/?q=place_id:ChIJu-p-rfatEmsR7sG0zHKYCdI"
  },
  {
    "name": "Dickson Park",
    "address": "79 Edward St, Bondi Beach NSW 2026, Australia",
    "suburb": "Bondi Beach NSW 2026",
    "state": "NSW",
    "rating": 4.3,
    "reviews": 44,
    "lat": -33.8907789,
    "lng": 151.2640693,
    "place_id": "ChIJq5ewCpGtEmsRagCKgOqT8IE",
    "maps_url": "https://www.google.com/maps/place/?q=place_id:ChIJq5ewCpGtEmsRagCKgOqT8IE"
  },
  {
    "name": "Bondi Pavilion",
    "address": "Queen Elizabeth Dr, Bondi Beach NSW 2026, Australia",
    "suburb": "Bondi Beach NSW 2026",
    "state": "NSW",
    "rating": 4.5,
    "reviews": 4696,
    "lat": -33.8900918,
    "lng": 151.2770796,
    "place_id": "ChIJDcgjiJ6tEmsR0M9ai0-UY-E",
    "maps_url": "https://www.google.com/maps/place/?q=place_id:ChIJDcgjiJ6tEmsR0M9ai0-UY-E"
  },
  {
    "name": "Marky Mark & The Jumping Beings",
    "address": "7 Waratah St, Rushcutters Bay NSW 2011, Australia",
    "suburb": "Rushcutters Bay NSW 2011",
    "state": "NSW",
    "rating": 5,
    "reviews": 2,
    "lat": -33.8743313,
    "lng": 151.2282148,
    "place_id": "ChIJQw5NWguuEmsR8AVtZZIsmGI",
    "maps_url": "https://www.google.com/maps/place/?q=place_id:ChIJQw5NWguuEmsR8AVtZZIsmGI"
  },
  {
    "name": "Flip Out Majura",
    "address": "Unit 1, 5/17 Mustang Ave, Majura ACT 2602, Australia",
    "suburb": "5/17 Mustang Ave",
    "state": "NSW",
    "rating": 4.1,
    "reviews": 438,
    "lat": -35.2947598,
    "lng": 149.1905369,
    "place_id": "ChIJDweldT9NFmsRkUScnDSeKr0",
    "maps_url": "https://www.google.com/maps/place/?q=place_id:ChIJDweldT9NFmsRkUScnDSeKr0"
  },
  {
    "name": "Bronte Park",
    "address": "Bronte Rd, Bronte NSW 2024, Australia",
    "suburb": "Bronte NSW 2024",
    "state": "NSW",
    "rating": 4.7,
    "reviews": 2565,
    "lat": -33.9027778,
    "lng": 151.2663889,
    "place_id": "ChIJQ9zQJ4itEmsRUBXy-Wh9AQ8",
    "maps_url": "https://www.google.com/maps/place/?q=place_id:ChIJQ9zQJ4itEmsRUBXy-Wh9AQ8"
  },
  {
    "name": "One Playground Newtown",
    "address": "Level 1/672 King St, Newtown NSW 2043, Australia",
    "suburb": "Newtown NSW 2043",
    "state": "NSW",
    "rating": 4.6,
    "reviews": 745,
    "lat": -33.9064377,
    "lng": 151.1814043,
    "place_id": "ChIJB76R3UuwEmsREB8AvlWDuTM",
    "maps_url": "https://www.google.com/maps/place/?q=place_id:ChIJB76R3UuwEmsREB8AvlWDuTM"
  },
  {
    "name": "The Cipher Room - Newtown",
    "address": "640 King St, Newtown NSW 2042, Australia",
    "suburb": "Newtown NSW 2042",
    "state": "NSW",
    "rating": 4.9,
    "reviews": 1046,
    "lat": -33.905384,
    "lng": 151.181112,
    "place_id": "ChIJQcH41UuwEmsROkpj3NGJTRU",
    "maps_url": "https://www.google.com/maps/place/?q=place_id:ChIJQcH41UuwEmsROkpj3NGJTRU"
  },
  {
    "name": "BOUNCE Inc Wodonga",
    "address": "5/2 Romet Rd, West Wodonga VIC 3690, Australia",
    "suburb": "West Wodonga VIC 3690",
    "state": "NSW",
    "rating": 4.6,
    "reviews": 813,
    "lat": -36.111043,
    "lng": 146.8593461,
    "place_id": "ChIJf138nxZZIWsRukPkVgvC5C0",
    "maps_url": "https://www.google.com/maps/place/?q=place_id:ChIJf138nxZZIWsRukPkVgvC5C0"
  },
  {
    "name": "Risky Kids Albury",
    "address": "860 Knight Rd, North Albury NSW 2640, Australia",
    "suburb": "North Albury NSW 2640",
    "state": "NSW",
    "rating": 4.9,
    "reviews": 39,
    "lat": -36.0657783,
    "lng": 146.9431285,
    "place_id": "ChIJUdTQ_jDhI2sR4TW3Vyatshc",
    "maps_url": "https://www.google.com/maps/place/?q=place_id:ChIJUdTQ_jDhI2sR4TW3Vyatshc"
  },
  {
    "name": "Worlds Beyond",
    "address": "316 Urana Rd, Lavington NSW 2641, Australia",
    "suburb": "Lavington NSW 2641",
    "state": "NSW",
    "rating": 4.9,
    "reviews": 47,
    "lat": -36.05146149999999,
    "lng": 146.9332764,
    "place_id": "ChIJ4ZNl6pHhI2sRLwU55FTjWek",
    "maps_url": "https://www.google.com/maps/place/?q=place_id:ChIJ4ZNl6pHhI2sRLwU55FTjWek"
  },
  {
    "name": "Intencity",
    "address": "450 Dean St, Albury NSW 2640, Australia",
    "suburb": "Albury NSW 2640",
    "state": "NSW",
    "rating": 3.3,
    "reviews": 138,
    "lat": -36.0812606,
    "lng": 146.9216304,
    "place_id": "ChIJ-3U17dmzsGoRNe5qhmfo0d4",
    "maps_url": "https://www.google.com/maps/place/?q=place_id:ChIJ-3U17dmzsGoRNe5qhmfo0d4"
  },
  {
    "name": "Rumble Tumbles Indoor Play Centre & Cafe",
    "address": "1/919 Calimo St, North Albury NSW 2640, Australia",
    "suburb": "North Albury NSW 2640",
    "state": "NSW",
    "rating": 4.3,
    "reviews": 147,
    "lat": -36.0626038,
    "lng": 146.9401351,
    "place_id": "ChIJ4R1kpDngI2sR79GfWVHHQls",
    "maps_url": "https://www.google.com/maps/place/?q=place_id:ChIJ4R1kpDngI2sR79GfWVHHQls"
  },
  {
    "name": "Pods Of Play",
    "address": "465-469 Dean St, Albury NSW 2640, Australia",
    "suburb": "Albury NSW 2640",
    "state": "NSW",
    "rating": 4.5,
    "reviews": 2,
    "lat": -36.0813359,
    "lng": 146.9202685,
    "place_id": "ChIJcQAJYwhfIWsRLBxw-9_m0nM",
    "maps_url": "https://www.google.com/maps/place/?q=place_id:ChIJcQAJYwhfIWsRLBxw-9_m0nM"
  },
  {
    "name": "Flyaway Gymnastics Albury",
    "address": "1/1014 Nowra St, North Albury NSW 2640, Australia",
    "suburb": "North Albury NSW 2640",
    "state": "NSW",
    "rating": 3.9,
    "reviews": 16,
    "lat": -36.0595162,
    "lng": 146.9462907,
    "place_id": "ChIJsURuzUXgI2sRXMfEIf9m5oQ",
    "maps_url": "https://www.google.com/maps/place/?q=place_id:ChIJsURuzUXgI2sRXMfEIf9m5oQ"
  },
  {
    "name": "Inflatable Funhouse",
    "address": "6/2 Romet Rd, West Wodonga VIC 3690, Australia",
    "suburb": "West Wodonga VIC 3690",
    "state": "NSW",
    "rating": 4.4,
    "reviews": 146,
    "lat": -36.1107711,
    "lng": 146.8600616,
    "place_id": "ChIJz2EmmRZZIWsRuXRjyNfK8lo",
    "maps_url": "https://www.google.com/maps/place/?q=place_id:ChIJz2EmmRZZIWsRuXRjyNfK8lo"
  },
  {
    "name": "Oddies Creek Park",
    "address": "Wodonga Pl, South Albury NSW 2640, Australia",
    "suburb": "South Albury NSW 2640",
    "state": "NSW",
    "rating": 4.7,
    "reviews": 757,
    "lat": -36.0894221,
    "lng": 146.907258,
    "place_id": "ChIJq_g-X0RfIWsR8F3-c7UJBg8",
    "maps_url": "https://www.google.com/maps/place/?q=place_id:ChIJq_g-X0RfIWsR8F3-c7UJBg8"
  },
  {
    "name": "Rise Climbing Albury",
    "address": "3/39 Bennu Cct, Thurgoona NSW 2640, Australia",
    "suburb": "Thurgoona NSW 2640",
    "state": "NSW",
    "rating": 5,
    "reviews": 13,
    "lat": -36.0714371,
    "lng": 146.9657322,
    "place_id": "ChIJL696RDbhI2sRuEylf2V4WMY",
    "maps_url": "https://www.google.com/maps/place/?q=place_id:ChIJL696RDbhI2sRuEylf2V4WMY"
  },
  {
    "name": "Flip Out Wagga Wagga",
    "address": "73 Copland St, Wagga Wagga NSW 2650, Australia",
    "suburb": "Wagga Wagga NSW 2650",
    "state": "NSW",
    "rating": 4.2,
    "reviews": 221,
    "lat": -35.1255162,
    "lng": 147.3848398,
    "place_id": "ChIJaWrF1qubGGsRSBBLFkID4GI",
    "maps_url": "https://www.google.com/maps/place/?q=place_id:ChIJaWrF1qubGGsRSBBLFkID4GI"
  },
  {
    "name": "Flying Fruit Fly Circus",
    "address": "605 Hovell St, South Albury NSW 2640, Australia",
    "suburb": "South Albury NSW 2640",
    "state": "NSW",
    "rating": 4.9,
    "reviews": 71,
    "lat": -36.0866959,
    "lng": 146.9103956,
    "place_id": "ChIJmcKQLl1fIWsRmfp2Ty9hP2k",
    "maps_url": "https://www.google.com/maps/place/?q=place_id:ChIJmcKQLl1fIWsRmfp2Ty9hP2k"
  },
  {
    "name": "Hovell Tree Park",
    "address": "South Albury NSW 2640, Australia",
    "suburb": "Australia",
    "state": "NSW",
    "rating": 4.4,
    "reviews": 366,
    "lat": -36.0848961,
    "lng": 146.9087912,
    "place_id": "ChIJqb7clEJfIWsRoF3-c7UJBg8",
    "maps_url": "https://www.google.com/maps/place/?q=place_id:ChIJqb7clEJfIWsRoF3-c7UJBg8"
  },
  {
    "name": "Albury Skating Centre",
    "address": "200 North St, Albury NSW 2640, Australia",
    "suburb": "Albury NSW 2640",
    "state": "NSW",
    "rating": 4.7,
    "reviews": 142,
    "lat": -36.069391,
    "lng": 146.9397806,
    "place_id": "ChIJx3cyGGThI2sRnPS5bwIhDTk",
    "maps_url": "https://www.google.com/maps/place/?q=place_id:ChIJx3cyGGThI2sRnPS5bwIhDTk"
  },
  {
    "name": "Noreuil Park Foreshore",
    "address": "Noreuil Parade, South Albury NSW 2640, Australia",
    "suburb": "South Albury NSW 2640",
    "state": "NSW",
    "rating": 4.7,
    "reviews": 586,
    "lat": -36.0869336,
    "lng": 146.9039375,
    "place_id": "ChIJmYhw_UNfIWsRWdEjxaCFwCo",
    "maps_url": "https://www.google.com/maps/place/?q=place_id:ChIJmYhw_UNfIWsRWdEjxaCFwCo"
  },
  {
    "name": "Lauren Jackson Sports Centre",
    "address": "229 North St, East Albury NSW 2640, Australia",
    "suburb": "East Albury NSW 2640",
    "state": "NSW",
    "rating": 4.2,
    "reviews": 214,
    "lat": -36.0702308,
    "lng": 146.9386121,
    "place_id": "ChIJ3eTBbDTgI2sRxnYbSsRl104",
    "maps_url": "https://www.google.com/maps/place/?q=place_id:ChIJ3eTBbDTgI2sRxnYbSsRl104"
  },
  {
    "name": "Brooklyn Fields Playground",
    "address": "Hume and Hovell Walking Track, Table Top NSW 2640, Australia",
    "suburb": "Table Top NSW 2640",
    "state": "NSW",
    "rating": 4.8,
    "reviews": 10,
    "lat": -36.036283,
    "lng": 147.0009779,
    "place_id": "ChIJvTk1IBXfI2sRYYGAIDoxDFI",
    "maps_url": "https://www.google.com/maps/place/?q=place_id:ChIJvTk1IBXfI2sRYYGAIDoxDFI"
  },
  {
    "name": "Inflatable World Tamworth",
    "address": "7/11 Anne St, South Tamworth NSW 2340, Australia",
    "suburb": "South Tamworth NSW 2340",
    "state": "NSW",
    "rating": 4.6,
    "reviews": 85,
    "lat": -31.1047886,
    "lng": 150.9219125,
    "place_id": "ChIJ-YGdi2aZCmsRcL_rUd4nfaQ",
    "maps_url": "https://www.google.com/maps/place/?q=place_id:ChIJ-YGdi2aZCmsRcL_rUd4nfaQ"
  },
  {
    "name": "Kids Zone",
    "address": "2 O'Connell St, Tamworth NSW 2340, Australia",
    "suburb": "Tamworth NSW 2340",
    "state": "NSW",
    "rating": 4.4,
    "reviews": 125,
    "lat": -31.0828843,
    "lng": 150.9239152,
    "place_id": "ChIJu5zKRTOfCmsRjTodneiZhYE",
    "maps_url": "https://www.google.com/maps/place/?q=place_id:ChIJu5zKRTOfCmsRjTodneiZhYE"
  },
  {
    "name": "Tamworth Indoor Sports Centre",
    "address": "7/11 Anne St, South Tamworth NSW 2340, Australia",
    "suburb": "South Tamworth NSW 2340",
    "state": "NSW",
    "rating": 5,
    "reviews": 6,
    "lat": -31.1048035,
    "lng": 150.9217714,
    "place_id": "ChIJpYuVVeeYCmsRNuk3k-mjsCU",
    "maps_url": "https://www.google.com/maps/place/?q=place_id:ChIJpYuVVeeYCmsRNuk3k-mjsCU"
  },
  {
    "name": "Jump Xtreme Trampoline Park & That Fun Place Tamworth",
    "address": "Tame Valley Business Centre, Park Brent, Wilnecote, Tamworth B77 5DF, UK",
    "suburb": "Park Brent",
    "state": "NSW",
    "rating": 4.3,
    "reviews": 964,
    "lat": 52.608818,
    "lng": -1.6758358,
    "place_id": "ChIJAVUq1fmrcEgRfTS3pwsW8oE",
    "maps_url": "https://www.google.com/maps/place/?q=place_id:ChIJAVUq1fmrcEgRfTS3pwsW8oE"
  },
  {
    "name": "Tamworth Tenpins and More",
    "address": "374 Peel St, Tamworth NSW 2340, Australia",
    "suburb": "Tamworth NSW 2340",
    "state": "NSW",
    "rating": 4.3,
    "reviews": 84,
    "lat": -31.0900932,
    "lng": 150.9304748,
    "place_id": "ChIJpc-3FnCZCmsR6QzuODZNo0A",
    "maps_url": "https://www.google.com/maps/place/?q=place_id:ChIJpc-3FnCZCmsR6QzuODZNo0A"
  },
  {
    "name": "Viaduct Park",
    "address": "Peel St, Tamworth NSW 2340, Australia",
    "suburb": "Tamworth NSW 2340",
    "state": "NSW",
    "rating": 4.5,
    "reviews": 163,
    "lat": -31.0836596,
    "lng": 150.924351,
    "place_id": "ChIJbzOftMyYCmsR4vOkEyZSNX4",
    "maps_url": "https://www.google.com/maps/place/?q=place_id:ChIJbzOftMyYCmsR4vOkEyZSNX4"
  },
  {
    "name": "Tamworth Regional Playground",
    "address": "89 Kable Ave, Tamworth NSW 2340, Australia",
    "suburb": "Tamworth NSW 2340",
    "state": "NSW",
    "rating": 4.7,
    "reviews": 870,
    "lat": -31.095521,
    "lng": 150.9320008,
    "place_id": "ChIJR3V-8reYCmsRaER1q3fRFb8",
    "maps_url": "https://www.google.com/maps/place/?q=place_id:ChIJR3V-8reYCmsRaER1q3fRFb8"
  },
  {
    "name": "Orange Adventure Playground",
    "address": "Yellow Box Way, Bletchington NSW 2800, Australia",
    "suburb": "Bletchington NSW 2800",
    "state": "NSW",
    "rating": 4.5,
    "reviews": 395,
    "lat": -33.2545412,
    "lng": 149.0969402,
    "place_id": "ChIJE7fyBK8sEGsRMwQGaX4o274",
    "maps_url": "https://www.google.com/maps/place/?q=place_id:ChIJE7fyBK8sEGsRMwQGaX4o274"
  },
  {
    "name": "Elephant Park",
    "address": "103 Woodward St, Orange NSW 2800, Australia",
    "suburb": "Orange NSW 2800",
    "state": "NSW",
    "rating": 4.2,
    "reviews": 183,
    "lat": -33.2879988,
    "lng": 149.0853327,
    "place_id": "ChIJp64f6yAtEGsRorN_Z4frc84",
    "maps_url": "https://www.google.com/maps/place/?q=place_id:ChIJp64f6yAtEGsRorN_Z4frc84"
  },
  {
    "name": "Cook Park",
    "address": "Summer St, Orange NSW 2800, Australia",
    "suburb": "Orange NSW 2800",
    "state": "NSW",
    "rating": 4.6,
    "reviews": 1447,
    "lat": -33.2830647,
    "lng": 149.0899196,
    "place_id": "ChIJUeK_gdksEGsRg13sBUakkFE",
    "maps_url": "https://www.google.com/maps/place/?q=place_id:ChIJUeK_gdksEGsRg13sBUakkFE"
  },
  {
    "name": "Newman Park",
    "address": "Orange NSW 2800, Australia",
    "suburb": "Australia",
    "state": "NSW",
    "rating": 4.2,
    "reviews": 46,
    "lat": -33.2805057,
    "lng": 149.111976,
    "place_id": "ChIJuwIKMmTTEWsRWDZOMISRH_Y",
    "maps_url": "https://www.google.com/maps/place/?q=place_id:ChIJuwIKMmTTEWsRWDZOMISRH_Y"
  },
  {
    "name": "Urban Air Trampoline and Adventure Park",
    "address": "260 Bull Hill Ln, Orange, CT 06477, USA",
    "suburb": "Orange",
    "state": "NSW",
    "rating": 4,
    "reviews": 1102,
    "lat": 41.2729935,
    "lng": -72.9899688,
    "place_id": "ChIJYfjXfgF26IkRlxpPkp5BG5o",
    "maps_url": "https://www.google.com/maps/place/?q=place_id:ChIJYfjXfgF26IkRlxpPkp5BG5o"
  },
  {
    "name": "Orange Botanic Gardens",
    "address": "300 Hill St, Orange NSW 2800, Australia",
    "suburb": "Orange NSW 2800",
    "state": "NSW",
    "rating": 4.4,
    "reviews": 965,
    "lat": -33.2562881,
    "lng": 149.0975511,
    "place_id": "ChIJPVwciK4sEGsRkHz-c7UJBg8",
    "maps_url": "https://www.google.com/maps/place/?q=place_id:ChIJPVwciK4sEGsRkHz-c7UJBg8"
  },
  {
    "name": "Orange Showground s/s",
    "address": "Leeds Parade, Orange NSW 2800, Australia",
    "suburb": "Orange NSW 2800",
    "state": "NSW",
    "rating": 4,
    "reviews": 188,
    "lat": -33.2708993,
    "lng": 149.1092456,
    "place_id": "ChIJm9ZJ0VDTEWsRWX0hzDV3kas",
    "maps_url": "https://www.google.com/maps/place/?q=place_id:ChIJm9ZJ0VDTEWsRWX0hzDV3kas"
  },
  {
    "name": "Orange Indoor Tennis Centre",
    "address": "9 Palmer St, Orange NSW 2800, Australia",
    "suburb": "Orange NSW 2800",
    "state": "NSW",
    "rating": 4.4,
    "reviews": 47,
    "lat": -33.2912709,
    "lng": 149.1089347,
    "place_id": "ChIJvxzBOirTEWsR5Jol1UsOkCc",
    "maps_url": "https://www.google.com/maps/place/?q=place_id:ChIJvxzBOirTEWsR5Jol1UsOkCc"
  },
  {
    "name": "The Wentworth Orange",
    "address": "130 Ploughmans Ln, Orange NSW 2800, Australia",
    "suburb": "Orange NSW 2800",
    "state": "NSW",
    "rating": 4.4,
    "reviews": 281,
    "lat": -33.2913016,
    "lng": 149.0674718,
    "place_id": "ChIJO5Lk3BotEGsRIMj9c7UJBg8",
    "maps_url": "https://www.google.com/maps/place/?q=place_id:ChIJO5Lk3BotEGsRIMj9c7UJBg8"
  },
  {
    "name": "Party Planet - Parties & Hire",
    "address": "Orange Arcade, Shop 23/142 Summer St, Orange NSW 2800, Australia",
    "suburb": "Shop 23/142 Summer St",
    "state": "NSW",
    "rating": 5,
    "reviews": 8,
    "lat": -33.2835407,
    "lng": 149.097025,
    "place_id": "ChIJT0DxM4_VEWsRda-TG9okcwY",
    "maps_url": "https://www.google.com/maps/place/?q=place_id:ChIJT0DxM4_VEWsRda-TG9okcwY"
  },
  {
    "name": "PCYC Orange",
    "address": "2-10 Seymour St, Orange NSW 2800, Australia",
    "suburb": "Orange NSW 2800",
    "state": "NSW",
    "rating": 3.1,
    "reviews": 16,
    "lat": -33.2838248,
    "lng": 149.1186666,
    "place_id": "ChIJbRG2DTvTEWsRG84W0AnkeUA",
    "maps_url": "https://www.google.com/maps/place/?q=place_id:ChIJbRG2DTvTEWsRG84W0AnkeUA"
  },
  {
    "name": "INTERSPORT Orange",
    "address": "Shop 6a/179-181 Byng St, Orange NSW 2800, Australia",
    "suburb": "Orange NSW 2800",
    "state": "NSW",
    "rating": 4.2,
    "reviews": 108,
    "lat": -33.2813942,
    "lng": 149.1052587,
    "place_id": "ChIJAR8mojLTEWsRnHlsagvTTK8",
    "maps_url": "https://www.google.com/maps/place/?q=place_id:ChIJAR8mojLTEWsRnHlsagvTTK8"
  },
  {
    "name": "irwin's jumping castle hire",
    "address": "21 Tancred St, Orange NSW 2800, Australia",
    "suburb": "Orange NSW 2800",
    "state": "NSW",
    "rating": 5,
    "reviews": 3,
    "lat": -33.2506111,
    "lng": 149.0955117,
    "place_id": "ChIJt0acNjAtEGsRJAmvnioGu2M",
    "maps_url": "https://www.google.com/maps/place/?q=place_id:ChIJt0acNjAtEGsRJAmvnioGu2M"
  },
  {
    "name": "Total Park",
    "address": "Orange NSW 2800, Australia",
    "suburb": "Australia",
    "state": "NSW",
    "rating": 3.3,
    "reviews": 3,
    "lat": -33.2903914,
    "lng": 149.108977,
    "place_id": "ChIJ06F3VKLTEWsRRHSQxjzqLk8",
    "maps_url": "https://www.google.com/maps/place/?q=place_id:ChIJ06F3VKLTEWsRRHSQxjzqLk8"
  },
  {
    "name": "Inflatable World Dubbo",
    "address": "163 Sheraton Rd, Dubbo NSW 2830, Australia",
    "suburb": "Dubbo NSW 2830",
    "state": "NSW",
    "rating": 4.2,
    "reviews": 76,
    "lat": -32.264394,
    "lng": 148.6444158,
    "place_id": "ChIJHZEbkIBxD2sRlbhZJcIkrqs",
    "maps_url": "https://www.google.com/maps/place/?q=place_id:ChIJHZEbkIBxD2sRlbhZJcIkrqs"
  },
  {
    "name": "PCYC Dubbo Sportsworld",
    "address": "163 Sheraton Rd, Dubbo NSW 2830, Australia",
    "suburb": "Dubbo NSW 2830",
    "state": "NSW",
    "rating": 4.4,
    "reviews": 56,
    "lat": -32.2644538,
    "lng": 148.6445007,
    "place_id": "ChIJd5EbkIBxD2sRQxOdqcHwSag",
    "maps_url": "https://www.google.com/maps/place/?q=place_id:ChIJd5EbkIBxD2sRQxOdqcHwSag"
  },
  {
    "name": "Molly's Tumble Co.",
    "address": "2/72 River St, Dubbo NSW 2830, Australia",
    "suburb": "Dubbo NSW 2830",
    "state": "NSW",
    "rating": 3,
    "reviews": 2,
    "lat": -32.2339286,
    "lng": 148.6139352,
    "place_id": "ChIJ86EsIoxxD2sRUjFa6eyeDVA",
    "maps_url": "https://www.google.com/maps/place/?q=place_id:ChIJ86EsIoxxD2sRUjFa6eyeDVA"
  },
  {
    "name": "PCYC Dubbo",
    "address": "Erskine St &, Darling St, Dubbo NSW 2830, Australia",
    "suburb": "Darling St",
    "state": "NSW",
    "rating": 4.4,
    "reviews": 7,
    "lat": -32.2436543,
    "lng": 148.6067423,
    "place_id": "ChIJizXjqrZxD2sRwAf90jT9B-8",
    "maps_url": "https://www.google.com/maps/place/?q=place_id:ChIJizXjqrZxD2sRwAf90jT9B-8"
  },
  {
    "name": "Dubbo Regional Botanic Garden Adventure Playground",
    "address": "851 Coronation Dr, Dubbo NSW 2830, Australia",
    "suburb": "Dubbo NSW 2830",
    "state": "NSW",
    "rating": 4.6,
    "reviews": 67,
    "lat": -32.2532653,
    "lng": 148.633762,
    "place_id": "ChIJ50S3lTBxD2sRY9IKbWDINn8",
    "maps_url": "https://www.google.com/maps/place/?q=place_id:ChIJ50S3lTBxD2sRY9IKbWDINn8"
  },
  {
    "name": "iPlay Dubbo",
    "address": "74 Windsor Parade, Dubbo NSW 2830, Australia",
    "suburb": "Dubbo NSW 2830",
    "state": "NSW",
    "rating": 4.4,
    "reviews": 288,
    "lat": -32.25277680000001,
    "lng": 148.6314005,
    "place_id": "ChIJU9SbeoVxD2sR1_9gf3oHLko",
    "maps_url": "https://www.google.com/maps/place/?q=place_id:ChIJU9SbeoVxD2sR1_9gf3oHLko"
  },
  {
    "name": "Springloaded Coffs Coast",
    "address": "600B Hogbin Dr, Toormina NSW 2452, Australia",
    "suburb": "Toormina NSW 2452",
    "state": "NSW",
    "rating": 4.4,
    "reviews": 158,
    "lat": -30.3459817,
    "lng": 153.0932595,
    "place_id": "ChIJ_QbY7pMRnGsRpqXZn60DB14",
    "maps_url": "https://www.google.com/maps/place/?q=place_id:ChIJ_QbY7pMRnGsRpqXZn60DB14"
  },
  {
    "name": "Springloaded Port Macquarie",
    "address": "203 Lake Rd, Port Macquarie NSW 2444, Australia",
    "suburb": "Port Macquarie NSW 2444",
    "state": "NSW",
    "rating": 4.3,
    "reviews": 98,
    "lat": -31.4462519,
    "lng": 152.8876333,
    "place_id": "ChIJccELxZ7_nWsRTLrDJNvq4kU",
    "maps_url": "https://www.google.com/maps/place/?q=place_id:ChIJccELxZ7_nWsRTLrDJNvq4kU"
  },
  {
    "name": "The Big Banana Fun Park",
    "address": "351 Pacific Hwy, Coffs Harbour NSW 2450, Australia",
    "suburb": "Coffs Harbour NSW 2450",
    "state": "NSW",
    "rating": 4.3,
    "reviews": 7927,
    "lat": -30.2746956,
    "lng": 153.1338197,
    "place_id": "ChIJA5c3vEcMnGsRCNS-xcCvK-8",
    "maps_url": "https://www.google.com/maps/place/?q=place_id:ChIJA5c3vEcMnGsRCNS-xcCvK-8"
  },
  {
    "name": "Skope for Skill",
    "address": "SR21 Coffs Central, 41/61 Harbour Dr, Coffs Harbour NSW 2450, Australia",
    "suburb": "41/61 Harbour Dr",
    "state": "NSW",
    "rating": 3,
    "reviews": 2,
    "lat": -30.2970138,
    "lng": 153.1158766,
    "place_id": "ChIJQSlGFQANnGsRJGYrMs6SULg",
    "maps_url": "https://www.google.com/maps/place/?q=place_id:ChIJQSlGFQANnGsRJGYrMs6SULg"
  },
  {
    "name": "Springloaded Nambucca Valley",
    "address": "2 Ken Howard Cres, Nambucca Heads NSW 2448, Australia",
    "suburb": "Nambucca Heads NSW 2448",
    "state": "NSW",
    "rating": 5,
    "reviews": 4,
    "lat": -30.63524129999999,
    "lng": 152.9812728,
    "place_id": "ChIJa5YU1IslnGsRjGzxaSLTekE",
    "maps_url": "https://www.google.com/maps/place/?q=place_id:ChIJa5YU1IslnGsRjGzxaSLTekE"
  },
  {
    "name": "The PlayHouse",
    "address": "167 Orlando St, Coffs Harbour NSW 2450, Australia",
    "suburb": "Coffs Harbour NSW 2450",
    "state": "NSW",
    "rating": 4.6,
    "reviews": 220,
    "lat": -30.2882385,
    "lng": 153.1297607,
    "place_id": "ChIJlT925soNnGsRBZK1i7ZCEJ8",
    "maps_url": "https://www.google.com/maps/place/?q=place_id:ChIJlT925soNnGsRBZK1i7ZCEJ8"
  },
  {
    "name": "Treetops Adventure Coffs Harbour",
    "address": "Orara East State Forest, Sealy Lookout Dr, Coffs Harbour NSW 2450, Australia",
    "suburb": "Sealy Lookout Dr",
    "state": "NSW",
    "rating": 4.8,
    "reviews": 673,
    "lat": -30.2639403,
    "lng": 153.1122362,
    "place_id": "ChIJ7YQhzrcNnGsRKj3NaK6tmbI",
    "maps_url": "https://www.google.com/maps/place/?q=place_id:ChIJ7YQhzrcNnGsRKj3NaK6tmbI"
  },
  {
    "name": "WildNets Adventure Park Port Macquarie",
    "address": "Guulabaa Way, Corner of Burrawan Forest Dr and, Oxley Hwy, Lake Innes NSW 2446, Australia",
    "suburb": "Corner of Burrawan Forest Dr and",
    "state": "NSW",
    "rating": 4.7,
    "reviews": 490,
    "lat": -31.4685493,
    "lng": 152.8036612,
    "place_id": "ChIJ_cgr3NT_dWsREPMk38n5ICI",
    "maps_url": "https://www.google.com/maps/place/?q=place_id:ChIJ_cgr3NT_dWsREPMk38n5ICI"
  },
  {
    "name": "Centre of Gravity Indoor Adventure Centre",
    "address": "52 Jindalee Rd, Port Macquarie NSW 2444, Australia",
    "suburb": "Port Macquarie NSW 2444",
    "state": "NSW",
    "rating": 4.7,
    "reviews": 299,
    "lat": -31.4554867,
    "lng": 152.8839211,
    "place_id": "ChIJ0a693Xr_nWsRzDeouKBegWo",
    "maps_url": "https://www.google.com/maps/place/?q=place_id:ChIJ0a693Xr_nWsRzDeouKBegWo"
  },
  {
    "name": "Maxx Family Fun Centre",
    "address": "20 Boundary St, Port Macquarie NSW 2444, Australia",
    "suburb": "Port Macquarie NSW 2444",
    "state": "NSW",
    "rating": 4.5,
    "reviews": 52,
    "lat": -31.4257387,
    "lng": 152.8719635,
    "place_id": "ChIJxae-iRn_nWsR42sT7QbseKI",
    "maps_url": "https://www.google.com/maps/place/?q=place_id:ChIJxae-iRn_nWsR42sT7QbseKI"
  },
  {
    "name": "Funland Port Macquarie",
    "address": "Level 1, The Ritz Centre, Horton St &, Clarence St, Port Macquarie NSW 2444, Australia",
    "suburb": "The Ritz Centre",
    "state": "NSW",
    "rating": 2.4,
    "reviews": 44,
    "lat": -31.4293407,
    "lng": 152.9083442,
    "place_id": "ChIJadHUKX3_nWsRmhIe_32AylM",
    "maps_url": "https://www.google.com/maps/place/?q=place_id:ChIJadHUKX3_nWsRmhIe_32AylM"
  },
  {
    "name": "Wilderness Activity Centre & Cafe",
    "address": "5 Albert Cct, Port Macquarie NSW 2444, Australia",
    "suburb": "Port Macquarie NSW 2444",
    "state": "NSW",
    "rating": 4.7,
    "reviews": 16,
    "lat": -31.4304214,
    "lng": 152.88936,
    "place_id": "ChIJZ3ZUzxv_nWsRcJ4XSJQVW3c",
    "maps_url": "https://www.google.com/maps/place/?q=place_id:ChIJZ3ZUzxv_nWsRcJ4XSJQVW3c"
  },
  {
    "name": "PCYC Port Macquarie",
    "address": "12 Owen St, Port Macquarie NSW 2444, Australia",
    "suburb": "Port Macquarie NSW 2444",
    "state": "NSW",
    "rating": 4.5,
    "reviews": 26,
    "lat": -31.4323087,
    "lng": 152.9198234,
    "place_id": "ChIJ3bf1ZZv_nWsRnuZ4M8nhq9Y",
    "maps_url": "https://www.google.com/maps/place/?q=place_id:ChIJ3bf1ZZv_nWsRnuZ4M8nhq9Y"
  },
  {
    "name": "Ruins way playground",
    "address": "116 The Ruins Way, Port Macquarie NSW 2444, Australia",
    "suburb": "Port Macquarie NSW 2444",
    "state": "NSW",
    "rating": 4.4,
    "reviews": 33,
    "lat": -31.4693927,
    "lng": 152.8727111,
    "place_id": "ChIJp-IyKS0AdmsRgqTGaHudqRA",
    "maps_url": "https://www.google.com/maps/place/?q=place_id:ChIJp-IyKS0AdmsRgqTGaHudqRA"
  },
  {
    "name": "Jumbos Playland",
    "address": "17 Merrigal Rd, Port Macquarie NSW 2444, Australia",
    "suburb": "Port Macquarie NSW 2444",
    "state": "NSW",
    "rating": 4.1,
    "reviews": 45,
    "lat": -31.4540238,
    "lng": 152.8816271,
    "place_id": "ChIJ_9sqaHr_nWsRBntfMgfzWeA",
    "maps_url": "https://www.google.com/maps/place/?q=place_id:ChIJ_9sqaHr_nWsRBntfMgfzWeA"
  },
  {
    "name": "Little Luxe HQ",
    "address": "203 Lake Rd, Port Macquarie NSW 2444, Australia",
    "suburb": "Port Macquarie NSW 2444",
    "state": "NSW",
    "rating": 5,
    "reviews": 2,
    "lat": -31.4462471,
    "lng": 152.8876345,
    "place_id": "ChIJh7ZnIzT_nWsRYvhMV36aEU4",
    "maps_url": "https://www.google.com/maps/place/?q=place_id:ChIJh7ZnIzT_nWsRYvhMV36aEU4"
  },
  {
    "name": "Planet Skate Port Macquarie",
    "address": "10 Chestnut Rd, Port Macquarie NSW 2444, Australia",
    "suburb": "Port Macquarie NSW 2444",
    "state": "NSW",
    "rating": 4.5,
    "reviews": 137,
    "lat": -31.4502754,
    "lng": 152.8902587,
    "place_id": "ChIJm0tmwW7_nWsRBPB41dGEte4",
    "maps_url": "https://www.google.com/maps/place/?q=place_id:ChIJm0tmwW7_nWsRBPB41dGEte4"
  },
  {
    "name": "Livvi’s Place Playground",
    "address": "21 Park St, Port Macquarie NSW 2444, Australia",
    "suburb": "Port Macquarie NSW 2444",
    "state": "NSW",
    "rating": 4.2,
    "reviews": 33,
    "lat": -31.4290631,
    "lng": 152.9004454,
    "place_id": "ChIJYQNrDCH_nWsRAlYoOZ7Tz7E",
    "maps_url": "https://www.google.com/maps/place/?q=place_id:ChIJYQNrDCH_nWsRAlYoOZ7Tz7E"
  },
  {
    "name": "SKYONE Port Macquarie",
    "address": "Oliver Dr, Port Macquarie NSW 2444, Australia",
    "suburb": "Port Macquarie NSW 2444",
    "state": "NSW",
    "rating": 4.8,
    "reviews": 37,
    "lat": -31.4314985,
    "lng": 152.8685405,
    "place_id": "ChIJAbmF5DL_nWsR8FUVRv2niHY",
    "maps_url": "https://www.google.com/maps/place/?q=place_id:ChIJAbmF5DL_nWsR8FUVRv2niHY"
  },
  {
    "name": "Harry's Lookout",
    "address": "Shelly Beach, Pacific Dr, Port Macquarie NSW 2444, Australia",
    "suburb": "Pacific Dr",
    "state": "NSW",
    "rating": 4.7,
    "reviews": 361,
    "lat": -31.4559245,
    "lng": 152.9310527,
    "place_id": "ChIJca8An7f4nWsRoPiIWOb85qA",
    "maps_url": "https://www.google.com/maps/place/?q=place_id:ChIJca8An7f4nWsRoPiIWOb85qA"
  },
  {
    "name": "Hydro Golf and Putt Putt",
    "address": "20 Boundary St, Port Macquarie NSW 2444, Australia",
    "suburb": "Port Macquarie NSW 2444",
    "state": "NSW",
    "rating": 4.6,
    "reviews": 507,
    "lat": -31.4257387,
    "lng": 152.8719635,
    "place_id": "ChIJA8E6Iaj_nWsR8-GZylNp5bs",
    "maps_url": "https://www.google.com/maps/place/?q=place_id:ChIJA8E6Iaj_nWsR8-GZylNp5bs"
  },
  {
    "name": "Springloaded Banora Point",
    "address": "The Salvation Army Centre CNR Woodlands &, Leisure Dr, Banora Point NSW 2486, Australia",
    "suburb": "Leisure Dr",
    "state": "NSW",
    "rating": 4.6,
    "reviews": 105,
    "lat": -28.215379,
    "lng": 153.5287476,
    "place_id": "ChIJr6pqPFT-kGsRoceDobazq_A",
    "maps_url": "https://www.google.com/maps/place/?q=place_id:ChIJr6pqPFT-kGsRoceDobazq_A"
  },
  {
    "name": "Wanda Park",
    "address": "22 Wanda Dr, East Lismore NSW 2480, Australia",
    "suburb": "East Lismore NSW 2480",
    "state": "NSW",
    "rating": 5,
    "reviews": 1,
    "lat": -28.8302119,
    "lng": 153.2810058,
    "place_id": "ChIJ-RnjJNh1mmsRVmsqzauGcAo",
    "maps_url": "https://www.google.com/maps/place/?q=place_id:ChIJ-RnjJNh1mmsRVmsqzauGcAo"
  },
  {
    "name": "Heritage Park",
    "address": "195 Molesworth St, Lismore NSW 2480, Australia",
    "suburb": "Lismore NSW 2480",
    "state": "NSW",
    "rating": 4.5,
    "reviews": 497,
    "lat": -28.8122158,
    "lng": 153.2725983,
    "place_id": "ChIJT9abNyCekGsR1MWQIIWLF3A",
    "maps_url": "https://www.google.com/maps/place/?q=place_id:ChIJT9abNyCekGsR1MWQIIWLF3A"
  },
  {
    "name": "Rollerworld",
    "address": "21 Bridge St, North Lismore NSW 2480, Australia",
    "suburb": "North Lismore NSW 2480",
    "state": "NSW",
    "rating": 4.5,
    "reviews": 143,
    "lat": -28.80457669999999,
    "lng": 153.2766638,
    "place_id": "ChIJQe7cIRiekGsRd2UlMOEQvsg",
    "maps_url": "https://www.google.com/maps/place/?q=place_id:ChIJQe7cIRiekGsRd2UlMOEQvsg"
  },
  {
    "name": "Airheads Inflatable Park",
    "address": "1 Woodburn St, Woodburn NSW 2472, Australia",
    "suburb": "Woodburn NSW 2472",
    "state": "NSW",
    "rating": 3.5,
    "reviews": 6,
    "lat": -29.0741686,
    "lng": 153.3401974,
    "place_id": "ChIJr76pZeFvmmsRbZgQcS86EQs",
    "maps_url": "https://www.google.com/maps/place/?q=place_id:ChIJr76pZeFvmmsRbZgQcS86EQs"
  },
  {
    "name": "Nesbitt Park",
    "address": "129 Casino St, South Lismore NSW 2480, Australia",
    "suburb": "South Lismore NSW 2480",
    "state": "NSW",
    "rating": 4.2,
    "reviews": 162,
    "lat": -28.8063606,
    "lng": 153.259531,
    "place_id": "ChIJtyu3NS-ekGsRPVytfsMUTs0",
    "maps_url": "https://www.google.com/maps/place/?q=place_id:ChIJtyu3NS-ekGsRPVytfsMUTs0"
  },
  {
    "name": "Heritage Park Railway",
    "address": "Heritage Park, Molesworth St, Lismore NSW 2480, Australia",
    "suburb": "Molesworth St",
    "state": "NSW",
    "rating": 4.9,
    "reviews": 11,
    "lat": -28.81211729999999,
    "lng": 153.2729741,
    "place_id": "ChIJ7eySgBufkGsRKHGTzPZRjX8",
    "maps_url": "https://www.google.com/maps/place/?q=place_id:ChIJ7eySgBufkGsRKHGTzPZRjX8"
  },
  {
    "name": "SportsPower Super Warehouse Lismore",
    "address": "27 Glasgow Ln, Lismore NSW 2480, Australia",
    "suburb": "Lismore NSW 2480",
    "state": "NSW",
    "rating": 4.3,
    "reviews": 129,
    "lat": -28.8070079,
    "lng": 153.2760388,
    "place_id": "ChIJa5KEWBiekGsRUVizdy-2t-g",
    "maps_url": "https://www.google.com/maps/place/?q=place_id:ChIJa5KEWBiekGsRUVizdy-2t-g"
  },
  {
    "name": "Kadina Park",
    "address": "Kadina St, Goonellabah NSW 2480, Australia",
    "suburb": "Goonellabah NSW 2480",
    "state": "NSW",
    "rating": 4.3,
    "reviews": 41,
    "lat": -28.8183879,
    "lng": 153.3356693,
    "place_id": "ChIJ5dbcZAedkGsRu_wteFn5YMk",
    "maps_url": "https://www.google.com/maps/place/?q=place_id:ChIJ5dbcZAedkGsRu_wteFn5YMk"
  },
  {
    "name": "Nightcap National Park",
    "address": "Tuntable Trail, Nightcap NSW 2480, Australia",
    "suburb": "Nightcap NSW 2480",
    "state": "NSW",
    "rating": 4.7,
    "reviews": 549,
    "lat": -28.562376,
    "lng": 153.309935,
    "place_id": "ChIJA4pumf6TkGsRMOr-c7UJBg8",
    "maps_url": "https://www.google.com/maps/place/?q=place_id:ChIJA4pumf6TkGsRMOr-c7UJBg8"
  },
  {
    "name": "Goonellabah Sports and Aquatic Centre (GSAC)",
    "address": "1 Wallerawang Dr, Goonellabah NSW 2480, Australia",
    "suburb": "Goonellabah NSW 2480",
    "state": "NSW",
    "rating": 4.4,
    "reviews": 304,
    "lat": -28.8218156,
    "lng": 153.3285446,
    "place_id": "ChIJSSjnQImdkGsRg2F7e96wR5s",
    "maps_url": "https://www.google.com/maps/place/?q=place_id:ChIJSSjnQImdkGsRg2F7e96wR5s"
  },
  {
    "name": "Dalziell Park",
    "address": "56 McKenzie St, Lismore NSW 2480, Australia",
    "suburb": "Lismore NSW 2480",
    "state": "NSW",
    "rating": 5,
    "reviews": 1,
    "lat": -28.8112909,
    "lng": 153.2903001,
    "place_id": "ChIJq5G8NIGfkGsRkdHdNDP6zp0",
    "maps_url": "https://www.google.com/maps/place/?q=place_id:ChIJq5G8NIGfkGsRkdHdNDP6zp0"
  },
  {
    "name": "Lismore Park",
    "address": "Uralba St, Lismore NSW 2480, Australia",
    "suburb": "Lismore NSW 2480",
    "state": "NSW",
    "rating": 4.2,
    "reviews": 18,
    "lat": -28.8094304,
    "lng": 153.2833221,
    "place_id": "ChIJv-5RBhuekGsRQEL_c7UJBg8",
    "maps_url": "https://www.google.com/maps/place/?q=place_id:ChIJv-5RBhuekGsRQEL_c7UJBg8"
  },
  {
    "name": "Lismore Skatepark",
    "address": "Dawson St &, Uralba St, Lismore NSW 2480, Australia",
    "suburb": "Uralba St",
    "state": "NSW",
    "rating": 4.6,
    "reviews": 5,
    "lat": -28.8095456,
    "lng": 153.2823162,
    "place_id": "ChIJFeQYdQCfkGsRyGZNXtJZV1U",
    "maps_url": "https://www.google.com/maps/place/?q=place_id:ChIJFeQYdQCfkGsRyGZNXtJZV1U"
  },
  {
    "name": "The Community Project Kids Play",
    "address": "Unit 1/65 Southern Cross Dr, Ballina NSW 2478, Australia",
    "suburb": "Ballina NSW 2478",
    "state": "NSW",
    "rating": 5,
    "reviews": 9,
    "lat": -28.8455742,
    "lng": 153.5523284,
    "place_id": "ChIJWddc4sKBkGsRkCDpT-ibLic",
    "maps_url": "https://www.google.com/maps/place/?q=place_id:ChIJWddc4sKBkGsRkCDpT-ibLic"
  },
  {
    "name": "Jungle Ballina",
    "address": "28 Smith Dr, West Ballina NSW 2478, Australia",
    "suburb": "West Ballina NSW 2478",
    "state": "NSW",
    "rating": 4.9,
    "reviews": 68,
    "lat": -28.866405,
    "lng": 153.5149182,
    "place_id": "ChIJm_AqdZN_mmsRqBluI9ta2gA",
    "maps_url": "https://www.google.com/maps/place/?q=place_id:ChIJm_AqdZN_mmsRqBluI9ta2gA"
  },
  {
    "name": "Ballina Indoor Sports Centre",
    "address": "63 Cherry St, Ballina NSW 2478, Australia",
    "suburb": "Ballina NSW 2478",
    "state": "NSW",
    "rating": 4.8,
    "reviews": 47,
    "lat": -28.866445,
    "lng": 153.5641255,
    "place_id": "ChIJ2y3yzpiBkGsR2cFEjAKQwAU",
    "maps_url": "https://www.google.com/maps/place/?q=place_id:ChIJ2y3yzpiBkGsR2cFEjAKQwAU"
  },
  {
    "name": "Climbing Jungle",
    "address": "28 Smith Dr, West Ballina NSW 2478, Australia",
    "suburb": "West Ballina NSW 2478",
    "state": "NSW",
    "rating": 4.9,
    "reviews": 152,
    "lat": -28.866405,
    "lng": 153.5149182,
    "place_id": "ChIJmb_cDV9_mmsR2NgMmgsAPPQ",
    "maps_url": "https://www.google.com/maps/place/?q=place_id:ChIJmb_cDV9_mmsR2NgMmgsAPPQ"
  },
  {
    "name": "Children Playground - Riverview Park",
    "address": "Brunswick St, Ballina NSW 2478, Australia",
    "suburb": "Ballina NSW 2478",
    "state": "NSW",
    "rating": 4.7,
    "reviews": 3,
    "lat": -28.8678673,
    "lng": 153.5491916,
    "place_id": "ChIJmY9Z7w2BkGsR2EN2yYepaVY",
    "maps_url": "https://www.google.com/maps/place/?q=place_id:ChIJmY9Z7w2BkGsR2EN2yYepaVY"
  },
  {
    "name": "Ballina Tenpin Bowl",
    "address": "Clark St, Ballina NSW 2478, Australia",
    "suburb": "Ballina NSW 2478",
    "state": "NSW",
    "rating": 4.5,
    "reviews": 196,
    "lat": -28.85602609999999,
    "lng": 153.561,
    "place_id": "ChIJcc4T8hSAkGsREwkdCigX404",
    "maps_url": "https://www.google.com/maps/place/?q=place_id:ChIJcc4T8hSAkGsREwkdCigX404"
  },
  {
    "name": "Children Playground - Fawcett Park",
    "address": "Fawcett Park, 18 Fawcett St, Ballina NSW 2478, Australia",
    "suburb": "18 Fawcett St",
    "state": "NSW",
    "rating": 4.3,
    "reviews": 3,
    "lat": -28.8716585,
    "lng": 153.5605145,
    "place_id": "ChIJY903MZWBkGsRtr3PxE0UhYo",
    "maps_url": "https://www.google.com/maps/place/?q=place_id:ChIJY903MZWBkGsRtr3PxE0UhYo"
  },
  {
    "name": "Fawcett Park",
    "address": "Fawcett St, Ballina NSW 2478, Australia",
    "suburb": "Ballina NSW 2478",
    "state": "NSW",
    "rating": 4.4,
    "reviews": 354,
    "lat": -28.8716801,
    "lng": 153.5604649,
    "place_id": "ChIJX6E1Hx-AkGsREI3-c7UJBg8",
    "maps_url": "https://www.google.com/maps/place/?q=place_id:ChIJX6E1Hx-AkGsREI3-c7UJBg8"
  },
  {
    "name": "Pop Denison Park",
    "address": "78 Compton Dr, East Ballina NSW 2478, Australia",
    "suburb": "East Ballina NSW 2478",
    "state": "NSW",
    "rating": 4.6,
    "reviews": 301,
    "lat": -28.8653178,
    "lng": 153.5856955,
    "place_id": "ChIJPwBq7eN_kGsR72kLpmQrSgg",
    "maps_url": "https://www.google.com/maps/place/?q=place_id:ChIJPwBq7eN_kGsR72kLpmQrSgg"
  },
  {
    "name": "Ballina Adventure Park–Skirmish & Paintball",
    "address": "700 Pimlico Rd, Pimlico NSW 2478, Australia",
    "suburb": "Pimlico NSW 2478",
    "state": "NSW",
    "rating": 4.6,
    "reviews": 32,
    "lat": -28.9175968,
    "lng": 153.4794006,
    "place_id": "ChIJ6fZT0DZ5mmsRWa3DX02xsgQ",
    "maps_url": "https://www.google.com/maps/place/?q=place_id:ChIJ6fZT0DZ5mmsRWa3DX02xsgQ"
  },
  {
    "name": "Sisu Recovery",
    "address": "9 Ascot Rd, Ballina NSW 2478, Australia",
    "suburb": "Ballina NSW 2478",
    "state": "NSW",
    "rating": 4.9,
    "reviews": 66,
    "lat": -28.8486309,
    "lng": 153.5584593,
    "place_id": "ChIJnZf2bC6BkGsRrc8vsvFZBhU",
    "maps_url": "https://www.google.com/maps/place/?q=place_id:ChIJnZf2bC6BkGsRrc8vsvFZBhU"
  },
  {
    "name": "Children Playground - Missingham Park",
    "address": "Missingham Park, Kingsford Smith Dr, Ballina NSW 2478, Australia",
    "suburb": "Kingsford Smith Dr",
    "state": "NSW",
    "rating": 4,
    "reviews": 5,
    "lat": -28.8702451,
    "lng": 153.5749451,
    "place_id": "ChIJtUTBUbGBkGsRZ6Udt14Foi8",
    "maps_url": "https://www.google.com/maps/place/?q=place_id:ChIJtUTBUbGBkGsRZ6Udt14Foi8"
  },
  {
    "name": "SportsPower Super Warehouse Ballina",
    "address": "11 Kerr St, Ballina NSW 2478, Australia",
    "suburb": "Ballina NSW 2478",
    "state": "NSW",
    "rating": 4.6,
    "reviews": 87,
    "lat": -28.8676,
    "lng": 153.555484,
    "place_id": "ChIJ7wl5zxWAkGsRNbAmoBVhd_s",
    "maps_url": "https://www.google.com/maps/place/?q=place_id:ChIJ7wl5zxWAkGsRNbAmoBVhd_s"
  },
  {
    "name": "Toyworld Ballina",
    "address": "157 River St, Ballina NSW 2478, Australia",
    "suburb": "Ballina NSW 2478",
    "state": "NSW",
    "rating": 4.3,
    "reviews": 21,
    "lat": -28.8701293,
    "lng": 153.5598812,
    "place_id": "ChIJG3-DKh-AkGsRz7Xnr1mK-c4",
    "maps_url": "https://www.google.com/maps/place/?q=place_id:ChIJG3-DKh-AkGsRz7Xnr1mK-c4"
  },
  {
    "name": "Ballina Head Lookout",
    "address": "East Ballina NSW 2478, Australia",
    "suburb": "Australia",
    "state": "NSW",
    "rating": 4.7,
    "reviews": 537,
    "lat": -28.8675,
    "lng": 153.5925,
    "place_id": "ChIJJfD0Ye9_kGsRyCTegbnIx2U",
    "maps_url": "https://www.google.com/maps/place/?q=place_id:ChIJJfD0Ye9_kGsRyCTegbnIx2U"
  },
  {
    "name": "Missingham Park",
    "address": "Kingsford Smith Dr, Ballina NSW 2478, Australia",
    "suburb": "Ballina NSW 2478",
    "state": "NSW",
    "rating": 4.5,
    "reviews": 282,
    "lat": -28.8705278,
    "lng": 153.5743167,
    "place_id": "ChIJAyszLwSAkGsRz1AHhq2YaAA",
    "maps_url": "https://www.google.com/maps/place/?q=place_id:ChIJAyszLwSAkGsRz1AHhq2YaAA"
  },
  {
    "name": "Commemoration Park",
    "address": "23 Namitjira Pl, Ballina NSW 2478, Australia",
    "suburb": "Ballina NSW 2478",
    "state": "NSW",
    "rating": 4.6,
    "reviews": 47,
    "lat": -28.86861249999999,
    "lng": 153.5739625,
    "place_id": "ChIJSeFT5wWAkGsR5VKb5nQ7XY8",
    "maps_url": "https://www.google.com/maps/place/?q=place_id:ChIJSeFT5wWAkGsR5VKb5nQ7XY8"
  },
  {
    "name": "Rebound Studio",
    "address": "203/87 Griffith St, Coolangatta QLD 4225, Australia",
    "suburb": "Coolangatta QLD 4225",
    "state": "NSW",
    "rating": 5,
    "reviews": 21,
    "lat": -28.168332,
    "lng": 153.5394398,
    "place_id": "ChIJcSuEDAABkWsRP2lweKqV-Os",
    "maps_url": "https://www.google.com/maps/place/?q=place_id:ChIJcSuEDAABkWsRP2lweKqV-Os"
  },
  {
    "name": "Rebound Stadium",
    "address": "335 Guineas Creek Rd, Elanora QLD 4221, Australia",
    "suburb": "Elanora QLD 4221",
    "state": "NSW",
    "rating": 4.7,
    "reviews": 84,
    "lat": -28.1308898,
    "lng": 153.4404907,
    "place_id": "ChIJjzPRLV8CkWsRm0uAGZfM1XU",
    "maps_url": "https://www.google.com/maps/place/?q=place_id:ChIJjzPRLV8CkWsRm0uAGZfM1XU"
  },
  {
    "name": "rebel Tweed Heads",
    "address": "40 Greenway Dr, Tweed Heads South NSW 2486, Australia",
    "suburb": "Tweed Heads South NSW 2486",
    "state": "NSW",
    "rating": 4.2,
    "reviews": 306,
    "lat": -28.2055862,
    "lng": 153.5353386,
    "place_id": "ChIJ8zThzcj_kGsRlmTS3muJrXI",
    "maps_url": "https://www.google.com/maps/place/?q=place_id:ChIJ8zThzcj_kGsRlmTS3muJrXI"
  },
  {
    "name": "Tabatinga Tweed Heads",
    "address": "Seagulls Club, Unit 54/68 Gollan Dr, Tweed Heads West NSW 2485, Australia",
    "suburb": "Unit 54/68 Gollan Dr",
    "state": "NSW",
    "rating": 4.2,
    "reviews": 134,
    "lat": -28.1976355,
    "lng": 153.5053106,
    "place_id": "ChIJY_NWKob_kGsRzUe68dnPsKc",
    "maps_url": "https://www.google.com/maps/place/?q=place_id:ChIJY_NWKob_kGsRzUe68dnPsKc"
  },
  {
    "name": "Oceanic Gymnastics Centre",
    "address": "4/12 Greenway Dr, Tweed Heads South NSW 2486, Australia",
    "suburb": "Tweed Heads South NSW 2486",
    "state": "NSW",
    "rating": 4.9,
    "reviews": 18,
    "lat": -28.2015385,
    "lng": 153.5369273,
    "place_id": "ChIJQyYY-bb_kGsRVv73ir4jAG8",
    "maps_url": "https://www.google.com/maps/place/?q=place_id:ChIJQyYY-bb_kGsRVv73ir4jAG8"
  },
  {
    "name": "BIG4 Tweed Billabong Holiday Park",
    "address": "30 Holden St, Tweed Heads South NSW 2486, Australia",
    "suburb": "Tweed Heads South NSW 2486",
    "state": "NSW",
    "rating": 4.6,
    "reviews": 963,
    "lat": -28.1954003,
    "lng": 153.5298426,
    "place_id": "ChIJ1z4GVTT-kGsRlziGp6HWDTk",
    "maps_url": "https://www.google.com/maps/place/?q=place_id:ChIJ1z4GVTT-kGsRlziGp6HWDTk"
  },
  {
    "name": "BOUNCE Inc Gold Coast",
    "address": "5 Sunlight Dr, Burleigh Waters QLD 4220, Australia",
    "suburb": "Burleigh Waters QLD 4220",
    "state": "NSW",
    "rating": 4.5,
    "reviews": 2005,
    "lat": -28.100337,
    "lng": 153.4339457,
    "place_id": "ChIJEfw0xggDkWsRV2VAlg9Noms",
    "maps_url": "https://www.google.com/maps/place/?q=place_id:ChIJEfw0xggDkWsRV2VAlg9Noms"
  },
  {
    "name": "Trampoline Park and Ninja Action Zone, Gold Coast",
    "address": "Cnr Ferry Road and Benowa Road Centre Inside Southport Park Shopping centre, Southport QLD 4215, Australia",
    "suburb": "Southport QLD 4215",
    "state": "NSW",
    "rating": 3.9,
    "reviews": 68,
    "lat": -27.9865935,
    "lng": 153.4109096,
    "place_id": "ChIJpVENBK0akWsRRuNNdIwPKSU",
    "maps_url": "https://www.google.com/maps/place/?q=place_id:ChIJpVENBK0akWsRRuNNdIwPKSU"
  },
  {
    "name": "Epic Skate Rink",
    "address": "20/23 Enterprise Ave, Tweed Heads South NSW 2487, Australia",
    "suburb": "Tweed Heads South NSW 2487",
    "state": "NSW",
    "rating": 4.6,
    "reviews": 112,
    "lat": -28.2028072,
    "lng": 153.5344069,
    "place_id": "ChIJNbr3uLT_kGsRhQ7yQNGA_nY",
    "maps_url": "https://www.google.com/maps/place/?q=place_id:ChIJNbr3uLT_kGsRhQ7yQNGA_nY"
  },
  {
    "name": "Area 51 Underwood",
    "address": "51 Kingston Rd, Underwood QLD 4119, Australia",
    "suburb": "Underwood QLD 4119",
    "state": "NSW",
    "rating": 4.1,
    "reviews": 2701,
    "lat": -27.6106155,
    "lng": 153.1109903,
    "place_id": "ChIJJ3HcXv1DkWsRWMklcG_TwNQ",
    "maps_url": "https://www.google.com/maps/place/?q=place_id:ChIJJ3HcXv1DkWsRWMklcG_TwNQ"
  },
  {
    "name": "Timezone Coolangatta",
    "address": "The Strand, Griffith St, Coolangatta QLD 4225, Australia",
    "suburb": "Griffith St",
    "state": "NSW",
    "rating": 4.5,
    "reviews": 985,
    "lat": -28.1681382,
    "lng": 153.5384613,
    "place_id": "ChIJM_2S5i0AkWsRe38Ci4EVg0M",
    "maps_url": "https://www.google.com/maps/place/?q=place_id:ChIJM_2S5i0AkWsRe38Ci4EVg0M"
  },
  {
    "name": "Coolangatta-Tweed Tenpin",
    "address": "55 Wharf St, Tweed Heads NSW 2485, Australia",
    "suburb": "Tweed Heads NSW 2485",
    "state": "NSW",
    "rating": 4.3,
    "reviews": 303,
    "lat": -28.1719527,
    "lng": 153.5429692,
    "place_id": "ChIJ00JZPS8AkWsRadsWtwuv7NA",
    "maps_url": "https://www.google.com/maps/place/?q=place_id:ChIJ00JZPS8AkWsRadsWtwuv7NA"
  },
  {
    "name": "Livvi's Place at Goorimahbah - Place of Stories Playground",
    "address": "60 Boundary St, Tweed Heads NSW 2485, Australia",
    "suburb": "Tweed Heads NSW 2485",
    "state": "NSW",
    "rating": 4.8,
    "reviews": 23,
    "lat": -28.1677602,
    "lng": 153.5454135,
    "place_id": "ChIJP_RWlh8BkWsRPiLt153GPbg",
    "maps_url": "https://www.google.com/maps/place/?q=place_id:ChIJP_RWlh8BkWsRPiLt153GPbg"
  },
  {
    "name": "Seagulls Club",
    "address": "68 Gollan Dr, Tweed Heads West NSW 2485, Australia",
    "suburb": "Tweed Heads West NSW 2485",
    "state": "NSW",
    "rating": 3.9,
    "reviews": 863,
    "lat": -28.1980533,
    "lng": 153.5060882,
    "place_id": "ChIJ8SGo22v-kGsRPPQAI-Sowvs",
    "maps_url": "https://www.google.com/maps/place/?q=place_id:ChIJ8SGo22v-kGsRPPQAI-Sowvs"
  },
  {
    "name": "Club Tweed",
    "address": "Cnr Wharf &, Florence St, Tweed Heads NSW 2485, Australia",
    "suburb": "Florence St",
    "state": "NSW",
    "rating": 4.3,
    "reviews": 1078,
    "lat": -28.1767837,
    "lng": 153.5427144,
    "place_id": "ChIJP-MDiGf_kGsR4krdJ_dK8MI",
    "maps_url": "https://www.google.com/maps/place/?q=place_id:ChIJP-MDiGf_kGsR4krdJ_dK8MI"
  },
  {
    "name": "Tweed Holiday Parks Tweed Heads",
    "address": "3 Dry Dock Rd, Tweed Heads South NSW 2486, Australia",
    "suburb": "Tweed Heads South NSW 2486",
    "state": "NSW",
    "rating": 4.3,
    "reviews": 529,
    "lat": -28.1870279,
    "lng": 153.5380655,
    "place_id": "ChIJH-0TfNL_kGsR1MvbWo3fyUs",
    "maps_url": "https://www.google.com/maps/place/?q=place_id:ChIJH-0TfNL_kGsR1MvbWo3fyUs"
  },
  {
    "name": "Ivory Waterside",
    "address": "156 Wharf St, Tweed Heads NSW 2485, Australia",
    "suburb": "Tweed Heads NSW 2485",
    "state": "NSW",
    "rating": 4.1,
    "reviews": 1672,
    "lat": -28.1820557,
    "lng": 153.5382836,
    "place_id": "ChIJP-MDiGf_kGsRe91CgWlVbLM",
    "maps_url": "https://www.google.com/maps/place/?q=place_id:ChIJP-MDiGf_kGsRe91CgWlVbLM"
  },
  {
    "name": "Currumbin Wildlife Sanctuary",
    "address": "28 Tomewin St, Currumbin QLD 4223, Australia",
    "suburb": "Currumbin QLD 4223",
    "state": "NSW",
    "rating": 4.6,
    "reviews": 13486,
    "lat": -28.1355576,
    "lng": 153.4885428,
    "place_id": "ChIJQUC8FIgBkWsRtkuesp7YfdI",
    "maps_url": "https://www.google.com/maps/place/?q=place_id:ChIJQUC8FIgBkWsRtkuesp7YfdI"
  },
  {
    "name": "Gold Coast Skydive",
    "address": "18 Coyne St, Coolangatta QLD 4225, Australia",
    "suburb": "Coolangatta QLD 4225",
    "state": "NSW",
    "rating": 4.9,
    "reviews": 802,
    "lat": -28.16835,
    "lng": 153.5254088,
    "place_id": "ChIJi-sFstMBkWsRsx9MEfmj4Hw",
    "maps_url": "https://www.google.com/maps/place/?q=place_id:ChIJi-sFstMBkWsRsx9MEfmj4Hw"
  },
  {
    "name": "BOUNCE Inc Glen Iris",
    "address": "2 Weir St, Glen Iris VIC 3146, Australia",
    "suburb": "Glen Iris VIC 3146",
    "state": "VIC",
    "rating": 4.6,
    "reviews": 2205,
    "lat": -37.8502,
    "lng": 145.0452,
    "place_id": "ChIJtw0edp5C1moRDrjt-C19ajY",
    "maps_url": "https://www.google.com/maps/place/?q=place_id:ChIJtw0edp5C1moRDrjt-C19ajY"
  },
  {
    "name": "Jumpside",
    "address": "1 Mephan St, Footscray VIC 3011, Australia",
    "suburb": "Footscray VIC 3011",
    "state": "VIC",
    "rating": 4.4,
    "reviews": 247,
    "lat": -37.7874069,
    "lng": 144.8894958,
    "place_id": "ChIJWQHtdR1d1moRzPaSaFlLMUo",
    "maps_url": "https://www.google.com/maps/place/?q=place_id:ChIJWQHtdR1d1moRzPaSaFlLMUo"
  },
  {
    "name": "BOUNCE Inc Essendon Fields",
    "address": "Hangar 4/236 Wirraway Rd, Essendon Fields VIC 3041, Australia",
    "suburb": "Essendon Fields VIC 3041",
    "state": "VIC",
    "rating": 4.5,
    "reviews": 1884,
    "lat": -37.7236615,
    "lng": 144.8977512,
    "place_id": "ChIJyVbzVutb1moRdFxzQdxHx3g",
    "maps_url": "https://www.google.com/maps/place/?q=place_id:ChIJyVbzVutb1moRdFxzQdxHx3g"
  },
  {
    "name": "123Boom!",
    "address": "551 Little Collins St, Melbourne VIC 3000, Australia",
    "suburb": "Melbourne VIC 3000",
    "state": "VIC",
    "rating": 4.9,
    "reviews": 749,
    "lat": -37.8173973,
    "lng": 144.9563838,
    "place_id": "ChIJkQ37bwBd1moRQOo1TDBZrE4",
    "maps_url": "https://www.google.com/maps/place/?q=place_id:ChIJkQ37bwBd1moRQOo1TDBZrE4"
  },
  {
    "name": "SuperPark Highpoint",
    "address": "Shop L07 6201/200 Rosamond Rd, Maribyrnong VIC 3032, Australia",
    "suburb": "Maribyrnong VIC 3032",
    "state": "VIC",
    "rating": 4.5,
    "reviews": 775,
    "lat": -37.7752876,
    "lng": 144.8900563,
    "place_id": "ChIJu9Q7cWNd1moRl2wsDlGYwDU",
    "maps_url": "https://www.google.com/maps/place/?q=place_id:ChIJu9Q7cWNd1moRl2wsDlGYwDU"
  },
  {
    "name": "AiroWorld Trampoline & Inflatable Park",
    "address": "61 Dohertys Rd, Altona North VIC 3025, Australia",
    "suburb": "Altona North VIC 3025",
    "state": "VIC",
    "rating": 4.3,
    "reviews": 453,
    "lat": -37.8328666,
    "lng": 144.8254547,
    "place_id": "ChIJWwIYmS1h1moR7orBQaHjlEc",
    "maps_url": "https://www.google.com/maps/place/?q=place_id:ChIJWwIYmS1h1moR7orBQaHjlEc"
  },
  {
    "name": "Jump Central Trampoline Centre",
    "address": "Unit 2/117 Cochranes Rd, Moorabbin VIC 3189, Australia",
    "suburb": "Moorabbin VIC 3189",
    "state": "VIC",
    "rating": 4.1,
    "reviews": 216,
    "lat": -37.9434318,
    "lng": 145.0771484,
    "place_id": "ChIJz8DU-Ylr1moRgW8kxuqmJNo",
    "maps_url": "https://www.google.com/maps/place/?q=place_id:ChIJz8DU-Ylr1moRgW8kxuqmJNo"
  },
  {
    "name": "BOUNCEinc Heidelberg",
    "address": "590 Waterdale Rd, Heidelberg West VIC 3081, Australia",
    "suburb": "Heidelberg West VIC 3081",
    "state": "VIC",
    "rating": 4.4,
    "reviews": 1991,
    "lat": -37.733462,
    "lng": 145.050635,
    "place_id": "ChIJA2hrlXVG1moRwMBCgzJbfHU",
    "maps_url": "https://www.google.com/maps/place/?q=place_id:ChIJA2hrlXVG1moRwMBCgzJbfHU"
  },
  {
    "name": "Gravity Zone",
    "address": "25 Oliphant Way, Seaford VIC 3198, Australia",
    "suburb": "Seaford VIC 3198",
    "state": "VIC",
    "rating": 4.2,
    "reviews": 930,
    "lat": -38.0967575,
    "lng": 145.1492242,
    "place_id": "ChIJI8x6YMYM1moRIX1G7i7Hquo",
    "maps_url": "https://www.google.com/maps/place/?q=place_id:ChIJI8x6YMYM1moRIX1G7i7Hquo"
  },
  {
    "name": "Airborn Air Park",
    "address": "Unit 2/195 Somerton Rd, Roxburgh Park VIC 3064, Australia",
    "suburb": "Roxburgh Park VIC 3064",
    "state": "VIC",
    "rating": 4.4,
    "reviews": 391,
    "lat": -37.6418984,
    "lng": 144.9323635,
    "place_id": "ChIJ__-_bk9Q1moRnrv4rLN2Ucs",
    "maps_url": "https://www.google.com/maps/place/?q=place_id:ChIJ__-_bk9Q1moRnrv4rLN2Ucs"
  },
  {
    "name": "Flip Out Braybrook",
    "address": "D1/67 Ashley St, Braybrook VIC 3019, Australia",
    "suburb": "Braybrook VIC 3019",
    "state": "VIC",
    "rating": 4,
    "reviews": 367,
    "lat": -37.7945147,
    "lng": 144.8617681,
    "place_id": "ChIJF_4zOMdf1moRkgG7mziLd0k",
    "maps_url": "https://www.google.com/maps/place/?q=place_id:ChIJF_4zOMdf1moRkgG7mziLd0k"
  },
  {
    "name": "Rush HQ",
    "address": "39 S Corporate Ave, Rowville VIC 3178, Australia",
    "suburb": "Rowville VIC 3178",
    "state": "VIC",
    "rating": 4.4,
    "reviews": 1360,
    "lat": -37.9256606,
    "lng": 145.2190607,
    "place_id": "ChIJjwzFEvsV1moRWsI3ccFCX5U",
    "maps_url": "https://www.google.com/maps/place/?q=place_id:ChIJjwzFEvsV1moRWsI3ccFCX5U"
  },
  {
    "name": "BOUNCE Inc Blackburn",
    "address": "22 Joseph St, Blackburn North VIC 3130, Australia",
    "suburb": "Blackburn North VIC 3130",
    "state": "VIC",
    "rating": 4.5,
    "reviews": 1811,
    "lat": -37.8002998,
    "lng": 145.1453699,
    "place_id": "ChIJn1axZaI41moRK_DTKgFubpw",
    "maps_url": "https://www.google.com/maps/place/?q=place_id:ChIJn1axZaI41moRK_DTKgFubpw"
  },
  {
    "name": "Adventure Rooms Melbourne (Bourke St) - Escape Rooms",
    "address": "Level 1/168 Bourke St, Melbourne VIC 3000, Australia",
    "suburb": "Melbourne VIC 3000",
    "state": "VIC",
    "rating": 5,
    "reviews": 674,
    "lat": -37.8124637,
    "lng": 144.9681326,
    "place_id": "ChIJbYjGQblD1moRddQ0ncwVNjA",
    "maps_url": "https://www.google.com/maps/place/?q=place_id:ChIJbYjGQblD1moRddQ0ncwVNjA"
  },
  {
    "name": "Bubble Planet: An Immersive Experience in Melbourne",
    "address": "Fever Exhibition and Experience Centre Melbourne, 62 Dawson St, Brunswick VIC 3056, Australia",
    "suburb": "62 Dawson St",
    "state": "VIC",
    "rating": 4.7,
    "reviews": 1000,
    "lat": -37.770786,
    "lng": 144.9561863,
    "place_id": "ChIJSbnB2YFd1moRpQFRWO1ZEJM",
    "maps_url": "https://www.google.com/maps/place/?q=place_id:ChIJSbnB2YFd1moRpQFRWO1ZEJM"
  },
  {
    "name": "Bounce Melbourne",
    "address": "250 Flinders St, Melbourne VIC 3000, Australia",
    "suburb": "Melbourne VIC 3000",
    "state": "VIC",
    "rating": 4.6,
    "reviews": 653,
    "lat": -37.8176923,
    "lng": 144.9660972,
    "place_id": "ChIJFz8E6j5D1moRyqjLtAMXJj4",
    "maps_url": "https://www.google.com/maps/place/?q=place_id:ChIJFz8E6j5D1moRyqjLtAMXJj4"
  },
  {
    "name": "Flip Out Box Hill",
    "address": "T2/249 Middleborough Rd, Box Hill South VIC 3128, Australia",
    "suburb": "Box Hill South VIC 3128",
    "state": "VIC",
    "rating": 4.2,
    "reviews": 573,
    "lat": -37.8380074,
    "lng": 145.1332871,
    "place_id": "ChIJTUEsF8lB1moRsngUAT84GEY",
    "maps_url": "https://www.google.com/maps/place/?q=place_id:ChIJTUEsF8lB1moRsngUAT84GEY"
  },
  {
    "name": "Luna Park Melbourne",
    "address": "18 Lower Esplanade, St Kilda VIC 3182, Australia",
    "suburb": "St Kilda VIC 3182",
    "state": "VIC",
    "rating": 4.1,
    "reviews": 9336,
    "lat": -37.8678147,
    "lng": 144.976924,
    "place_id": "ChIJZ_cOG2Ro1moRQbFsJ6rXAL8",
    "maps_url": "https://www.google.com/maps/place/?q=place_id:ChIJZ_cOG2Ro1moRQbFsJ6rXAL8"
  },
  {
    "name": "Entermission Melbourne CBD - VR & Escape Rooms",
    "address": "Level 1/164 Bourke St, Melbourne VIC 3000, Australia",
    "suburb": "Melbourne VIC 3000",
    "state": "VIC",
    "rating": 4.9,
    "reviews": 1259,
    "lat": -37.8124828,
    "lng": 144.9683876,
    "place_id": "ChIJBQUdvWdD1moR8ovvY7jlJME",
    "maps_url": "https://www.google.com/maps/place/?q=place_id:ChIJBQUdvWdD1moR8ovvY7jlJME"
  },
  {
    "name": "Flip Out Derrimut",
    "address": "2/21 Elgar Rd, Derrimut VIC 3026, Australia",
    "suburb": "Derrimut VIC 3026",
    "state": "VIC",
    "rating": 3.9,
    "reviews": 554,
    "lat": -37.7844,
    "lng": 144.7737,
    "place_id": "ChIJ3T5oT72K1moR9v29O224kS8",
    "maps_url": "https://www.google.com/maps/place/?q=place_id:ChIJ3T5oT72K1moR9v29O224kS8"
  },
  {
    "name": "BOUNCE Inc Keysborough",
    "address": "1 Fiveways Boulevarde, Keysborough VIC 3173, Australia",
    "suburb": "Keysborough VIC 3173",
    "state": "VIC",
    "rating": 4.4,
    "reviews": 1492,
    "lat": -37.9872921,
    "lng": 145.1460462,
    "place_id": "ChIJZVRmc04T1moRw_ac4STHuxE",
    "maps_url": "https://www.google.com/maps/place/?q=place_id:ChIJZVRmc04T1moRw_ac4STHuxE"
  },
  {
    "name": "Flip Out Knox",
    "address": "Westfield Knox Ozone, Shop 2205B/425 Burwood Hwy, Wantirna South VIC 3152, Australia",
    "suburb": "Shop 2205B/425 Burwood Hwy",
    "state": "VIC",
    "rating": 4.7,
    "reviews": 334,
    "lat": -37.8684833,
    "lng": 145.2430378,
    "place_id": "ChIJTbu81p091moRo2ULcekdxYc",
    "maps_url": "https://www.google.com/maps/place/?q=place_id:ChIJTbu81p091moRo2ULcekdxYc"
  },
  {
    "name": "Jumpz Anglesea",
    "address": "105 Great Ocean Rd, Anglesea VIC 3230, Australia",
    "suburb": "Anglesea VIC 3230",
    "state": "VIC",
    "rating": 3.5,
    "reviews": 33,
    "lat": -38.4078079,
    "lng": 144.1859877,
    "place_id": "ChIJJ7UX9TB81GoREzp0bfrgAZ0",
    "maps_url": "https://www.google.com/maps/place/?q=place_id:ChIJJ7UX9TB81GoREzp0bfrgAZ0"
  },
  {
    "name": "Mr Trampoline",
    "address": "966 Dandenong Rd, Carnegie VIC 3163, Australia",
    "suburb": "Carnegie VIC 3163",
    "state": "VIC",
    "rating": 4.9,
    "reviews": 62,
    "lat": -37.881894,
    "lng": 145.0498164,
    "place_id": "ChIJa3vXFZBB1moRlc-SLtI04EE",
    "maps_url": "https://www.google.com/maps/place/?q=place_id:ChIJa3vXFZBB1moRlc-SLtI04EE"
  },
  {
    "name": "Kahuna - Favourite Trampolines in Australia",
    "address": "41-45 Mills Rd, Braeside VIC 3195, Australia",
    "suburb": "Braeside VIC 3195",
    "state": "VIC",
    "rating": 4.7,
    "reviews": 90,
    "lat": -37.994185,
    "lng": 145.1151558,
    "place_id": "ChIJq4AsAuRr1moRg1-a8MUjMhs",
    "maps_url": "https://www.google.com/maps/place/?q=place_id:ChIJq4AsAuRr1moRg1-a8MUjMhs"
  },
  {
    "name": "The Mystery Rooms - Melbourne",
    "address": "303 Napier St, Fitzroy VIC 3065, Australia",
    "suburb": "Fitzroy VIC 3065",
    "state": "VIC",
    "rating": 4.9,
    "reviews": 1165,
    "lat": -37.798895,
    "lng": 144.980489,
    "place_id": "ChIJow0BiiBD1moRZRzYua-2XNQ",
    "maps_url": "https://www.google.com/maps/place/?q=place_id:ChIJow0BiiBD1moRZRzYua-2XNQ"
  },
  {
    "name": "CUBBIES Fitzroy Adventure Playground",
    "address": "Condell St, Fitzroy VIC 3065, Australia",
    "suburb": "Fitzroy VIC 3065",
    "state": "VIC",
    "rating": 4,
    "reviews": 32,
    "lat": -37.8026301,
    "lng": 144.9792258,
    "place_id": "ChIJjyFUwt5C1moRyeKc0d2tHcs",
    "maps_url": "https://www.google.com/maps/place/?q=place_id:ChIJjyFUwt5C1moRyeKc0d2tHcs"
  },
  {
    "name": "Glamorama Nightclub",
    "address": "393 Brunswick St, Fitzroy VIC 3065, Australia",
    "suburb": "Fitzroy VIC 3065",
    "state": "VIC",
    "rating": 4.1,
    "reviews": 651,
    "lat": -37.7954312,
    "lng": 144.9787494,
    "place_id": "ChIJTSVHQiFD1moR2oQeebjqDAY",
    "maps_url": "https://www.google.com/maps/place/?q=place_id:ChIJTSVHQiFD1moR2oQeebjqDAY"
  },
  {
    "name": "One Playzone",
    "address": "Unit 14/10 Assembly Dr, Dandenong South VIC 3175, Australia",
    "suburb": "Dandenong South VIC 3175",
    "state": "VIC",
    "rating": 4.9,
    "reviews": 91,
    "lat": -38.0037325,
    "lng": 145.2464855,
    "place_id": "ChIJVVWV8EoR1moRrGtVdVeEYxA",
    "maps_url": "https://www.google.com/maps/place/?q=place_id:ChIJVVWV8EoR1moRrGtVdVeEYxA"
  },
  {
    "name": "Inflatable Fun Park",
    "address": "29 Brindley St, Dandenong South VIC 3175, Australia",
    "suburb": "Dandenong South VIC 3175",
    "state": "VIC",
    "rating": 4,
    "reviews": 99,
    "lat": -38.0084604,
    "lng": 145.1936032,
    "place_id": "ChIJly7pJNQ_1moRZoDjK36hcfg",
    "maps_url": "https://www.google.com/maps/place/?q=place_id:ChIJly7pJNQ_1moRZoDjK36hcfg"
  },