[
  {
    "name": "Advantaged Care at Bondi Waters",
    "address": "47/51 O'Brien St, Bondi Beach NSW 2026, Australia",
    "suburb": "Bondi Beach NSW 2026",
    "state": "NSW",
    "rating": 5,
    "reviews": 9,
    "lat": -33.888766,
    "lng": 151.2683831,
    "place_id": "ChIJ56LyVJetEmsRZlDI0spRoWQ",
    "maps_url": "https://www.google.com/maps/place/?q=place_id:ChIJ56LyVJetEmsRZlDI0spRoWQ"
  },
  {
    "name": "Homewood Care - Nursing Home & Aged Care",
    "address": "60 Regent St, Bexley NSW 2207, Australia",
    "suburb": "Bexley NSW 2207",
    "state": "NSW",
    "rating": 4.8,
    "reviews": 113,
    "lat": -33.9542393,
    "lng": 151.1119993,
    "place_id": "ChIJ78L_Moy5EmsRNiJIWs1UOjw",
    "maps_url": "https://www.google.com/maps/place/?q=place_id:ChIJ78L_Moy5EmsRNiJIWs1UOjw"
  },
  {
    "name": "St Vincent's Aged Care Haberfield",
    "address": "7 Tillock St, Haberfield NSW 2045, Australia",
    "suburb": "Haberfield NSW 2045",
    "state": "NSW",
    "rating": 4.5,
    "reviews": 21,
    "lat": -33.8763027,
    "lng": 151.1466564,
    "place_id": "ChIJoWLBfQGwEmsRtem1Qgkj794",
    "maps_url": "https://www.google.com/maps/place/?q=place_id:ChIJoWLBfQGwEmsRtem1Qgkj794"
  },
  {
    "name": "Lansdowne Gardens Care Community",
    "address": "11 Manns Ave, Neutral Bay NSW 2089, Australia",
    "suburb": "Neutral Bay NSW 2089",
    "state": "NSW",
    "rating": 4.7,
    "reviews": 13,
    "lat": -33.840993,
    "lng": 151.2186908,
    "place_id": "ChIJe2b8LY6uEmsRmV7Mipo-OY4",
    "maps_url": "https://www.google.com/maps/place/?q=place_id:ChIJe2b8LY6uEmsRmV7Mipo-OY4"
  },
  {
    "name": "Lulworth House",
    "address": "73 Roslyn Gardens, Elizabeth Bay NSW 2011, Australia",
    "suburb": "Elizabeth Bay NSW 2011",
    "state": "NSW",
    "rating": 4.2,
    "reviews": 31,
    "lat": -33.8749264,
    "lng": 151.2264357,
    "place_id": "ChIJK3v4lQyuEmsRwAu-OCwwF0s",
    "maps_url": "https://www.google.com/maps/place/?q=place_id:ChIJK3v4lQyuEmsRwAu-OCwwF0s"
  },
  {
    "name": "The Aged Care Expert Sydney",
    "address": "Suite 204/111 Harrington St, The Rocks NSW 2000, Australia",
    "suburb": "The Rocks NSW 2000",
    "state": "NSW",
    "rating": 5,
    "reviews": 2,
    "lat": -33.8615765,
    "lng": 151.2069651,
    "place_id": "ChIJOxU0pYOvEmsRxPQvkB4OMBs",
    "maps_url": "https://www.google.com/maps/place/?q=place_id:ChIJOxU0pYOvEmsRxPQvkB4OMBs"
  },
  {
    "name": "Bupa Aged Care Baulkham Hills",
    "address": "4 The Cottell Way, Baulkham Hills NSW 2153, Australia",
    "suburb": "Baulkham Hills NSW 2153",
    "state": "NSW",
    "rating": 4.7,
    "reviews": 99,
    "lat": -33.7551858,
    "lng": 150.9886198,
    "place_id": "ChIJbzKRBiaiEmsRYAHyl0aXVy0",
    "maps_url": "https://www.google.com/maps/place/?q=place_id:ChIJbzKRBiaiEmsRYAHyl0aXVy0"
  },
  {
    "name": "St Mary's Villa Residential Aged Care",
    "address": "56 Burton St, Concord NSW 2137, Australia",
    "suburb": "Concord NSW 2137",
    "state": "NSW",
    "rating": 4,
    "reviews": 16,
    "lat": -33.8675973,
    "lng": 151.1028853,
    "place_id": "ChIJc20AoNG6EmsR97o85FK6XWo",
    "maps_url": "https://www.google.com/maps/place/?q=place_id:ChIJc20AoNG6EmsR97o85FK6XWo"
  },
  {
    "name": "Macquarie Lodge Aged Care Centre",
    "address": "171 Wollongong Rd, Arncliffe NSW 2205, Australia",
    "suburb": "Arncliffe NSW 2205",
    "state": "NSW",
    "rating": 4.6,
    "reviews": 18,
    "lat": -33.9396569,
    "lng": 151.1348513,
    "place_id": "ChIJ5Vnp0wi6EmsRzGKHlhxWR-I",
    "maps_url": "https://www.google.com/maps/place/?q=place_id:ChIJ5Vnp0wi6EmsRzGKHlhxWR-I"
  },
  {
    "name": "St Luke's Care",
    "address": "18 Roslyn St, Potts Point NSW 2011, Australia",
    "suburb": "Potts Point NSW 2011",
    "state": "NSW",
    "rating": 4.2,
    "reviews": 129,
    "lat": -33.8743749,
    "lng": 151.2255081,
    "place_id": "ChIJy-M9wgyuEmsR_uCSm6mqVF0",
    "maps_url": "https://www.google.com/maps/place/?q=place_id:ChIJy-M9wgyuEmsR_uCSm6mqVF0"
  },
  {
    "name": "Opal HealthCare",
    "address": "Level 11/420 George St, Sydney NSW 2000, Australia",
    "suburb": "Sydney NSW 2000",
    "state": "NSW",
    "rating": 3,
    "reviews": 33,
    "lat": -33.869587,
    "lng": 151.2075952,
    "place_id": "ChIJg0zWsHWLtAERQK00jm5lKdA",
    "maps_url": "https://www.google.com/maps/place/?q=place_id:ChIJg0zWsHWLtAERQK00jm5lKdA"
  },
  {
    "name": "SummitCare Waverley",
    "address": "321 Bronte Rd, Waverley NSW 2024, Australia",
    "suburb": "Waverley NSW 2024",
    "state": "NSW",
    "rating": 4.3,
    "reviews": 32,
    "lat": -33.9035522,
    "lng": 151.2562172,
    "place_id": "ChIJHXG11gqyEmsRaYEl9aT3GsQ",
    "maps_url": "https://www.google.com/maps/place/?q=place_id:ChIJHXG11gqyEmsRaYEl9aT3GsQ"
  },
  {
    "name": "Adventist Aged Care - Sydney",
    "address": "79 Mount Pleasant Ave, Wahroonga NSW 2076, Australia",
    "suburb": "Wahroonga NSW 2076",
    "state": "NSW",
    "rating": 4,
    "reviews": 23,
    "lat": -33.7308244,
    "lng": 151.0961228,
    "place_id": "ChIJK0wToqmnEmsROExCGyOV1L0",
    "maps_url": "https://www.google.com/maps/place/?q=place_id:ChIJK0wToqmnEmsROExCGyOV1L0"
  },
  {
    "name": "St Vincent’s Aged Care Bronte",
    "address": "365 Bronte Rd, Bronte NSW 2024, Australia",
    "suburb": "Bronte NSW 2024",
    "state": "NSW",
    "rating": 4.8,
    "reviews": 42,
    "lat": -33.9034586,
    "lng": 151.2604396,
    "place_id": "ChIJp_EUmHWyEmsRJ-r1C9g3_Xk",
    "maps_url": "https://www.google.com/maps/place/?q=place_id:ChIJp_EUmHWyEmsRJ-r1C9g3_Xk"
  },
  {
    "name": "Montrose Aged Care Centre",
    "address": "13 Thames St, Balmain NSW 2041, Australia",
    "suburb": "Balmain NSW 2041",
    "state": "NSW",
    "rating": 5,
    "reviews": 3,
    "lat": -33.8565922,
    "lng": 151.184292,
    "place_id": "ChIJVbdadrOvEmsRhg7YtChk5Ew",
    "maps_url": "https://www.google.com/maps/place/?q=place_id:ChIJVbdadrOvEmsRhg7YtChk5Ew"
  },
  {
    "name": "St Vincent’s Aged Care Auburn",
    "address": "21 Alice St, Auburn NSW 2144, Australia",
    "suburb": "Auburn NSW 2144",
    "state": "NSW",
    "rating": 4.3,
    "reviews": 46,
    "lat": -33.849517,
    "lng": 151.028876,
    "place_id": "ChIJqaHXtba8EmsRk6cK7o6SynU",
    "maps_url": "https://www.google.com/maps/place/?q=place_id:ChIJqaHXtba8EmsRk6cK7o6SynU"
  },
  {
    "name": "St Vincent's Aged Care Edgecliff",
    "address": "2-6 Albert St, Edgecliff NSW 2027, Australia",
    "suburb": "Edgecliff NSW 2027",
    "state": "NSW",
    "rating": 3.8,
    "reviews": 22,
    "lat": -33.8809462,
    "lng": 151.2383395,
    "place_id": "ChIJ6TtbWeGtEmsRlZck6T7zcRo",
    "maps_url": "https://www.google.com/maps/place/?q=place_id:ChIJ6TtbWeGtEmsRlZck6T7zcRo"
  },
  {
    "name": "Castle Hill Aged Care Home",
    "address": "42 Darcey Rd, Castle Hill NSW 2154, Australia",
    "suburb": "Castle Hill NSW 2154",
    "state": "NSW",
    "rating": 4.2,
    "reviews": 5,
    "lat": -33.7410722,
    "lng": 151.0155398,
    "place_id": "ChIJk71fyW2hEmsRlI9iM4yRimY",
    "maps_url": "https://www.google.com/maps/place/?q=place_id:ChIJk71fyW2hEmsRlI9iM4yRimY"
  },
  {
    "name": "HammondCare Darlinghurst Residential Aged Care",
    "address": "118A Darlinghurst Rd, Darlinghurst NSW 2010, Australia",
    "suburb": "Darlinghurst NSW 2010",
    "state": "NSW",
    "rating": 4,
    "reviews": 4,
    "lat": -33.876712,
    "lng": 151.2212958,
    "place_id": "ChIJ311F0QyuEmsRhxs-TjHLcUg",
    "maps_url": "https://www.google.com/maps/place/?q=place_id:ChIJ311F0QyuEmsRhxs-TjHLcUg"
  },
  {
    "name": "SummitCare Randwick",
    "address": "15 Frenchmans Rd, Randwick NSW 2031, Australia",
    "suburb": "Randwick NSW 2031",
    "state": "NSW",
    "rating": 4.4,
    "reviews": 16,
    "lat": -33.90845400000001,
    "lng": 151.245432,
    "place_id": "ChIJ8VDk_g-yEmsRpELUph4FXOs",
    "maps_url": "https://www.google.com/maps/place/?q=place_id:ChIJ8VDk_g-yEmsRpELUph4FXOs"
  },
  {
    "name": "Calvary St Martin de Porres - Residential Aged Care",
    "address": "26 Lorna St, Waratah NSW 2298, Australia",
    "suburb": "Waratah NSW 2298",
    "state": "NSW",
    "rating": 5,
    "reviews": 4,
    "lat": -32.899078,
    "lng": 151.7233886,
    "place_id": "ChIJlaalN3MVc2sRCX_PdGxcjwQ",
    "maps_url": "https://www.google.com/maps/place/?q=place_id:ChIJlaalN3MVc2sRCX_PdGxcjwQ"
  },
  {
    "name": "Maroba",
    "address": "58 Edith St, Waratah NSW 2298, Australia",
    "suburb": "Waratah NSW 2298",
    "state": "NSW",
    "rating": 3.9,
    "reviews": 19,
    "lat": -32.9026436,
    "lng": 151.720201,
    "place_id": "ChIJ5bm-sXUVc2sRlxFAKgRt9VA",
    "maps_url": "https://www.google.com/maps/place/?q=place_id:ChIJ5bm-sXUVc2sRlxFAKgRt9VA"
  },
  {
    "name": "Amaroo Aged Care Facility",
    "address": "66 Dudley Rd, Charlestown NSW 2290, Australia",
    "suburb": "Charlestown NSW 2290",
    "state": "NSW",
    "rating": 4,
    "reviews": 7,
    "lat": -32.971281,
    "lng": 151.6995272,
    "place_id": "ChIJF7BQFog9c2sRmfywBFEOKHM",
    "maps_url": "https://www.google.com/maps/place/?q=place_id:ChIJF7BQFog9c2sRmfywBFEOKHM"
  },
  {
    "name": "Scenic Lodge Residential Aged Care",
    "address": "251 Scenic Dr, Merewether NSW 2291, Australia",
    "suburb": "Merewether NSW 2291",
    "state": "NSW",
    "rating": 4.5,
    "reviews": 14,
    "lat": -32.9496452,
    "lng": 151.7289305,
    "place_id": "ChIJr5Q76HUWc2sRmDY-dMIdir0",
    "maps_url": "https://www.google.com/maps/place/?q=place_id:ChIJr5Q76HUWc2sRmDY-dMIdir0"
  },
  {
    "name": "Mayfield Aged Care",
    "address": "115 Crebert St, Mayfield NSW 2304, Australia",
    "suburb": "Mayfield NSW 2304",
    "state": "NSW",
    "rating": 4.5,
    "reviews": 11,
    "lat": -32.8950287,
    "lng": 151.7406396,
    "place_id": "ChIJWx6s-hsVc2sRe0jAXk59RIY",
    "maps_url": "https://www.google.com/maps/place/?q=place_id:ChIJWx6s-hsVc2sRe0jAXk59RIY"
  },
  {
    "name": "Bupa Aged Care Waratah",
    "address": "219 Christo Rd, Waratah NSW 2298, Australia",
    "suburb": "Waratah NSW 2298",
    "state": "NSW",
    "rating": 3.6,
    "reviews": 14,
    "lat": -32.9077482,
    "lng": 151.7150782,
    "place_id": "ChIJ4SUphpwVc2sRTyo6dSsx5eo",
    "maps_url": "https://www.google.com/maps/place/?q=place_id:ChIJ4SUphpwVc2sRTyo6dSsx5eo"
  },
  {
    "name": "HammondCare Waratah Residential Aged Care",
    "address": "15 Tinonee Rd, Waratah NSW 2298, Australia",
    "suburb": "Waratah NSW 2298",
    "state": "NSW",
    "rating": 3.9,
    "reviews": 56,
    "lat": -32.9086015,
    "lng": 151.7253641,
    "place_id": "ChIJRcbax6EVc2sRALeLBwKZRhA",
    "maps_url": "https://www.google.com/maps/place/?q=place_id:ChIJRcbax6EVc2sRALeLBwKZRhA"
  },
  {
    "name": "Calvary St Joseph's - Residential Aged Care and Retirement Living",
    "address": "240 Maitland Rd, Sandgate NSW 2304, Australia",
    "suburb": "Sandgate NSW 2304",
    "state": "NSW",
    "rating": 4.2,
    "reviews": 25,
    "lat": -32.8587622,
    "lng": 151.7033966,
    "place_id": "ChIJnwLMKatqc2sRcNmIp4qi0Oo",
    "maps_url": "https://www.google.com/maps/place/?q=place_id:ChIJnwLMKatqc2sRcNmIp4qi0Oo"
  },
  {
    "name": "Dovida Newcastle",
    "address": "Melvic Centre Cnr Macquarie and, Shop 4A Thomas St, Belmont NSW 2280, Australia",
    "suburb": "Shop 4A Thomas St",
    "state": "NSW",
    "rating": 5,
    "reviews": 15,
    "lat": -33.0360079,
    "lng": 151.6599631,
    "place_id": "ChIJZWcSzJIjc2sRWpz9Gqbs030",
    "maps_url": "https://www.google.com/maps/place/?q=place_id:ChIJZWcSzJIjc2sRWpz9Gqbs030"
  },
  {
    "name": "Groves House, Cardiff Heights - Residential Aged Care",
    "address": "131 Main Rd, Cardiff Heights NSW 2285, Australia",
    "suburb": "Cardiff Heights NSW 2285",
    "state": "NSW",
    "rating": 3.6,
    "reviews": 5,
    "lat": -32.9356867,
    "lng": 151.6725169,
    "place_id": "ChIJy4cwad89c2sROHGPcnFzRvk",
    "maps_url": "https://www.google.com/maps/place/?q=place_id:ChIJy4cwad89c2sROHGPcnFzRvk"
  },
  {
    "name": "Hunter Valley Care",
    "address": "31 Tinglewood Cl, Tingira Heights NSW 2290, Australia",
    "suburb": "Tingira Heights NSW 2290",
    "state": "NSW",
    "rating": 3.8,
    "reviews": 6,
    "lat": -32.997546,
    "lng": 151.6636513,
    "place_id": "ChIJlX44MH47c2sRABx7Oo-dJYM",
    "maps_url": "https://www.google.com/maps/place/?q=place_id:ChIJlX44MH47c2sRABx7Oo-dJYM"
  },
  {
    "name": "RSL LifeCare - Long Tan Retirement Village",
    "address": "510 King St, Newcastle West NSW 2300, Australia",
    "suburb": "Newcastle West NSW 2300",
    "state": "NSW",
    "rating": 4.9,
    "reviews": 11,
    "lat": -32.9263005,
    "lng": 151.7596472,
    "place_id": "ChIJ1yYjRZAVc2sRu9o5LMrk8cg",
    "maps_url": "https://www.google.com/maps/place/?q=place_id:ChIJ1yYjRZAVc2sRu9o5LMrk8cg"
  },
  {
    "name": "Wallsend Aged Care Facility",
    "address": "Shields Ln, Wallsend NSW 2287, Australia",
    "suburb": "Wallsend NSW 2287",
    "state": "NSW",
    "rating": 3,
    "reviews": 4,
    "lat": -32.8994858,
    "lng": 151.6782597,
    "place_id": "ChIJ5wAuBF4_c2sRcztIQLvW_xc",
    "maps_url": "https://www.google.com/maps/place/?q=place_id:ChIJ5wAuBF4_c2sRcztIQLvW_xc"
  },
  {
    "name": "BaptistCare Warabrook Centre Aged Care Home",
    "address": "24 Casuarina Cct, Warabrook NSW 2304, Australia",
    "suburb": "Warabrook NSW 2304",
    "state": "NSW",
    "rating": 3.5,
    "reviews": 49,
    "lat": -32.8880422,
    "lng": 151.7211178,
    "place_id": "ChIJg5w5DmsVc2sRranzk0izgWE",
    "maps_url": "https://www.google.com/maps/place/?q=place_id:ChIJg5w5DmsVc2sRranzk0izgWE"
  },
  {
    "name": "Calvary St Francis - Residential Aged Care and Retirement Living",
    "address": "12 Gleeson Cres, Eleebana NSW 2282, Australia",
    "suburb": "Eleebana NSW 2282",
    "state": "NSW",
    "rating": 2.7,
    "reviews": 3,
    "lat": -32.9985529,
    "lng": 151.6449875,
    "place_id": "ChIJ7cDZ99o8c2sRzuOksQjKAEM",
    "maps_url": "https://www.google.com/maps/place/?q=place_id:ChIJ7cDZ99o8c2sRzuOksQjKAEM"
  },
  {
    "name": "Carpenter Court Aged Care Centre",
    "address": "46 John Parade, Merewether NSW 2291, Australia",
    "suburb": "Merewether NSW 2291",
    "state": "NSW",
    "rating": 3.7,
    "reviews": 7,
    "lat": -32.9472861,
    "lng": 151.7575472,
    "place_id": "ChIJ_U1Roi8Uc2sRxUPPh8Y3k4E",
    "maps_url": "https://www.google.com/maps/place/?q=place_id:ChIJ_U1Roi8Uc2sRxUPPh8Y3k4E"
  },
  {
    "name": "Rethink Aged Care",
    "address": "2 Dick St, Newcastle West NSW 2302, Australia",
    "suburb": "Newcastle West NSW 2302",
    "state": "NSW",
    "rating": 4.8,
    "reviews": 5,
    "lat": -32.9295471,
    "lng": 151.7644902,
    "place_id": "ChIJyaWyltkVc2sRMM76vxs4uEE",
    "maps_url": "https://www.google.com/maps/place/?q=place_id:ChIJyaWyltkVc2sRMM76vxs4uEE"
  },
  {
    "name": "WaterView Aged Care Facility",
    "address": "16 Cumberland St, Teralba NSW 2284, Australia",
    "suburb": "Teralba NSW 2284",
    "state": "NSW",
    "rating": 4.4,
    "reviews": 7,
    "lat": -32.966557,
    "lng": 151.6055854,
    "place_id": "ChIJDSuavX07c2sR0MknLkSZPzg",
    "maps_url": "https://www.google.com/maps/place/?q=place_id:ChIJDSuavX07c2sR0MknLkSZPzg"
  },
  {
    "name": "Uniting Lindsay Gardens Hamilton",
    "address": "137A Lindsay St, Hamilton NSW 2303, Australia",
    "suburb": "Hamilton NSW 2303",
    "state": "NSW",
    "rating": 4.4,
    "reviews": 28,
    "lat": -32.9217079,
    "lng": 151.7394198,
    "place_id": "ChIJBablubEVc2sR-Dtusq6PcdE",
    "maps_url": "https://www.google.com/maps/place/?q=place_id:ChIJBablubEVc2sR-Dtusq6PcdE"
  },
  {
    "name": "Tingira Hills Care Community",
    "address": "3 Violet Town Rd, Mount Hutton NSW 2290, Australia",
    "suburb": "Mount Hutton NSW 2290",
    "state": "NSW",
    "rating": 4.3,
    "reviews": 25,
    "lat": -32.9869447,
    "lng": 151.6715489,
    "place_id": "ChIJo3rbIRI9c2sRsiV6jwhqcbE",
    "maps_url": "https://www.google.com/maps/place/?q=place_id:ChIJo3rbIRI9c2sRsiV6jwhqcbE"
  },
  {
    "name": "Warrigal Wollongong",
    "address": "Shop 1/1 Ross St, Wollongong NSW 2500, Australia",
    "suburb": "Wollongong NSW 2500",
    "state": "NSW",
    "rating": 4.2,
    "reviews": 21,
    "lat": -34.4350469,
    "lng": 150.8984666,
    "place_id": "ChIJUfGwqTgZE2sRx1av-a6a-9k",
    "maps_url": "https://www.google.com/maps/place/?q=place_id:ChIJUfGwqTgZE2sRx1av-a6a-9k"
  },
  {
    "name": "The Links Seaside by Warrigal",
    "address": "Shop 1/1 Ross St, Wollongong NSW 2500, Australia",
    "suburb": "Wollongong NSW 2500",
    "state": "NSW",
    "rating": 4.2,
    "reviews": 72,
    "lat": -34.4350015,
    "lng": 150.8984677,
    "place_id": "ChIJO3w-HrEZE2sRzE5wFMGsWH4",
    "maps_url": "https://www.google.com/maps/place/?q=place_id:ChIJO3w-HrEZE2sRzE5wFMGsWH4"
  },
  {
    "name": "Illawarra Diggers Aged & Community Care",
    "address": "8 Blundell Parade, Corrimal NSW 2518, Australia",
    "suburb": "Corrimal NSW 2518",
    "state": "NSW",
    "rating": 4.5,
    "reviews": 42,
    "lat": -34.3668725,
    "lng": 150.8940125,
    "place_id": "ChIJ6cEvIsUeE2sRgSsJ5JLdagc",
    "maps_url": "https://www.google.com/maps/place/?q=place_id:ChIJ6cEvIsUeE2sRgSsJ5JLdagc"
  },
  {
    "name": "Wollongong Nursing Home",
    "address": "12 Suttor Pl, Figtree NSW 2525, Australia",
    "suburb": "Figtree NSW 2525",
    "state": "NSW",
    "rating": 5,
    "reviews": 1,
    "lat": -34.4391436,
    "lng": 150.849851,
    "place_id": "ChIJ____UAUaE2sRijwoqwRCjhY",
    "maps_url": "https://www.google.com/maps/place/?q=place_id:ChIJ____UAUaE2sRijwoqwRCjhY"
  },
  {
    "name": "Dovida",
    "address": "Level 3/5 Bridge St, Coniston NSW 2500, Australia",
    "suburb": "Coniston NSW 2500",
    "state": "NSW",
    "rating": 4.8,
    "reviews": 36,
    "lat": -34.4399283,
    "lng": 150.8868792,
    "place_id": "ChIJRxZdqQoUE2sRilCbacX_pYs",
    "maps_url": "https://www.google.com/maps/place/?q=place_id:ChIJRxZdqQoUE2sRilCbacX_pYs"
  },
  {
    "name": "Greenhill Aged Care",
    "address": "190 Princes Hwy, Figtree NSW 2525, Australia",
    "suburb": "Figtree NSW 2525",
    "state": "NSW",
    "rating": 4.4,
    "reviews": 23,
    "lat": -34.4430249,
    "lng": 150.8517937,
    "place_id": "ChIJq6qqtwUaE2sRpgt5Pcrxp9s",
    "maps_url": "https://www.google.com/maps/place/?q=place_id:ChIJq6qqtwUaE2sRpgt5Pcrxp9s"
  },
  {
    "name": "Diment - an IRT Community",
    "address": "39-45 Staff St, Wollongong NSW 2500, Australia",
    "suburb": "Wollongong NSW 2500",
    "state": "NSW",
    "rating": 4.3,
    "reviews": 4,
    "lat": -34.4272176,
    "lng": 150.8803536,
    "place_id": "ChIJr2yTapcZE2sR2lcJvF2HvpE",
    "maps_url": "https://www.google.com/maps/place/?q=place_id:ChIJr2yTapcZE2sR2lcJvF2HvpE"
  },
  {
    "name": "IRT Group",
    "address": "3/77 Market St, Wollongong NSW 2500, Australia",
    "suburb": "Wollongong NSW 2500",
    "state": "NSW",
    "rating": 3,
    "reviews": 7,
    "lat": -34.4235496,
    "lng": 150.8916931,
    "place_id": "ChIJp_jvmaYZE2sRI-nNm5yAusk",
    "maps_url": "https://www.google.com/maps/place/?q=place_id:ChIJp_jvmaYZE2sRI-nNm5yAusk"
  },
  {
    "name": "Warrigal Coniston",
    "address": "91 Bridge St, Coniston NSW 2500, Australia",
    "suburb": "Coniston NSW 2500",
    "state": "NSW",
    "rating": 4.3,
    "reviews": 14,
    "lat": -34.4373369,
    "lng": 150.878194,
    "place_id": "ChIJPXwNaM0ZE2sRNKhxYTmqAeE",
    "maps_url": "https://www.google.com/maps/place/?q=place_id:ChIJPXwNaM0ZE2sRNKhxYTmqAeE"
  },
  {
    "name": "Advance Nursing",
    "address": "Suite 2, Level 1/310 Crown St, Wollongong NSW 2500, Australia",
    "suburb": "Level 1/310 Crown St",
    "state": "NSW",
    "rating": 5,
    "reviews": 2,
    "lat": -34.4255965,
    "lng": 150.8878789,
    "place_id": "ChIJ___Pp6MZE2sRE6U6WBVUpRY",
    "maps_url": "https://www.google.com/maps/place/?q=place_id:ChIJ___Pp6MZE2sRE6U6WBVUpRY"
  },
  {
    "name": "Hillside at Figtree",
    "address": "190 Princes Hwy, Figtree NSW 2525, Australia",
    "suburb": "Figtree NSW 2525",
    "state": "NSW",
    "rating": 4.3,
    "reviews": 48,
    "lat": -34.4432123,
    "lng": 150.8517318,
    "place_id": "ChIJ87R_xBwaE2sRK_um7j0m0Uk",
    "maps_url": "https://www.google.com/maps/place/?q=place_id:ChIJ87R_xBwaE2sRK_um7j0m0Uk"
  },
  {
    "name": "Estia Health Figtree",
    "address": "12 Suttor Pl, Figtree NSW 2525, Australia",
    "suburb": "Figtree NSW 2525",
    "state": "NSW",
    "rating": 3.3,
    "reviews": 10,
    "lat": -34.4394836,
    "lng": 150.849411,
    "place_id": "ChIJF5_uUAUaE2sR2WG1mEsDP-c",
    "maps_url": "https://www.google.com/maps/place/?q=place_id:ChIJF5_uUAUaE2sR2WG1mEsDP-c"
  },
  {
    "name": "IRT William Beach Gardens",
    "address": "286 Kanahooka Rd, Kanahooka NSW 2530, Australia",
    "suburb": "Kanahooka NSW 2530",
    "state": "NSW",
    "rating": 4.1,
    "reviews": 65,
    "lat": -34.4877943,
    "lng": 150.8116104,
    "place_id": "ChIJNVSYRagRE2sRuuYxJxHLCrI",
    "maps_url": "https://www.google.com/maps/place/?q=place_id:ChIJNVSYRagRE2sRuuYxJxHLCrI"
  },
  {
    "name": "Anglicare Social and Wellness Centre Mount Ousley",
    "address": "29A McGrath St, Fairy Meadow NSW 2519, Australia",
    "suburb": "Fairy Meadow NSW 2519",
    "state": "NSW",
    "rating": 4.8,
    "reviews": 8,
    "lat": -34.3992078,
    "lng": 150.8890978,
    "place_id": "ChIJnYj-6BUZE2sRP_vKk0tt17I",
    "maps_url": "https://www.google.com/maps/place/?q=place_id:ChIJnYj-6BUZE2sRP_vKk0tt17I"
  },
  {
    "name": "Allcare - Aged Care & Support",
    "address": "Suite 7/135-143 Princes Hwy, Fairy Meadow NSW 2519, Australia",
    "suburb": "Fairy Meadow NSW 2519",
    "state": "NSW",
    "rating": 3.4,
    "reviews": 5,
    "lat": -34.4037424,
    "lng": 150.8904413,
    "place_id": "ChIJJYm91g8ZE2sRAwSLxR8c6B4",
    "maps_url": "https://www.google.com/maps/place/?q=place_id:ChIJJYm91g8ZE2sRAwSLxR8c6B4"
  },
  {
    "name": "Howard Court at IRT Pioneer Place",
    "address": "27A Stewart St, Wollongong NSW 2500, Australia",
    "suburb": "Wollongong NSW 2500",
    "state": "NSW",
    "rating": 4.6,
    "reviews": 8,
    "lat": -34.4281552,
    "lng": 150.897787,
    "place_id": "ChIJh2avCa8ZE2sRRXkky1IxFMc",
    "maps_url": "https://www.google.com/maps/place/?q=place_id:ChIJh2avCa8ZE2sRRXkky1IxFMc"
  },
  {
    "name": "IRT Tarrawanna",
    "address": "74/80 Caldwell Ave, Tarrawanna NSW 2518, Australia",
    "suburb": "Tarrawanna NSW 2518",
    "state": "NSW",
    "rating": 4,
    "reviews": 11,
    "lat": -34.3815684,
    "lng": 150.8865942,
    "place_id": "ChIJYZoKzDUZE2sR8jY9qmCzN1U",
    "maps_url": "https://www.google.com/maps/place/?q=place_id:ChIJYZoKzDUZE2sR8jY9qmCzN1U"
  },
  {
    "name": "Marco Polo Unanderra",
    "address": "66/70 Waples Rd, Unanderra NSW 2526, Australia",
    "suburb": "Unanderra NSW 2526",
    "state": "NSW",
    "rating": 4.2,
    "reviews": 47,
    "lat": -34.4561111,
    "lng": 150.8316667,
    "place_id": "ChIJybHK05AQE2sR5NJynNoez1g",
    "maps_url": "https://www.google.com/maps/place/?q=place_id:ChIJybHK05AQE2sR5NJynNoez1g"
  },
  {
    "name": "The CareSide",
    "address": "1 Burelli St, Wollongong NSW 2500, Australia",
    "suburb": "Wollongong NSW 2500",
    "state": "NSW",
    "rating": 3.7,
    "reviews": 3,
    "lat": -34.4274701,
    "lng": 150.9015111,
    "place_id": "ChIJif0_NewZE2sRv9M9Axmm_2A",
    "maps_url": "https://www.google.com/maps/place/?q=place_id:ChIJif0_NewZE2sRv9M9Axmm_2A"
  },
  {
    "name": "Warrigal Mount Warrigal",
    "address": "5 Rowland Ave, Mount Warrigal NSW 2528, Australia",
    "suburb": "Mount Warrigal NSW 2528",
    "state": "NSW",
    "rating": 4.4,
    "reviews": 27,
    "lat": -34.5472809,
    "lng": 150.8441008,
    "place_id": "ChIJ9fido-wTE2sRK0hEXn_d2uc",
    "maps_url": "https://www.google.com/maps/place/?q=place_id:ChIJ9fido-wTE2sRK0hEXn_d2uc"
  },
  {
    "name": "Killarney Vale Care Community",
    "address": "1 Daniel Cl, Killarney Vale NSW 2261, Australia",
    "suburb": "Killarney Vale NSW 2261",
    "state": "NSW",
    "rating": 4.8,
    "reviews": 21,
    "lat": -33.3650955,
    "lng": 151.4651754,
    "place_id": "ChIJVyXw8djOcmsRUFab_IaUtNg",
    "maps_url": "https://www.google.com/maps/place/?q=place_id:ChIJVyXw8djOcmsRUFab_IaUtNg"
  },
  {
    "name": "Kanwal Gardens Care Community",
    "address": "100 Wahroonga Rd, Kanwal NSW 2259, Australia",
    "suburb": "Kanwal NSW 2259",
    "state": "NSW",
    "rating": 4.6,
    "reviews": 18,
    "lat": -33.268838,
    "lng": 151.4768261,
    "place_id": "ChIJc8zKu0_QcmsRt5heXrwuv60",
    "maps_url": "https://www.google.com/maps/place/?q=place_id:ChIJc8zKu0_QcmsRt5heXrwuv60"
  },
  {
    "name": "Infinite Aged Care - Chamberlain Gardens",
    "address": "53-67 Chamberlain Rd, Wyoming NSW 2250, Australia",
    "suburb": "Wyoming NSW 2250",
    "state": "NSW",
    "rating": 4.2,
    "reviews": 26,
    "lat": -33.3984682,
    "lng": 151.3635913,
    "place_id": "ChIJawxek_zKcmsR6dqdDWztXiY",
    "maps_url": "https://www.google.com/maps/place/?q=place_id:ChIJawxek_zKcmsR6dqdDWztXiY"
  },
  {
    "name": "Berkeley Vale Care Community",
    "address": "8 Lorraine Ave, Berkeley Vale NSW 2261, Australia",
    "suburb": "Berkeley Vale NSW 2261",
    "state": "NSW",
    "rating": 4.1,
    "reviews": 46,
    "lat": -33.337959,
    "lng": 151.433544,
    "place_id": "ChIJK5Y-m4_OcmsRoOJDBafrKpk",
    "maps_url": "https://www.google.com/maps/place/?q=place_id:ChIJK5Y-m4_OcmsRoOJDBafrKpk"
  },
  {
    "name": "Bupa Aged Care Bateau Bay",
    "address": "17 Bias Ave, Bateau Bay NSW 2261, Australia",
    "suburb": "Bateau Bay NSW 2261",
    "state": "NSW",
    "rating": 4.4,
    "reviews": 21,
    "lat": -33.3790512,
    "lng": 151.4784393,
    "place_id": "ChIJ7y4TfDLPcmsRdgBY9AxhE8I",
    "maps_url": "https://www.google.com/maps/place/?q=place_id:ChIJ7y4TfDLPcmsRdgBY9AxhE8I"
  },
  {
    "name": "Arcare Aged Care Lisarow The Orchards",
    "address": "15 The Ridgeway, Lisarow NSW 2250, Australia",
    "suburb": "Lisarow NSW 2250",
    "state": "NSW",
    "rating": 4.4,
    "reviews": 22,
    "lat": -33.3858871,
    "lng": 151.3753051,
    "place_id": "ChIJcYHE6qfLcmsRBBe8ZMHNagI",
    "maps_url": "https://www.google.com/maps/place/?q=place_id:ChIJcYHE6qfLcmsRBBe8ZMHNagI"
  },
  {
    "name": "Evergreen West Gosford",
    "address": "22/32 Yallambee Ave, West Gosford NSW 2250, Australia",
    "suburb": "West Gosford NSW 2250",
    "state": "NSW",
    "rating": 4.3,
    "reviews": 47,
    "lat": -33.4308588,
    "lng": 151.322967,
    "place_id": "ChIJNUrk9qtKDWsRFl_z4VA0vB0",
    "maps_url": "https://www.google.com/maps/place/?q=place_id:ChIJNUrk9qtKDWsRFl_z4VA0vB0"
  },
  {
    "name": "Estia Health Erina",
    "address": "351 Terrigal Dr, Erina NSW 2250, Australia",
    "suburb": "Erina NSW 2250",
    "state": "NSW",
    "rating": 4.1,
    "reviews": 41,
    "lat": -33.4339904,
    "lng": 151.3992309,
    "place_id": "ChIJv6CNbw3KcmsRUkOo5tt_onE",
    "maps_url": "https://www.google.com/maps/place/?q=place_id:ChIJv6CNbw3KcmsRUkOo5tt_onE"
  },
  {
    "name": "Arcare Aged Care Kanwal",
    "address": "2 Pearce Rd, Kanwal NSW 2259, Australia",
    "suburb": "Kanwal NSW 2259",
    "state": "NSW",
    "rating": 4.5,
    "reviews": 19,
    "lat": -33.2677671,
    "lng": 151.481637,
    "place_id": "ChIJxUA1AlvQcmsR-9YgRh6jNOQ",
    "maps_url": "https://www.google.com/maps/place/?q=place_id:ChIJxUA1AlvQcmsR-9YgRh6jNOQ"
  },
  {
    "name": "Woodport Aged Care Centre",
    "address": "120-140 The Entrance Rd, Erina NSW 2250, Australia",
    "suburb": "Erina NSW 2250",
    "state": "NSW",
    "rating": 3.3,
    "reviews": 10,
    "lat": -33.4394721,
    "lng": 151.3768615,
    "place_id": "ChIJtUvgkX_KcmsRsXLhrFDJG7Y",
    "maps_url": "https://www.google.com/maps/place/?q=place_id:ChIJtUvgkX_KcmsRsXLhrFDJG7Y"
  },
  {
    "name": "BaptistCare Orana Centre Aged Care Home",
    "address": "193/201 Brisbane Water Dr, Point Clare NSW 2250, Australia",
    "suburb": "Point Clare NSW 2250",
    "state": "NSW",
    "rating": 4.8,
    "reviews": 6,
    "lat": -33.4379637,
    "lng": 151.3213224,
    "place_id": "ChIJAabII7JKDWsR3_fyoro9fW8",
    "maps_url": "https://www.google.com/maps/place/?q=place_id:ChIJAabII7JKDWsR3_fyoro9fW8"
  },
  {
    "name": "BlueWave Living",
    "address": "5/6 Kathleen St, Woy Woy NSW 2256, Australia",
    "suburb": "Woy Woy NSW 2256",
    "state": "NSW",
    "rating": 4.4,
    "reviews": 73,
    "lat": -33.497321,
    "lng": 151.322203,
    "place_id": "ChIJ51HH9U1LDWsRteUkEKOKMhY",
    "maps_url": "https://www.google.com/maps/place/?q=place_id:ChIJ51HH9U1LDWsRteUkEKOKMhY"
  },
  {
    "name": "Coastal Aged and Disability Care",
    "address": "85 Hastings Rd, Terrigal NSW 2260, Australia",
    "suburb": "Terrigal NSW 2260",
    "state": "NSW",
    "rating": 5,
    "reviews": 9,
    "lat": -33.4352444,
    "lng": 151.4294177,
    "place_id": "ChIJ-83fV33mei0Rl8E4xQaubb0",
    "maps_url": "https://www.google.com/maps/place/?q=place_id:ChIJ-83fV33mei0Rl8E4xQaubb0"
  },
  {
    "name": "Glengara Aged Care Apartments",
    "address": "Glengara Retirement Vlge, 220 Hansens Rd, Tumbi Umbi NSW 2261, Australia",
    "suburb": "220 Hansens Rd",
    "state": "NSW",
    "rating": 3,
    "reviews": 3,
    "lat": -33.3659357,
    "lng": 151.4370016,
    "place_id": "ChIJ2V4ZHrvPcmsRqmaMWgPqel0",
    "maps_url": "https://www.google.com/maps/place/?q=place_id:ChIJ2V4ZHrvPcmsRqmaMWgPqel0"
  },
  {
    "name": "Warnervale Gardens Residential Aged Care",
    "address": "171 Mataram Rd, Woongarrah NSW 2259, Australia",
    "suburb": "Woongarrah NSW 2259",
    "state": "NSW",
    "rating": 4.1,
    "reviews": 34,
    "lat": -33.2403645,
    "lng": 151.4735995,
    "place_id": "ChIJ9f0kI-fQcmsRsLjoMF6I1Wc",
    "maps_url": "https://www.google.com/maps/place/?q=place_id:ChIJ9f0kI-fQcmsRsLjoMF6I1Wc"
  },
  {
    "name": "Wallarah Point Care Community",
    "address": "149-157 Main Rd, Toukley NSW 2263, Australia",
    "suburb": "Toukley NSW 2263",
    "state": "NSW",
    "rating": 4.4,
    "reviews": 31,
    "lat": -33.2637441,
    "lng": 151.5334041,
    "place_id": "ChIJYYozBjrbcmsRfMRqHNJCeoQ",
    "maps_url": "https://www.google.com/maps/place/?q=place_id:ChIJYYozBjrbcmsRfMRqHNJCeoQ"
  },
  {
    "name": "Tarragal House - Thompson Health Care",
    "address": "Tarragal House, 107 Karalta Rd, Erina NSW 2250, Australia",
    "suburb": "107 Karalta Rd",
    "state": "NSW",
    "rating": 3.7,
    "reviews": 10,
    "lat": -33.441516,
    "lng": 151.397708,
    "place_id": "ChIJ88DYJQvKcmsRe167s7kkUvU",
    "maps_url": "https://www.google.com/maps/place/?q=place_id:ChIJ88DYJQvKcmsRe167s7kkUvU"
  },
  {
    "name": "Dovida Central Coast",
    "address": "Suite 1/30-32 Empire Bay Dr, Daleys Point NSW 2257, Australia",
    "suburb": "Daleys Point NSW 2257",
    "state": "NSW",
    "rating": 4.7,
    "reviews": 18,
    "lat": -33.4995929,
    "lng": 151.3554965,
    "place_id": "ChIJmWGX8lazcmsRcdtXNm2GsfA",
    "maps_url": "https://www.google.com/maps/place/?q=place_id:ChIJmWGX8lazcmsRcdtXNm2GsfA"
  },
  {
    "name": "HammondCare Home Care Central Coast",
    "address": "3 Reliance Dr, Tuggerah NSW 2259, Australia",
    "suburb": "Tuggerah NSW 2259",
    "state": "NSW",
    "rating": 4.5,
    "reviews": 8,
    "lat": -33.3137114,
    "lng": 151.4203387,
    "place_id": "ChIJQQqNfsDKcmsRzzr3NB1KZ0o",
    "maps_url": "https://www.google.com/maps/place/?q=place_id:ChIJQQqNfsDKcmsRzzr3NB1KZ0o"
  },
  {
    "name": "HammondCare Erina Residential Aged Care",
    "address": "341 Terrigal Dr, Erina NSW 2250, Australia",
    "suburb": "Erina NSW 2250",
    "state": "NSW",
    "rating": 2.6,
    "reviews": 10,
    "lat": -33.434822,
    "lng": 151.4007263,
    "place_id": "ChIJHcu-cRLKcmsR-XMwwGI7BAI",
    "maps_url": "https://www.google.com/maps/place/?q=place_id:ChIJHcu-cRLKcmsR-XMwwGI7BAI"
  },
  {
    "name": "Bolton Clarke Brentwood, Parramatta - Residential Aged Care",
    "address": "28 Glebe St, Parramatta NSW 2150, Australia",
    "suburb": "Parramatta NSW 2150",
    "state": "NSW",
    "rating": 4.5,
    "reviews": 11,
    "lat": -33.8206694,
    "lng": 150.9989267,
    "place_id": "ChIJ7WL4yNiiEmsRYyk3slgWQgM",
    "maps_url": "https://www.google.com/maps/place/?q=place_id:ChIJ7WL4yNiiEmsRYyk3slgWQgM"
  },
  {
    "name": "Christadelphian Aged Care",
    "address": "15 Gloucester Ave, North Parramatta NSW 2151, Australia",
    "suburb": "North Parramatta NSW 2151",
    "state": "NSW",
    "rating": 4.4,
    "reviews": 11,
    "lat": -33.7946884,
    "lng": 151.0109262,
    "place_id": "ChIJx1GSDbe-EmsRrXv5ie69V6Y",
    "maps_url": "https://www.google.com/maps/place/?q=place_id:ChIJx1GSDbe-EmsRrXv5ie69V6Y"
  },
  {
    "name": "Marian Residential Care",
    "address": "2A Fleet St, North Parramatta NSW 2151, Australia",
    "suburb": "North Parramatta NSW 2151",
    "state": "NSW",
    "rating": 3.7,
    "reviews": 6,
    "lat": -33.8039509,
    "lng": 151.0017774,
    "place_id": "ChIJezCOkwKjEmsRQfad0EDN8QY",
    "maps_url": "https://www.google.com/maps/place/?q=place_id:ChIJezCOkwKjEmsRQfad0EDN8QY"
  },
  {
    "name": "Northcourt Aged Care",
    "address": "7 Saunders St, North Parramatta NSW 2151, Australia",
    "suburb": "North Parramatta NSW 2151",
    "state": "NSW",
    "rating": 4,
    "reviews": 4,
    "lat": -33.7978096,
    "lng": 151.0094844,
    "place_id": "ChIJ9TuAgwejEmsRa8hWM_eVG3w",
    "maps_url": "https://www.google.com/maps/place/?q=place_id:ChIJ9TuAgwejEmsRa8hWM_eVG3w"
  },
  {
    "name": "Courtlands Village",
    "address": "15 Gloucester Ave, North Parramatta NSW 2151, Australia",
    "suburb": "North Parramatta NSW 2151",
    "state": "NSW",
    "rating": 4.4,
    "reviews": 26,
    "lat": -33.7947295,
    "lng": 151.0109025,
    "place_id": "ChIJNXGE-aijEmsReTEzglHfYsw",
    "maps_url": "https://www.google.com/maps/place/?q=place_id:ChIJNXGE-aijEmsReTEzglHfYsw"
  },
  {
    "name": "Uniting Lilian Wells North Parramatta",
    "address": "2B Fennell St, Parramatta NSW 2151, Australia",
    "suburb": "Parramatta NSW 2151",
    "state": "NSW",
    "rating": 3.1,
    "reviews": 9,
    "lat": -33.8046207,
    "lng": 151.0018325,
    "place_id": "ChIJ4X6QxgKjEmsRD9UqE0gzqgM",
    "maps_url": "https://www.google.com/maps/place/?q=place_id:ChIJ4X6QxgKjEmsRD9UqE0gzqgM"
  },
  {
    "name": "Arcare Aged Care Oatlands",
    "address": "23 Prindle St, Oatlands NSW 2117, Australia",
    "suburb": "Oatlands NSW 2117",
    "state": "NSW",
    "rating": 4.7,
    "reviews": 28,
    "lat": -33.794322,
    "lng": 151.024887,
    "place_id": "ChIJV14ylZijEmsRZHW6cCtVJ0Y",
    "maps_url": "https://www.google.com/maps/place/?q=place_id:ChIJV14ylZijEmsRZHW6cCtVJ0Y"
  },
  {
    "name": "Right at Home Sydney Parramatta",
    "address": "15/2 O'Connell St, Parramatta NSW 2150, Australia",
    "suburb": "Parramatta NSW 2150",
    "state": "NSW",
    "rating": 5,
    "reviews": 52,
    "lat": -33.817106,
    "lng": 150.9991493,
    "place_id": "ChIJJQI6bWejEmsRKHPWYoxJTnM",
    "maps_url": "https://www.google.com/maps/place/?q=place_id:ChIJJQI6bWejEmsRKHPWYoxJTnM"
  },
  {
    "name": "Bolton Clarke Cabrini, Westmead - Residential Aged Care",
    "address": "83-85 Amos St, Westmead NSW 2145, Australia",
    "suburb": "Westmead NSW 2145",
    "state": "NSW",
    "rating": 4.7,
    "reviews": 9,
    "lat": -33.8154688,
    "lng": 150.9849307,
    "place_id": "ChIJkZK7lMOiEmsRLjWS41Oubg0",
    "maps_url": "https://www.google.com/maps/place/?q=place_id:ChIJkZK7lMOiEmsRLjWS41Oubg0"
  },
  {
    "name": "Bupa Aged Care North Rocks",
    "address": "23 Speers Rd, North Rocks NSW 2151, Australia",
    "suburb": "North Rocks NSW 2151",
    "state": "NSW",
    "rating": 4.3,
    "reviews": 28,
    "lat": -33.7866372,
    "lng": 151.0025688,
    "place_id": "ChIJZdSkIq2jEmsRwXI2KaUawEw",
    "maps_url": "https://www.google.com/maps/place/?q=place_id:ChIJZdSkIq2jEmsRwXI2KaUawEw"
  },
  {
    "name": "Fairlea Aged Care @Harris Park",
    "address": "7/11 Crown St, Harris Park NSW 2150, Australia",
    "suburb": "Harris Park NSW 2150",
    "state": "NSW",
    "rating": 4,
    "reviews": 12,
    "lat": -33.8231984,
    "lng": 151.0120446,
    "place_id": "ChIJszwfUyOjEmsRaTJZ7xThYaQ",
    "maps_url": "https://www.google.com/maps/place/?q=place_id:ChIJszwfUyOjEmsRaTJZ7xThYaQ"
  },
  {
    "name": "Pearl Home Care - Greater Parramatta",
    "address": "Suite 5/234 Prospect Hwy, Seven Hills NSW 2147, Australia",
    "suburb": "Seven Hills NSW 2147",
    "state": "NSW",
    "rating": 4.7,
    "reviews": 14,
    "lat": -33.7757903,
    "lng": 150.9335341,
    "place_id": "ChIJm2yFnzq9EmsRZxMEH5lGZjs",
    "maps_url": "https://www.google.com/maps/place/?q=place_id:ChIJm2yFnzq9EmsRZxMEH5lGZjs"
  },
  {
    "name": "Fairlea Aged Care @Rosehill",
    "address": "145 Good St, Rosehill NSW 2142, Australia",
    "suburb": "Rosehill NSW 2142",
    "state": "NSW",
    "rating": 4.8,
    "reviews": 9,
    "lat": -33.8235002,
    "lng": 151.0138386,
    "place_id": "ChIJ2eXYnjyjEmsRSZj_2rRJlAY",
    "maps_url": "https://www.google.com/maps/place/?q=place_id:ChIJ2eXYnjyjEmsRSZj_2rRJlAY"
  },
  {
    "name": "Genista Aged Care Facility",
    "address": "185 Old Prospect Rd, Greystanes NSW 2145, Australia",
    "suburb": "Greystanes NSW 2145",
    "state": "NSW",
    "rating": 4.6,
    "reviews": 19,
    "lat": -33.8186828,
    "lng": 150.947552,
    "place_id": "ChIJz3Y32wOYEmsRsvraU-od6sI",
    "maps_url": "https://www.google.com/maps/place/?q=place_id:ChIJz3Y32wOYEmsRsvraU-od6sI"
  },
  {
    "name": "Australian Unity Constitution Hill Aged Care",
    "address": "3 Centenary Ave, Northmead NSW 2152, Australia",
    "suburb": "Northmead NSW 2152",
    "state": "NSW",
    "rating": 3.7,
    "reviews": 15,
    "lat": -33.7889022,
    "lng": 150.9787902,
    "place_id": "ChIJl499Nl-iEmsRhGDHkae41Ag",
    "maps_url": "https://www.google.com/maps/place/?q=place_id:ChIJl499Nl-iEmsRhGDHkae41Ag"
  },
  {
    "name": "Capital Careers",
    "address": "Parramatta NSW 2150, Australia",
    "suburb": "Australia",
    "state": "NSW",
    "rating": 4.9,
    "reviews": 172,
    "lat": -33.8177488,
    "lng": 151.0017816,
    "place_id": "ChIJJ5acBVGjEmsRmGRuoU94Z0o",
    "maps_url": "https://www.google.com/maps/place/?q=place_id:ChIJJ5acBVGjEmsRmGRuoU94Z0o"
  },
  {
    "name": "Just Better Care Ryde Parramatta",
    "address": "Level 2/128 Marsden St, Parramatta NSW 2150, Australia",
    "suburb": "Parramatta NSW 2150",
    "state": "NSW",
    "rating": 4.7,
    "reviews": 24,
    "lat": -33.8165959,
    "lng": 151.0007809,
    "place_id": "ChIJKVRFoqOkEmsRhOwToTAldU4",
    "maps_url": "https://www.google.com/maps/place/?q=place_id:ChIJKVRFoqOkEmsRhOwToTAldU4"
  },
  {
    "name": "Napier Street Aged Care Services",
    "address": "179 Napier St, South Melbourne VIC 3205, Australia",
    "suburb": "South Melbourne VIC 3205",
    "state": "VIC",
    "rating": 4.6,
    "reviews": 41,
    "lat": -37.83713940000001,
    "lng": 144.9618292,
    "place_id": "ChIJL0KHZQdo1moRP3ZRLjrTGE4",
    "maps_url": "https://www.google.com/maps/place/?q=place_id:ChIJL0KHZQdo1moRP3ZRLjrTGE4"
  },
  {
    "name": "Berengarra Residential Aged Care Facility",
    "address": "St Georges Hospital, 283 Cotham Rd, Kew VIC 3101, Australia",
    "suburb": "283 Cotham Rd",
    "state": "VIC",
    "rating": 4.9,
    "reviews": 14,
    "lat": -37.8081427,
    "lng": 145.0527984,
    "place_id": "ChIJ03BLFWFB1moRjv4v1tqrEng",
    "maps_url": "https://www.google.com/maps/place/?q=place_id:ChIJ03BLFWFB1moRjv4v1tqrEng"
  },
  {
    "name": "Mercy Place East Melbourne",
    "address": "22 Verona Ln, East Melbourne VIC 3002, Australia",
    "suburb": "East Melbourne VIC 3002",
    "state": "VIC",
    "rating": 3.7,
    "reviews": 20,
    "lat": -37.8126772,
    "lng": 144.9841222,
    "place_id": "ChIJo3ENN-hC1moRMbNbJnBuPvE",
    "maps_url": "https://www.google.com/maps/place/?q=place_id:ChIJo3ENN-hC1moRMbNbJnBuPvE"
  },
  {
    "name": "CaSPA Care",
    "address": "203 Napier St, South Melbourne VIC 3205, Australia",
    "suburb": "South Melbourne VIC 3205",
    "state": "VIC",
    "rating": 4.5,
    "reviews": 58,
    "lat": -37.8370094,
    "lng": 144.9606024,
    "place_id": "ChIJ6eQsif1n1moRO8N2jD_65oc",
    "maps_url": "https://www.google.com/maps/place/?q=place_id:ChIJ6eQsif1n1moRO8N2jD_65oc"
  },
  {
    "name": "Royal Freemasons Coppin Centre",
    "address": "45 Moubray St, Melbourne VIC 3004, Australia",
    "suburb": "Melbourne VIC 3004",
    "state": "VIC",
    "rating": 4.1,
    "reviews": 23,
    "lat": -37.8480318,
    "lng": 144.9838632,
    "place_id": "ChIJXzE3UD1o1moRrBB92rHgej4",
    "maps_url": "https://www.google.com/maps/place/?q=place_id:ChIJXzE3UD1o1moRrBB92rHgej4"
  },
  {
    "name": "Bupa Aged Care Windsor",
    "address": "102/104A Union St, Windsor VIC 3181, Australia",
    "suburb": "Windsor VIC 3181",
    "state": "VIC",
    "rating": 4.8,
    "reviews": 31,
    "lat": -37.8542447,
    "lng": 144.9886454,
    "place_id": "ChIJ4z7GXDlo1moRocrtvYuvQj4",
    "maps_url": "https://www.google.com/maps/place/?q=place_id:ChIJ4z7GXDlo1moRocrtvYuvQj4"
  },
  {
    "name": "Australian Unity The Alba Aged Care Suites",
    "address": "114 Albert Rd, South Melbourne VIC 3205, Australia",
    "suburb": "South Melbourne VIC 3205",
    "state": "VIC",
    "rating": 4.6,
    "reviews": 9,
    "lat": -37.8357703,
    "lng": 144.9700217,
    "place_id": "ChIJ2eXzAQNo1moRabBjmZdk0Rg",
    "maps_url": "https://www.google.com/maps/place/?q=place_id:ChIJ2eXzAQNo1moRabBjmZdk0Rg"
  },
  {
    "name": "Chomley House Aged Care Facility",
    "address": "113 Chomley St, Prahran VIC 3181, Australia",
    "suburb": "Prahran VIC 3181",
    "state": "VIC",
    "rating": 4.6,
    "reviews": 9,
    "lat": -37.8548908,
    "lng": 145.0058487,
    "place_id": "ChIJI9ZDqNJp1moRJG25jcSXM-g",
    "maps_url": "https://www.google.com/maps/place/?q=place_id:ChIJI9ZDqNJp1moRJG25jcSXM-g"
  },
  {
    "name": "TLC Aged Care",
    "address": "Level 10/468 St Kilda Rd, Melbourne VIC 3004, Australia",
    "suburb": "Melbourne VIC 3004",
    "state": "VIC",
    "rating": 3.8,
    "reviews": 12,
    "lat": -37.841055,
    "lng": 144.976494,
    "place_id": "ChIJX5xr6IpG1moRSH-zQRo3HKg",
    "maps_url": "https://www.google.com/maps/place/?q=place_id:ChIJX5xr6IpG1moRSH-zQRo3HKg"
  },
  {
    "name": "mecwacare Trescowthick Centre",
    "address": "70 Charles St, Prahran VIC 3181, Australia",
    "suburb": "Prahran VIC 3181",
    "state": "VIC",
    "rating": 3.9,
    "reviews": 27,
    "lat": -37.8484869,
    "lng": 144.9894479,
    "place_id": "ChIJYyullyRo1moReBJA87j-IAg",
    "maps_url": "https://www.google.com/maps/place/?q=place_id:ChIJYyullyRo1moReBJA87j-IAg"
  },
  {
    "name": "mecwacare Gregory Lodge",
    "address": "2/58 Newmarket St, Flemington VIC 3031, Australia",
    "suburb": "Flemington VIC 3031",
    "state": "VIC",
    "rating": 4.7,
    "reviews": 11,
    "lat": -37.787065,
    "lng": 144.927156,
    "place_id": "ChIJD0FluwRd1moRaiMJzWkoYrU",
    "maps_url": "https://www.google.com/maps/place/?q=place_id:ChIJD0FluwRd1moRaiMJzWkoYrU"
  },
  {
    "name": "mecwacare Malvern Centre Aged Care Home",
    "address": "1245 Malvern Rd, Malvern VIC 3144, Australia",
    "suburb": "Malvern VIC 3144",
    "state": "VIC",
    "rating": 3.9,
    "reviews": 49,
    "lat": -37.8517932,
    "lng": 145.0347624,
    "place_id": "ChIJMyWRFglC1moRgzkaq0AF_JM",
    "maps_url": "https://www.google.com/maps/place/?q=place_id:ChIJMyWRFglC1moRgzkaq0AF_JM"
  },
  {
    "name": "CraigCare Moonee Ponds",
    "address": "Level 4 and 5/88 Holmes Rd, Moonee Ponds VIC 3039, Australia",
    "suburb": "Moonee Ponds VIC 3039",
    "state": "VIC",
    "rating": 4.9,
    "reviews": 26,
    "lat": -37.76521109999999,
    "lng": 144.9124114,
    "place_id": "ChIJtSnGmllc1moRy3Pp6o4-baI",
    "maps_url": "https://www.google.com/maps/place/?q=place_id:ChIJtSnGmllc1moRy3Pp6o4-baI"
  },
  {
    "name": "Tailored Aged Care Solutions",
    "address": "Ground Floor/470 St Kilda Rd, Melbourne VIC 3004, Australia",
    "suburb": "Melbourne VIC 3004",
    "state": "VIC",
    "rating": 5,
    "reviews": 45,
    "lat": -37.8412917,
    "lng": 144.9767835,
    "place_id": "ChIJoSAV7mQJ6IwRQ7fE44eDnWE",
    "maps_url": "https://www.google.com/maps/place/?q=place_id:ChIJoSAV7mQJ6IwRQ7fE44eDnWE"
  },
  {
    "name": "St Vincent's Aged Care Kew",
    "address": "104 Studley Park Rd, Kew VIC 3101, Australia",
    "suburb": "Kew VIC 3101",
    "state": "VIC",
    "rating": 4.7,
    "reviews": 24,
    "lat": -37.8046046,
    "lng": 145.0157524,
    "place_id": "ChIJ841XhQRD1moRveqW3njakt4",
    "maps_url": "https://www.google.com/maps/place/?q=place_id:ChIJ841XhQRD1moRveqW3njakt4"
  },
  {
    "name": "Belvedere Aged Care",
    "address": "41/43 Fintonia Rd, Noble Park VIC 3174, Australia",
    "suburb": "Noble Park VIC 3174",
    "state": "VIC",
    "rating": 4.8,
    "reviews": 20,
    "lat": -37.9620456,
    "lng": 145.1862885,
    "place_id": "ChIJY-IzEV4U1moRRhjuujZ9F50",
    "maps_url": "https://www.google.com/maps/place/?q=place_id:ChIJY-IzEV4U1moRRhjuujZ9F50"
  },
  {
    "name": "Royal Freemasons Elizabeth Gardens",
    "address": "2-8 Elizabeth St, Burwood VIC 3125, Australia",
    "suburb": "Burwood VIC 3125",
    "state": "VIC",
    "rating": 4.2,
    "reviews": 22,
    "lat": -37.8572006,
    "lng": 145.0951843,
    "place_id": "ChIJCeGyo0pA1moRl3c1-GKMuZ8",
    "maps_url": "https://www.google.com/maps/place/?q=place_id:ChIJCeGyo0pA1moRl3c1-GKMuZ8"
  },
  {
    "name": "mecwacare John Atchison Centre",
    "address": "312-318 Derrimut Rd, Hoppers Crossing VIC 3029, Australia",
    "suburb": "Hoppers Crossing VIC 3029",
    "state": "VIC",
    "rating": 4.3,
    "reviews": 52,
    "lat": -37.8578837,
    "lng": 144.6871571,
    "place_id": "ChIJnVqz-i-P1moRNhmqZBPbVRs",
    "maps_url": "https://www.google.com/maps/place/?q=place_id:ChIJnVqz-i-P1moRNhmqZBPbVRs"
  },
  {
    "name": "Casey Aged Care - MACG",
    "address": "300 Golf Links Rd, Narre Warren VIC 3805, Australia",
    "suburb": "Narre Warren VIC 3805",
    "state": "VIC",
    "rating": 4.1,
    "reviews": 80,
    "lat": -38.0412703,
    "lng": 145.3049671,
    "place_id": "ChIJBYReOpgQ1moRpAn-SZ1gB8s",
    "maps_url": "https://www.google.com/maps/place/?q=place_id:ChIJBYReOpgQ1moRpAn-SZ1gB8s"
  },
  {
    "name": "VMCH John R Hannah Aged Care Residence",
    "address": "68 Wattle Grove, Mulgrave VIC 3170, Australia",
    "suburb": "Mulgrave VIC 3170",
    "state": "VIC",
    "rating": 4.6,
    "reviews": 41,
    "lat": -37.9327409,
    "lng": 145.1586132,
    "place_id": "ChIJMRFuMSAV1moRaJECSVgmcfM",
    "maps_url": "https://www.google.com/maps/place/?q=place_id:ChIJMRFuMSAV1moRaJECSVgmcfM"
  },
  {
    "name": "Homestyle Aged Care Belmont Grange",
    "address": "34-36 Church St, Grovedale VIC 3216, Australia",
    "suburb": "Grovedale VIC 3216",
    "state": "VIC",
    "rating": 3.8,
    "reviews": 26,
    "lat": -38.195712,
    "lng": 144.338036,
    "place_id": "ChIJv84khVwT1GoRv9qD3RlLs0M",
    "maps_url": "https://www.google.com/maps/place/?q=place_id:ChIJv84khVwT1GoRv9qD3RlLs0M"
  },
  {
    "name": "Dovida",
    "address": "Suite 2/186-192 Latrobe Terrace, Geelong West VIC 3218, Australia",
    "suburb": "Geelong West VIC 3218",
    "state": "VIC",
    "rating": 4.9,
    "reviews": 110,
    "lat": -38.1430393,
    "lng": 144.3531951,
    "place_id": "ChIJ5-KXhgsV1GoRGmfc95yxvbY",
    "maps_url": "https://www.google.com/maps/place/?q=place_id:ChIJ5-KXhgsV1GoRGmfc95yxvbY"
  },
  {
    "name": "Kardinia Parkside Care Community",
    "address": "299-305 Latrobe Terrace, Geelong VIC 3220, Australia",
    "suburb": "Geelong VIC 3220",
    "state": "VIC",
    "rating": 4.5,
    "reviews": 37,
    "lat": -38.1521316,
    "lng": 144.3520734,
    "place_id": "ChIJVwG9Sg8U1GoRXZ2OHWCigKk",
    "maps_url": "https://www.google.com/maps/place/?q=place_id:ChIJVwG9Sg8U1GoRXZ2OHWCigKk"
  },
  {
    "name": "mecwacare Elstoft House",
    "address": "12-14 Beulah St, Hamlyn Heights VIC 3215, Australia",
    "suburb": "Hamlyn Heights VIC 3215",
    "state": "VIC",
    "rating": 4.1,
    "reviews": 31,
    "lat": -38.1196586,
    "lng": 144.3228917,
    "place_id": "ChIJDb5NrWkR1GoRmn47D8OdDdg",
    "maps_url": "https://www.google.com/maps/place/?q=place_id:ChIJDb5NrWkR1GoRmn47D8OdDdg"
  },
  {
    "name": "Bupa Aged Care Barrabool",
    "address": "55 Barrabool Rd, Belmont VIC 3216, Australia",
    "suburb": "Belmont VIC 3216",
    "state": "VIC",
    "rating": 4.6,
    "reviews": 25,
    "lat": -38.1660595,
    "lng": 144.3367138,
    "place_id": "ChIJd7oFI4UT1GoRe6wiHz3iNUI",
    "maps_url": "https://www.google.com/maps/place/?q=place_id:ChIJd7oFI4UT1GoRe6wiHz3iNUI"
  },
  {
    "name": "Bupa Aged Care Bellarine Lakes",
    "address": "30 Resort Blvd, Moolap VIC 3224, Australia",
    "suburb": "Moolap VIC 3224",
    "state": "VIC",
    "rating": 4.7,
    "reviews": 59,
    "lat": -38.1832862,
    "lng": 144.4276576,
    "place_id": "ChIJT4K82fMV1GoR9F0D8VWwUa8",
    "maps_url": "https://www.google.com/maps/place/?q=place_id:ChIJT4K82fMV1GoR9F0D8VWwUa8"
  },
  {
    "name": "Calvary Balmoral Grove - Residential Aged Care",
    "address": "24-34 Smith St, Grovedale VIC 3216, Australia",
    "suburb": "Grovedale VIC 3216",
    "state": "VIC",
    "rating": 4.2,
    "reviews": 10,
    "lat": -38.201913,
    "lng": 144.344582,
    "place_id": "ChIJtUON8lgT1GoR02xKeLiF2Eg",
    "maps_url": "https://www.google.com/maps/place/?q=place_id:ChIJtUON8lgT1GoR02xKeLiF2Eg"
  },
  {
    "name": "Pearl Home Care - Geelong & Bellarine Peninsula",
    "address": "1/11 Star St, Geelong VIC 3220, Australia",
    "suburb": "Geelong VIC 3220",
    "state": "VIC",
    "rating": 4.9,
    "reviews": 26,
    "lat": -38.1506222,
    "lng": 144.3580807,
    "place_id": "ChIJX_XgpP9SvqYRQZa4luUTvac",
    "maps_url": "https://www.google.com/maps/place/?q=place_id:ChIJX_XgpP9SvqYRQZa4luUTvac"
  },
  {
    "name": "Calvary Vonlea Manor - Residential Aged Care",
    "address": "1-9 Moran Pl, Norlane VIC 3214, Australia",
    "suburb": "Norlane VIC 3214",
    "state": "VIC",
    "rating": 4.3,
    "reviews": 6,
    "lat": -38.094221,
    "lng": 144.345426,
    "place_id": "ChIJ3-lKv9IQ1GoRQWK_V4KYTgg",
    "maps_url": "https://www.google.com/maps/place/?q=place_id:ChIJ3-lKv9IQ1GoRQWK_V4KYTgg"
  },
  {
    "name": "Mercy Place Rice Village (Geelong)",
    "address": "7 Moylan Loop, Marshall VIC 3216, Australia",
    "suburb": "Marshall VIC 3216",
    "state": "VIC",
    "rating": 4,
    "reviews": 5,
    "lat": -38.1987522,
    "lng": 144.3616892,
    "place_id": "ChIJxfj_TpYU1GoRQlsWg7X_l2I",
    "maps_url": "https://www.google.com/maps/place/?q=place_id:ChIJxfj_TpYU1GoRQlsWg7X_l2I"
  },
  {
    "name": "Homestyle Aged Care Kensington Grange",
    "address": "1-13 Ferguson Rd, Leopold VIC 3224, Australia",
    "suburb": "Leopold VIC 3224",
    "state": "VIC",
    "rating": 4.4,
    "reviews": 9,
    "lat": -38.190255,
    "lng": 144.463789,
    "place_id": "ChIJIf0cL24-1GoRJL-F1b4O4G8",
    "maps_url": "https://www.google.com/maps/place/?q=place_id:ChIJIf0cL24-1GoRJL-F1b4O4G8"
  },
  {
    "name": "Victorian Croatian Aged Care Services",
    "address": "38/46 Barton St, Bell Park VIC 3215, Australia",
    "suburb": "Bell Park VIC 3215",
    "state": "VIC",
    "rating": 4.1,
    "reviews": 19,
    "lat": -38.1054756,
    "lng": 144.3334323,
    "place_id": "ChIJddwCBCUR1GoRrTJj-BFYpdM",
    "maps_url": "https://www.google.com/maps/place/?q=place_id:ChIJddwCBCUR1GoRrTJj-BFYpdM"
  },
  {
    "name": "TLC The Belmont Residential Aged Care",
    "address": "235 High St, Belmont VIC 3216, Australia",
    "suburb": "Belmont VIC 3216",
    "state": "VIC",
    "rating": 3.6,
    "reviews": 38,
    "lat": -38.17786,
    "lng": 144.341045,
    "place_id": "ChIJcS9lMnkT1GoRaeMPcm4teMQ",
    "maps_url": "https://www.google.com/maps/place/?q=place_id:ChIJcS9lMnkT1GoRaeMPcm4teMQ"
  },
  {
    "name": "Alan David Lodge",
    "address": "382 Torquay Rd, Charlemont VIC 3217, Australia",
    "suburb": "Charlemont VIC 3217",
    "state": "VIC",
    "rating": 4,
    "reviews": 82,
    "lat": -38.2156419,
    "lng": 144.3424879,
    "place_id": "ChIJTa53k6ts1GoRlF8ZSWy8jdc",
    "maps_url": "https://www.google.com/maps/place/?q=place_id:ChIJTa53k6ts1GoRlF8ZSWy8jdc"
  },
  {
    "name": "Cultura Aged Care Services",
    "address": "100 Weddell Rd, North Geelong VIC 3215, Australia",
    "suburb": "North Geelong VIC 3215",
    "state": "VIC",
    "rating": 4.2,
    "reviews": 24,
    "lat": -38.1256845,
    "lng": 144.3477683,
    "place_id": "ChIJeafhNEsR1GoRFIIHf9oj6AQ",
    "maps_url": "https://www.google.com/maps/place/?q=place_id:ChIJeafhNEsR1GoRFIIHf9oj6AQ"
  },
  {
    "name": "Wallace Lodge",
    "address": "45-95 Ballarat Rd, North Geelong VIC 3215, Australia",
    "suburb": "North Geelong VIC 3215",
    "state": "VIC",
    "rating": 3,
    "reviews": 2,
    "lat": -38.1201637,
    "lng": 144.33558,
    "place_id": "ChIJC5B9qwIR1GoRrGdwN_qVGew",
    "maps_url": "https://www.google.com/maps/place/?q=place_id:ChIJC5B9qwIR1GoRrGdwN_qVGew"
  },
  {
    "name": "Eden Park Community Aged Care",
    "address": "31 Thompson St, Whittington VIC 3219, Australia",
    "suburb": "Whittington VIC 3219",
    "state": "VIC",
    "rating": 4.4,
    "reviews": 42,
    "lat": -38.1776959,
    "lng": 144.38663,
    "place_id": "ChIJ3yHZbEwU1GoRQk310pfJ-sE",
    "maps_url": "https://www.google.com/maps/place/?q=place_id:ChIJ3yHZbEwU1GoRQk310pfJ-sE"
  },
  {
    "name": "Whitehaven Retirement & Respite Care Geelong",
    "address": "11-19 Murray St, Newcomb VIC 3219, Australia",
    "suburb": "Newcomb VIC 3219",
    "state": "VIC",
    "rating": 4.7,
    "reviews": 9,
    "lat": -38.17097090000001,
    "lng": 144.4006195,
    "place_id": "ChIJu7UAQs8V1GoRqPuJJ5FM7VY",
    "maps_url": "https://www.google.com/maps/place/?q=place_id:ChIJu7UAQs8V1GoRqPuJJ5FM7VY"
  },
  {
    "name": "Highton Gardens Care Community",
    "address": "209 S Valley Rd, Highton VIC 3216, Australia",
    "suburb": "Highton VIC 3216",
    "state": "VIC",
    "rating": 4.4,
    "reviews": 14,
    "lat": -38.193909,
    "lng": 144.316606,
    "place_id": "ChIJpaq7gDoT1GoRmi7AVUwSidA",
    "maps_url": "https://www.google.com/maps/place/?q=place_id:ChIJpaq7gDoT1GoRmi7AVUwSidA"
  },
  {
    "name": "Calvary Roccoco - Residential Aged Care",
    "address": "355/357 Wilsons Rd, St Albans Park VIC 3219, Australia",
    "suburb": "St Albans Park VIC 3219",
    "state": "VIC",
    "rating": 3,
    "reviews": 3,
    "lat": -38.1906,
    "lng": 144.388084,
    "place_id": "ChIJB8X_gVUU1GoRMLKGQOhvJBo",
    "maps_url": "https://www.google.com/maps/place/?q=place_id:ChIJB8X_gVUU1GoRMLKGQOhvJBo"
  },
  {
    "name": "Mercy Place Ballarat",
    "address": "60 Corbett St, Ballarat East VIC 3350, Australia",
    "suburb": "Ballarat East VIC 3350",
    "state": "VIC",
    "rating": 4.8,
    "reviews": 40,
    "lat": -37.5601753,
    "lng": 143.873491,
    "place_id": "ChIJH3Mf4IpF0WoR4PeTgg0nU7k",
    "maps_url": "https://www.google.com/maps/place/?q=place_id:ChIJH3Mf4IpF0WoR4PeTgg0nU7k"
  },
  {
    "name": "Nazareth Care - Nazareth House Ballarat",
    "address": "218 Mill St, Lake Wendouree VIC 3350, Australia",
    "suburb": "Lake Wendouree VIC 3350",
    "state": "VIC",
    "rating": 4.6,
    "reviews": 54,
    "lat": -37.5539971,
    "lng": 143.8452226,
    "place_id": "ChIJx6vEmmBE0WoR86GM3PyWidc",
    "maps_url": "https://www.google.com/maps/place/?q=place_id:ChIJx6vEmmBE0WoR86GM3PyWidc"
  },
  {
    "name": "Bupa Aged Care Ballarat",
    "address": "305 Smythes Rd, Delacombe VIC 3356, Australia",
    "suburb": "Delacombe VIC 3356",
    "state": "VIC",
    "rating": 4.5,
    "reviews": 36,
    "lat": -37.59125,
    "lng": 143.80907,
    "place_id": "ChIJt6YVRrpc0WoR1hgoaMjTfIA",
    "maps_url": "https://www.google.com/maps/place/?q=place_id:ChIJt6YVRrpc0WoR1hgoaMjTfIA"
  },
  {
    "name": "Talbot Place Aged Care Facility",
    "address": "1205 Dana St, Ballarat Central VIC 3350, Australia",
    "suburb": "Ballarat Central VIC 3350",
    "state": "VIC",
    "rating": 5,
    "reviews": 3,
    "lat": -37.5626994,
    "lng": 143.8418197,
    "place_id": "ChIJc9zp6fNE0WoR3Vsno4CEl3U",
    "maps_url": "https://www.google.com/maps/place/?q=place_id:ChIJc9zp6fNE0WoR3Vsno4CEl3U"
  },
  {
    "name": "Calvary Kirralee - Residential Aged Care",
    "address": "207 Richards St, Ballarat East VIC 3350, Australia",
    "suburb": "Ballarat East VIC 3350",
    "state": "VIC",
    "rating": 4.3,
    "reviews": 8,
    "lat": -37.567312,
    "lng": 143.890505,
    "place_id": "ChIJnXSiTZ9F0WoRy7inZh2RqqA",
    "maps_url": "https://www.google.com/maps/place/?q=place_id:ChIJnXSiTZ9F0WoRy7inZh2RqqA"
  },
  {
    "name": "Calvary Kelaston - Residential Aged Care",
    "address": "2/4 Park St, Wendouree VIC 3355, Australia",
    "suburb": "Wendouree VIC 3355",
    "state": "VIC",
    "rating": 4.3,
    "reviews": 10,
    "lat": -37.53888999999999,
    "lng": 143.825593,
    "place_id": "ChIJFZV-vndE0WoRbjL4VT6LKEs",
    "maps_url": "https://www.google.com/maps/place/?q=place_id:ChIJFZV-vndE0WoRbjL4VT6LKEs"
  },
  {
    "name": "mecwacare Wahroonga",
    "address": "124-126 Spencer St, Canadian VIC 3350, Australia",
    "suburb": "Canadian VIC 3350",
    "state": "VIC",
    "rating": 4,
    "reviews": 12,
    "lat": -37.57732180000001,
    "lng": 143.8824048,
    "place_id": "ChIJ83UC4mFF0WoRcSBaFjOqPRc",
    "maps_url": "https://www.google.com/maps/place/?q=place_id:ChIJ83UC4mFF0WoRcSBaFjOqPRc"
  },
  {
    "name": "Pineview Residential Care",
    "address": "324 Nicholson St, Black Hill VIC 3350, Australia",
    "suburb": "Black Hill VIC 3350",
    "state": "VIC",
    "rating": 4.1,
    "reviews": 17,
    "lat": -37.555098,
    "lng": 143.8678914,
    "place_id": "ChIJrczSUa1F0WoRCUg4p-uyvS0",
    "maps_url": "https://www.google.com/maps/place/?q=place_id:ChIJrczSUa1F0WoRCUg4p-uyvS0"
  },
  {
    "name": "PS Hobson Aged Care",
    "address": "302 Gillies St N, Wendouree VIC 3355, Australia",
    "suburb": "Wendouree VIC 3355",
    "state": "VIC",
    "rating": 4.4,
    "reviews": 20,
    "lat": -37.5364327,
    "lng": 143.8245296,
    "place_id": "ChIJN_ATMHZE0WoR08uXdkygr8k",
    "maps_url": "https://www.google.com/maps/place/?q=place_id:ChIJN_ATMHZE0WoR08uXdkygr8k"
  },
  {
    "name": "Pearl Home Care - Ballarat",
    "address": "1/17 Armstrong St S, Ballarat Central VIC 3350, Australia",
    "suburb": "Ballarat Central VIC 3350",
    "state": "VIC",
    "rating": 5,
    "reviews": 14,
    "lat": -37.5628657,
    "lng": 143.856356,
    "place_id": "ChIJUcLCIKBy3U8R1Q63NCeV0tE",
    "maps_url": "https://www.google.com/maps/place/?q=place_id:ChIJUcLCIKBy3U8R1Q63NCeV0tE"
  },
  {
    "name": "Eureka Village Hostel",
    "address": "16-40 Balmoral Dr, Ballarat East VIC 3350, Australia",
    "suburb": "Ballarat East VIC 3350",
    "state": "VIC",
    "rating": 4.1,
    "reviews": 38,
    "lat": -37.5596854,
    "lng": 143.889718,
    "place_id": "ChIJFyvFfZlF0WoR64WfG8QbaYc",
    "maps_url": "https://www.google.com/maps/place/?q=place_id:ChIJFyvFfZlF0WoR64WfG8QbaYc"
  },
  {
    "name": "James Thomas Court",
    "address": "117 Morgan St, Sebastopol VIC 3356, Australia",
    "suburb": "Sebastopol VIC 3356",
    "state": "VIC",
    "rating": 5,
    "reviews": 6,
    "lat": -37.6051979,
    "lng": 143.8362764,
    "place_id": "ChIJFfsOKENb0WoR8fY_B2VWtGk",
    "maps_url": "https://www.google.com/maps/place/?q=place_id:ChIJFfsOKENb0WoR8fY_B2VWtGk"
  },
  {
    "name": "Bill Crawford Lodge",
    "address": "1101 Dana St, Ballarat Central VIC 3350, Australia",
    "suburb": "Ballarat Central VIC 3350",
    "state": "VIC",
    "rating": 5,
    "reviews": 2,
    "lat": -37.5628585,
    "lng": 143.8436193,
    "place_id": "ChIJc2X-II1E0WoRmoRDqPoOgP0",
    "maps_url": "https://www.google.com/maps/place/?q=place_id:ChIJc2X-II1E0WoRmoRDqPoOgP0"
  },
  {
    "name": "Estia Health Mount Clear",
    "address": "112 Whitehorse Rd, Mount Clear VIC 3350, Australia",
    "suburb": "Mount Clear VIC 3350",
    "state": "VIC",
    "rating": 4.1,
    "reviews": 42,
    "lat": -37.6034789,
    "lng": 143.8648891,
    "place_id": "ChIJxycZsKdb0WoR9q3zxdAXTlE",
    "maps_url": "https://www.google.com/maps/place/?q=place_id:ChIJxycZsKdb0WoR9q3zxdAXTlE"
  },
  {
    "name": "Queen Elizabeth Centre",
    "address": "102 Ascot St S, Ballarat Central VIC 3350, Australia",
    "suburb": "Ballarat Central VIC 3350",
    "state": "VIC",
    "rating": 4.4,
    "reviews": 107,
    "lat": -37.5641316,
    "lng": 143.8433397,
    "place_id": "ChIJaZ_VkY1E0WoR1EadEXBaxTA",
    "maps_url": "https://www.google.com/maps/place/?q=place_id:ChIJaZ_VkY1E0WoR1EadEXBaxTA"
  },
  {
    "name": "Levande Midlands Terrace",
    "address": "90 Midlands Terrace, Ballarat North VIC 3350, Australia",
    "suburb": "Ballarat North VIC 3350",
    "state": "VIC",
    "rating": 4.3,
    "reviews": 18,
    "lat": -37.5378482,
    "lng": 143.8586231,
    "place_id": "ChIJJ0VkLzdE0WoRjaC8Tz3IJMY",
    "maps_url": "https://www.google.com/maps/place/?q=place_id:ChIJJ0VkLzdE0WoRjaC8Tz3IJMY"
  },
  {
    "name": "Ballarat Lifestyle Village",
    "address": "263 Scott Parade, Brown Hill VIC 3350, Australia",
    "suburb": "Brown Hill VIC 3350",
    "state": "VIC",
    "rating": 5,
    "reviews": 3,
    "lat": -37.5565843,
    "lng": 143.8922804,
    "place_id": "ChIJW0gOBJVF0WoRy8o0yfQ9VqQ",
    "maps_url": "https://www.google.com/maps/place/?q=place_id:ChIJW0gOBJVF0WoRy8o0yfQ9VqQ"
  },
  {
    "name": "VMCH Ballarat Home Care",
    "address": "74 Mair St E, Bakery Hill VIC 3350, Australia",
    "suburb": "Bakery Hill VIC 3350",
    "state": "VIC",
    "rating": 5,
    "reviews": 1,
    "lat": -37.5608236,
    "lng": 143.8655675,
    "place_id": "ChIJ1W7_5MFa0WoR2mXNW2qtTq8",
    "maps_url": "https://www.google.com/maps/place/?q=place_id:ChIJ1W7_5MFa0WoR2mXNW2qtTq8"
  },
  {
    "name": "Jack Lonsdale Lodge",
    "address": "232 Spencer St, Sebastopol VIC 3356, Australia",
    "suburb": "Sebastopol VIC 3356",
    "state": "VIC",
    "rating": 3.6,
    "reviews": 17,
    "lat": -37.605756,
    "lng": 143.8377565,
    "place_id": "ChIJF84il0Nb0WoRo5C12Y2xy5k",
    "maps_url": "https://www.google.com/maps/place/?q=place_id:ChIJF84il0Nb0WoRo5C12Y2xy5k"
  },
  {
    "name": "Hemsley Park Country Club",
    "address": "29 Stawell St S, Ballarat East VIC 3350, Australia",
    "suburb": "Ballarat East VIC 3350",
    "state": "VIC",
    "rating": 4.3,
    "reviews": 16,
    "lat": -37.5617581,
    "lng": 143.8873619,
    "place_id": "ChIJRdmOGKNF0WoRkbb96fLW1dQ",
    "maps_url": "https://www.google.com/maps/place/?q=place_id:ChIJRdmOGKNF0WoRkbb96fLW1dQ"
  },
  {
    "name": "Uniting AgeWell Strath-Haven Community",
    "address": "131-149 Condon St, Kennington VIC 3550, Australia",
    "suburb": "Kennington VIC 3550",
    "state": "VIC",
    "rating": 4.3,
    "reviews": 41,
    "lat": -36.7728818,
    "lng": 144.3060839,
    "place_id": "ChIJO8W1u3lZ12oRjycBtDv2Jz0",
    "maps_url": "https://www.google.com/maps/place/?q=place_id:ChIJO8W1u3lZ12oRjycBtDv2Jz0"
  },
  {
    "name": "Calvary Mirridong - Residential Aged Care",
    "address": "92-100 McIvor Hwy, Bendigo VIC 3550, Australia",
    "suburb": "Bendigo VIC 3550",
    "state": "VIC",
    "rating": 3.6,
    "reviews": 7,
    "lat": -36.7588414,
    "lng": 144.2982207,
    "place_id": "ChIJRe4Z4aFZ12oR9Ff8nj7tQkw",
    "maps_url": "https://www.google.com/maps/place/?q=place_id:ChIJRe4Z4aFZ12oR9Ff8nj7tQkw"
  },
  {
    "name": "Bupa Aged Care Bendigo",
    "address": "208 Holdsworth Rd, Bendigo VIC 3550, Australia",
    "suburb": "Bendigo VIC 3550",
    "state": "VIC",
    "rating": 4.5,
    "reviews": 54,
    "lat": -36.7348617,
    "lng": 144.2811782,
    "place_id": "ChIJd4ohVrVZ12oRuWlLhGGhijI",
    "maps_url": "https://www.google.com/maps/place/?q=place_id:ChIJd4ohVrVZ12oRuWlLhGGhijI"
  },
  {
    "name": "Carshalton House",
    "address": "11-21 Stoneham St, Golden Square VIC 3555, Australia",
    "suburb": "Golden Square VIC 3555",
    "state": "VIC",
    "rating": 4.4,
    "reviews": 13,
    "lat": -36.7802355,
    "lng": 144.2563722,
    "place_id": "ChIJH9oDl-RR12oRei8yXhTuVm8",
    "maps_url": "https://www.google.com/maps/place/?q=place_id:ChIJH9oDl-RR12oRei8yXhTuVm8"
  },
  {
    "name": "Mercy Health Bethlehem Home for the Aged (Bendigo)",
    "address": "36/42 Specimen Hill Rd, Golden Square VIC 3555, Australia",
    "suburb": "Golden Square VIC 3555",
    "state": "VIC",
    "rating": 3.7,
    "reviews": 10,
    "lat": -36.7678641,
    "lng": 144.2499498,
    "place_id": "ChIJ0ySvGa5Q12oRQOIjiFjbmfo",
    "maps_url": "https://www.google.com/maps/place/?q=place_id:ChIJ0ySvGa5Q12oRQOIjiFjbmfo"
  },
  {
    "name": "Bentleys Aged Care",
    "address": "47 Harpin St, East Bendigo VIC 3550, Australia",
    "suburb": "East Bendigo VIC 3550",
    "state": "VIC",
    "rating": 4.5,
    "reviews": 23,
    "lat": -36.752039,
    "lng": 144.304905,
    "place_id": "ChIJw95Q2AdZ12oR74L3hys5uw4",
    "maps_url": "https://www.google.com/maps/place/?q=place_id:ChIJw95Q2AdZ12oR74L3hys5uw4"
  },
  {
    "name": "Stella Anderson Nursing Home",
    "address": "26 Gibson St, North Bendigo VIC 3550, Australia",
    "suburb": "North Bendigo VIC 3550",
    "state": "VIC",
    "rating": 3.8,
    "reviews": 8,
    "lat": -36.7319132,
    "lng": 144.2685915,
    "place_id": "ChIJjbuWWdJZ12oRZuTj9DhmIis",
    "maps_url": "https://www.google.com/maps/place/?q=place_id:ChIJjbuWWdJZ12oRZuTj9DhmIis"
  },
  {
    "name": "mecwacare Long Gully",
    "address": "9 Brown St, Long Gully VIC 3550, Australia",
    "suburb": "Long Gully VIC 3550",
    "state": "VIC",
    "rating": 5,
    "reviews": 3,
    "lat": -36.7446628,
    "lng": 144.2656062,
    "place_id": "ChIJExDx7idZ12oRh5qa4PSWyRI",
    "maps_url": "https://www.google.com/maps/place/?q=place_id:ChIJExDx7idZ12oRh5qa4PSWyRI"
  },
  {
    "name": "Benetas Kangaroo Flat Aged Care Home",
    "address": "6/8 Wesley St, Kangaroo Flat VIC 3555, Australia",
    "suburb": "Kangaroo Flat VIC 3555",
    "state": "VIC",
    "rating": 4,
    "reviews": 23,
    "lat": -36.8017745,
    "lng": 144.2407935,
    "place_id": "ChIJ-Rbh2mZQ12oRvXQLrZICLCc",
    "maps_url": "https://www.google.com/maps/place/?q=place_id:ChIJ-Rbh2mZQ12oRvXQLrZICLCc"
  },
  {
    "name": "Golden Oaks Nursing Home",
    "address": "Stoneham St, Golden Square VIC 3555, Australia",
    "suburb": "Golden Square VIC 3555",
    "state": "VIC",
    "rating": 4.5,
    "reviews": 2,
    "lat": -36.7794837,
    "lng": 144.2570495,
    "place_id": "ChIJoZqrqT9R12oRsdjFToYmXnQ",
    "maps_url": "https://www.google.com/maps/place/?q=place_id:ChIJoZqrqT9R12oRsdjFToYmXnQ"
  },
  {
    "name": "Estia Health Victoria Heights",
    "address": "41-47 Victoria St, Ironbark VIC 3550, Australia",
    "suburb": "Ironbark VIC 3550",
    "state": "VIC",
    "rating": 4.7,
    "reviews": 41,
    "lat": -36.7510833,
    "lng": 144.265686,
    "place_id": "ChIJCTKnxeZZ12oRnsZ0X4VDgik",
    "maps_url": "https://www.google.com/maps/place/?q=place_id:ChIJCTKnxeZZ12oRnsZ0X4VDgik"
  },
  {
    "name": "Benetas Eaglehawk Aged Care Home",
    "address": "112 Upper California Gully Rd, California Gully VIC 3556, Australia",
    "suburb": "California Gully VIC 3556",
    "state": "VIC",
    "rating": 4.4,
    "reviews": 26,
    "lat": -36.73479460000001,
    "lng": 144.2553405,
    "place_id": "ChIJpTHCy3ZX12oRCrtEYkLrGjU",
    "maps_url": "https://www.google.com/maps/place/?q=place_id:ChIJpTHCy3ZX12oRCrtEYkLrGjU"
  },
  {
    "name": "Estia Health Kangaroo Flat",
    "address": "61 Alder St, Kangaroo Flat VIC 3555, Australia",
    "suburb": "Kangaroo Flat VIC 3555",
    "state": "VIC",
    "rating": 3.8,
    "reviews": 71,
    "lat": -36.7837126,
    "lng": 144.2402813,
    "place_id": "ChIJW5ggBpNQ12oROsLO9MXUvOw",
    "maps_url": "https://www.google.com/maps/place/?q=place_id:ChIJW5ggBpNQ12oROsLO9MXUvOw"
  },
  {
    "name": "mecwacare Flora Hill",
    "address": "64 Somerville St, Flora Hill VIC 3550, Australia",
    "suburb": "Flora Hill VIC 3550",
    "state": "VIC",
    "rating": 3.4,
    "reviews": 14,
    "lat": -36.7751878,
    "lng": 144.2891,
    "place_id": "ChIJbyy7_ohb12oRHdGiezHyE44",
    "maps_url": "https://www.google.com/maps/place/?q=place_id:ChIJbyy7_ohb12oRHdGiezHyE44"
  },
  {
    "name": "Sandhurst By Teman",
    "address": "107-115 Condon St, Kennington VIC 3550, Australia",
    "suburb": "Kennington VIC 3550",
    "state": "VIC",
    "rating": 5,
    "reviews": 1,
    "lat": -36.7720069,
    "lng": 144.3034057,
    "place_id": "ChIJ79rgiIJZ12oRC1B9eAUQMEg",
    "maps_url": "https://www.google.com/maps/place/?q=place_id:ChIJ79rgiIJZ12oRC1B9eAUQMEg"
  },
  {
    "name": "Simpkin House",
    "address": "8 Gibson St, North Bendigo VIC 3550, Australia",
    "suburb": "North Bendigo VIC 3550",
    "state": "VIC",
    "rating": 4.5,
    "reviews": 8,
    "lat": -36.7336654,
    "lng": 144.269165,
    "place_id": "ChIJEQktNtJZ12oR30nxhUnOhcQ",
    "maps_url": "https://www.google.com/maps/place/?q=place_id:ChIJEQktNtJZ12oR30nxhUnOhcQ"
  },
  {
    "name": "Uniting AgeWell White Hills Haven Independent Living Units",
    "address": "506/510 Napier St, White Hills VIC 3550, Australia",
    "suburb": "White Hills VIC 3550",
    "state": "VIC",
    "rating": 3.3,
    "reviews": 3,
    "lat": -36.7289043,
    "lng": 144.3072359,
    "place_id": "ChIJ7Te3hfZY12oR0Tgzm4926xs",
    "maps_url": "https://www.google.com/maps/place/?q=place_id:ChIJ7Te3hfZY12oR0Tgzm4926xs"
  },
  {
    "name": "Joan Pinder Nursing Home",
    "address": "26 Gibson St, North Bendigo VIC 3550, Australia",
    "suburb": "North Bendigo VIC 3550",
    "state": "VIC",
    "rating": 3.8,
    "reviews": 5,
    "lat": -36.7322438,
    "lng": 144.2681126,
    "place_id": "ChIJ51AQ9tJZ12oRCrRQ6fdM2YM",
    "maps_url": "https://www.google.com/maps/place/?q=place_id:ChIJ51AQ9tJZ12oRCrRQ6fdM2YM"
  },
  {
    "name": "Golden Rise Bendigo",
    "address": "2 Taylor St, Golden Square VIC 3555, Australia",
    "suburb": "Golden Square VIC 3555",
    "state": "VIC",
    "rating": 4,
    "reviews": 1,
    "lat": -36.7681427,
    "lng": 144.2518463,
    "place_id": "ChIJC6ssnxZR12oRZLMFQsrKQw0",
    "maps_url": "https://www.google.com/maps/place/?q=place_id:ChIJC6ssnxZR12oRZLMFQsrKQw0"
  },
  {
    "name": "Estia Health Bendigo",
    "address": "9 Brown St, Long Gully VIC 3550, Australia",
    "suburb": "Long Gully VIC 3550",
    "state": "VIC",
    "rating": null,
    "reviews": 0,
    "lat": -36.7446628,
    "lng": 144.2656062,
    "place_id": "ChIJe0YCPdxZ12oRl9OFNnSaIP8",
    "maps_url": "https://www.google.com/maps/place/?q=place_id:ChIJe0YCPdxZ12oRl9OFNnSaIP8"
  },
  {
    "name": "Bupa Aged Care New Farm",
    "address": "193 Moray St, New Farm QLD 4005, Australia",
    "suburb": "New Farm QLD 4005",
    "state": "QLD",
    "rating": 4.5,
    "reviews": 38,
    "lat": -27.471672,
    "lng": 153.0437604,
    "place_id": "ChIJz8fmSSFakWsR33JYyODWOSo",
    "maps_url": "https://www.google.com/maps/place/?q=place_id:ChIJz8fmSSFakWsR33JYyODWOSo"
  },
  {
    "name": "Rosalie Nursing Care Centre",
    "address": "18 Howard St, Paddington QLD 4064, Australia",
    "suburb": "Paddington QLD 4064",
    "state": "QLD",
    "rating": 5,
    "reviews": 4,
    "lat": -27.4679643,
    "lng": 152.997193,
    "place_id": "ChIJt1DCtbBQkWsRVKMNXNFi8p8",
    "maps_url": "https://www.google.com/maps/place/?q=place_id:ChIJt1DCtbBQkWsRVKMNXNFi8p8"
  },
  {
    "name": "All Aged Care",
    "address": "163 Wharf St, Spring Hill QLD 4000, Australia",
    "suburb": "Spring Hill QLD 4000",
    "state": "QLD",
    "rating": 3.9,
    "reviews": 17,
    "lat": -27.4625524,
    "lng": 153.0276097,
    "place_id": "ChIJ3XcJjgNakWsRUdcKDhKrcLk",
    "maps_url": "https://www.google.com/maps/place/?q=place_id:ChIJ3XcJjgNakWsRUdcKDhKrcLk"
  },
  {
    "name": "St Vincent's Aged Care Corinda",
    "address": "20 Menin Rd, Corinda QLD 4075, Australia",
    "suburb": "Corinda QLD 4075",
    "state": "QLD",
    "rating": 4.3,
    "reviews": 23,
    "lat": -27.5473246,
    "lng": 152.9783059,
    "place_id": "ChIJn2yp-SxPkWsR1tPSwJLb2oo",
    "maps_url": "https://www.google.com/maps/place/?q=place_id:ChIJn2yp-SxPkWsR1tPSwJLb2oo"
  },
  {
    "name": "A Home - Aged Care Placement and Financial Planning",
    "address": "Level 4/339 Coronation Dr, Milton QLD 4064, Australia",
    "suburb": "Milton QLD 4064",
    "state": "QLD",
    "rating": 5,
    "reviews": 125,
    "lat": -27.4744533,
    "lng": 153.0030767,
    "place_id": "ChIJ7RTAFOJbkWsRf058u6bu4o8",
    "maps_url": "https://www.google.com/maps/place/?q=place_id:ChIJ7RTAFOJbkWsRf058u6bu4o8"
  },
  {
    "name": "John Wesley Gardens Residential Aged Care Community",
    "address": "19 Halsmere St, Geebung QLD 4034, Australia",
    "suburb": "Geebung QLD 4034",
    "state": "QLD",
    "rating": 4.5,
    "reviews": 52,
    "lat": -27.3767192,
    "lng": 153.0376994,
    "place_id": "ChIJ66Nk0KHik2sRE9ddgdtQNVk",
    "maps_url": "https://www.google.com/maps/place/?q=place_id:ChIJ66Nk0KHik2sRE9ddgdtQNVk"
  },
  {
    "name": "St Marks Aged Care Nursing Home Brisbane",
    "address": "930 Gympie Rd, Chermside QLD 4032, Australia",
    "suburb": "Chermside QLD 4032",
    "state": "QLD",
    "rating": 4.6,
    "reviews": 8,
    "lat": -27.3833159,
    "lng": 153.0291504,
    "place_id": "ChIJRzh9Vw9YkWsRV6H96iJ-kGY",
    "maps_url": "https://www.google.com/maps/place/?q=place_id:ChIJRzh9Vw9YkWsRV6H96iJ-kGY"
  },
  {
    "name": "First Choice Care - Brisbane",
    "address": "Level 1/100 Ipswich Rd, Woolloongabba QLD 4102, Australia",
    "suburb": "Woolloongabba QLD 4102",
    "state": "QLD",
    "rating": 4.9,
    "reviews": 365,
    "lat": -27.4914362,
    "lng": 153.035563,
    "place_id": "ChIJs85XTe1dkWsRTpRBUws2wVo",
    "maps_url": "https://www.google.com/maps/place/?q=place_id:ChIJs85XTe1dkWsRTpRBUws2wVo"
  },
  {
    "name": "St Vincent's Aged Care Kangaroo Point",
    "address": "411 Main St, Kangaroo Point QLD 4169, Australia",
    "suburb": "Kangaroo Point QLD 4169",
    "state": "QLD",
    "rating": 4.1,
    "reviews": 50,
    "lat": -27.4735609,
    "lng": 153.0349943,
    "place_id": "ChIJux0eqxlakWsR9YbdJp9JLjE",
    "maps_url": "https://www.google.com/maps/place/?q=place_id:ChIJux0eqxlakWsR9YbdJp9JLjE"
  },
  {
    "name": "Garden City Aged Care Services",
    "address": "33 Tryon St, Upper Mount Gravatt QLD 4122, Australia",
    "suburb": "Upper Mount Gravatt QLD 4122",
    "state": "QLD",
    "rating": 4.5,
    "reviews": 14,
    "lat": -27.5599651,
    "lng": 153.0852993,
    "place_id": "ChIJ-bR_cDVbkWsRicamr60AsdU",
    "maps_url": "https://www.google.com/maps/place/?q=place_id:ChIJ-bR_cDVbkWsRicamr60AsdU"
  },
  {
    "name": "Jacobs Court Residential Aged Care Community",
    "address": "620 Seventeen Mile Rocks Rd, Sinnamon Park QLD 4073, Australia",
    "suburb": "Sinnamon Park QLD 4073",
    "state": "QLD",
    "rating": 5,
    "reviews": 1,
    "lat": -27.5377341,
    "lng": 152.949169,
    "place_id": "ChIJKSZUrG1PkWsRf-8Lp2APHd8",
    "maps_url": "https://www.google.com/maps/place/?q=place_id:ChIJKSZUrG1PkWsRf-8Lp2APHd8"
  },
  {
    "name": "TriCare Stafford Lakes Aged Care Residence",
    "address": "682 Rode Rd, Chermside West QLD 4032, Australia",
    "suburb": "Chermside West QLD 4032",
    "state": "QLD",
    "rating": 3.9,
    "reviews": 17,
    "lat": -27.393107,
    "lng": 153.019466,
    "place_id": "ChIJix_Bvh5YkWsRWXo_Sesxz8c",
    "maps_url": "https://www.google.com/maps/place/?q=place_id:ChIJix_Bvh5YkWsRWXo_Sesxz8c"
  },
  {
    "name": "Southern Cross Care Duhig Village",
    "address": "85 Seville Rd, Holland Park QLD 4121, Australia",
    "suburb": "Holland Park QLD 4121",
    "state": "QLD",
    "rating": 4.7,
    "reviews": 35,
    "lat": -27.5223345,
    "lng": 153.0732408,
    "place_id": "ChIJX_SnCAZbkWsR5fhKCM26_TU",
    "maps_url": "https://www.google.com/maps/place/?q=place_id:ChIJX_SnCAZbkWsR5fhKCM26_TU"
  },
  {
    "name": "Windsor Aged Care Services",
    "address": "26 Palmer St, Windsor QLD 4030, Australia",
    "suburb": "Windsor QLD 4030",
    "state": "QLD",
    "rating": 4.5,
    "reviews": 26,
    "lat": -27.4291887,
    "lng": 153.0316089,
    "place_id": "ChIJ0XqR2s5ZkWsRqaPIyaz2y_8",
    "maps_url": "https://www.google.com/maps/place/?q=place_id:ChIJ0XqR2s5ZkWsRqaPIyaz2y_8"
  },
  {
    "name": "Dovetree Residential Aged Care Community",
    "address": "620 Seventeen Mile Rocks Rd, Sinnamon Park QLD 4073, Australia",
    "suburb": "Sinnamon Park QLD 4073",
    "state": "QLD",
    "rating": 4.7,
    "reviews": 11,
    "lat": -27.5386548,
    "lng": 152.9499756,
    "place_id": "ChIJbxIItr9PkWsRwrm4NjdnBhs",
    "maps_url": "https://www.google.com/maps/place/?q=place_id:ChIJbxIItr9PkWsRwrm4NjdnBhs"
  },
  {
    "name": "Nazareth Residential Aged Care",
    "address": "23 Hawthorne St, Woolloongabba QLD 4102, Australia",
    "suburb": "Woolloongabba QLD 4102",
    "state": "QLD",
    "rating": 4.4,
    "reviews": 19,
    "lat": -27.4879711,
    "lng": 153.0343314,
    "place_id": "ChIJTUWmMGtakWsRAEh3Od2agNo",
    "maps_url": "https://www.google.com/maps/place/?q=place_id:ChIJTUWmMGtakWsRAEh3Od2agNo"
  },
  {
    "name": "Pearl Home Care - Brisbane North",
    "address": "1277 Sandgate Rd, Nundah QLD 4012, Australia",
    "suburb": "Nundah QLD 4012",
    "state": "QLD",
    "rating": 4.8,
    "reviews": 5,
    "lat": -27.4015774,
    "lng": 153.0598135,
    "place_id": "ChIJl3eu_0NZkWsR981fnOjz1SI",
    "maps_url": "https://www.google.com/maps/place/?q=place_id:ChIJl3eu_0NZkWsR981fnOjz1SI"
  },
  {
    "name": "Cooper House Residential Aged Care Community",
    "address": "930 Gympie Rd, Chermside QLD 4032, Australia",
    "suburb": "Chermside QLD 4032",
    "state": "QLD",
    "rating": 5,
    "reviews": 8,
    "lat": -27.3825647,
    "lng": 153.0289313,
    "place_id": "ChIJRzh9Vw9YkWsRreDOATVROnI",
    "maps_url": "https://www.google.com/maps/place/?q=place_id:ChIJRzh9Vw9YkWsRreDOATVROnI"
  },
  {
    "name": "Dovida Brisbane Central and Ipswich",
    "address": "Level 3/601 Coronation Dr, Toowong QLD 4066, Australia",
    "suburb": "Toowong QLD 4066",
    "state": "QLD",
    "rating": 4.8,
    "reviews": 40,
    "lat": -27.483982,
    "lng": 152.994433,
    "place_id": "ChIJ1Z1KWuxQkWsR-F3pQcXTFGk",
    "maps_url": "https://www.google.com/maps/place/?q=place_id:ChIJ1Z1KWuxQkWsR-F3pQcXTFGk"
  },
  {
    "name": "Seabrae Manor",
    "address": "21 Buchanan St, Rothwell QLD 4022, Australia",
    "suburb": "Rothwell QLD 4022",
    "state": "QLD",
    "rating": 4.6,
    "reviews": 43,
    "lat": -27.2201449,
    "lng": 153.0597565,
    "place_id": "ChIJ55MfooLlk2sRzfBQ1cWUBxw",
    "maps_url": "https://www.google.com/maps/place/?q=place_id:ChIJ55MfooLlk2sRzfBQ1cWUBxw"
  },
  {
    "name": "Lady Small Haven Aged Care Service",
    "address": "60 Allchurch Ave, Benowa QLD 4217, Australia",
    "suburb": "Benowa QLD 4217",
    "state": "QLD",
    "rating": 4.7,
    "reviews": 19,
    "lat": -28.0060326,
    "lng": 153.3931342,
    "place_id": "ChIJr9qLkzIFkWsRMVPGUxU7_Wg",
    "maps_url": "https://www.google.com/maps/place/?q=place_id:ChIJr9qLkzIFkWsRMVPGUxU7_Wg"
  },
  {
    "name": "Harbour Quays Aged Care",
    "address": "36 Compass Dr, Biggera Waters QLD 4216, Australia",
    "suburb": "Biggera Waters QLD 4216",
    "state": "QLD",
    "rating": 4.3,
    "reviews": 43,
    "lat": -27.92704,
    "lng": 153.380412,
    "place_id": "ChIJVfrfo9IRkWsRcYjxApBfOqU",
    "maps_url": "https://www.google.com/maps/place/?q=place_id:ChIJVfrfo9IRkWsRcYjxApBfOqU"
  },
  {
    "name": "St Vincent's Aged Care Southport",
    "address": "32 Bauer St, Southport QLD 4215, Australia",
    "suburb": "Southport QLD 4215",
    "state": "QLD",
    "rating": 4.1,
    "reviews": 32,
    "lat": -27.9764371,
    "lng": 153.4151699,
    "place_id": "ChIJtxLcLPUPkWsRs68xqWEH-64",
    "maps_url": "https://www.google.com/maps/place/?q=place_id:ChIJtxLcLPUPkWsRs68xqWEH-64"
  },
  {
    "name": "Golden Age Aged Care Service",
    "address": "60 Ridgeway Ave, Southport QLD 4215, Australia",
    "suburb": "Southport QLD 4215",
    "state": "QLD",
    "rating": 4.2,
    "reviews": 37,
    "lat": -27.984254,
    "lng": 153.4058547,
    "place_id": "ChIJlbJ-kFkFkWsRG1VC49FC26w",
    "maps_url": "https://www.google.com/maps/place/?q=place_id:ChIJlbJ-kFkFkWsRG1VC49FC26w"
  },
  {
    "name": "Home Care Assistance Gold Coast",
    "address": "Tower 3 30308/9, 9 Lawson St, Southport QLD 4215, Australia",
    "suburb": "9 Lawson St",
    "state": "QLD",
    "rating": 4.8,
    "reviews": 60,
    "lat": -27.9705877,
    "lng": 153.4131846,
    "place_id": "ChIJYZs88uwPkWsRB8nBMvO8ElQ",
    "maps_url": "https://www.google.com/maps/place/?q=place_id:ChIJYZs88uwPkWsRB8nBMvO8ElQ"
  },
  {
    "name": "TriCare Bayview Place Aged Care Residence",
    "address": "86 Bayview St, Runaway Bay QLD 4216, Australia",
    "suburb": "Runaway Bay QLD 4216",
    "state": "QLD",
    "rating": 4.8,
    "reviews": 5,
    "lat": -27.9179011,
    "lng": 153.4033856,
    "place_id": "ChIJgRiWtSQOkWsRq8tpO0YxK8E",
    "maps_url": "https://www.google.com/maps/place/?q=place_id:ChIJgRiWtSQOkWsRq8tpO0YxK8E"
  },
  {
    "name": "TriCare Mermaid Beach Aged Care Residence",
    "address": "2424 Gold Coast Hwy, Mermaid Beach QLD 4218, Australia",
    "suburb": "Mermaid Beach QLD 4218",
    "state": "QLD",
    "rating": 4.3,
    "reviews": 12,
    "lat": -28.0471366,
    "lng": 153.4347667,
    "place_id": "ChIJ6zz99YQDkWsRYA5pLhiPW5A",
    "maps_url": "https://www.google.com/maps/place/?q=place_id:ChIJ6zz99YQDkWsRYA5pLhiPW5A"
  },
  {
    "name": "Broadwater Grove Care Community",
    "address": "55 Worendo St, Southport QLD 4215, Australia",
    "suburb": "Southport QLD 4215",
    "state": "QLD",
    "rating": 4.3,
    "reviews": 37,
    "lat": -27.960094,
    "lng": 153.406006,
    "place_id": "ChIJrQKl0egPkWsR80KiEQoiJOU",
    "maps_url": "https://www.google.com/maps/place/?q=place_id:ChIJrQKl0egPkWsR80KiEQoiJOU"
  },
  {
    "name": "Bupa Aged Care Merrimac",
    "address": "3-5 Glenhaven Ct, Merrimac QLD 4226, Australia",
    "suburb": "Merrimac QLD 4226",
    "state": "QLD",
    "rating": 4.7,
    "reviews": 33,
    "lat": -28.0527316,
    "lng": 153.3705757,
    "place_id": "ChIJKxg-RF4bkWsRR7HkFKYkTvk",
    "maps_url": "https://www.google.com/maps/place/?q=place_id:ChIJKxg-RF4bkWsRR7HkFKYkTvk"
  },
  {
    "name": "Bupa Aged Care Runaway Bay",
    "address": "376 Pine Ridge Rd, Runaway Bay QLD 4216, Australia",
    "suburb": "Runaway Bay QLD 4216",
    "state": "QLD",
    "rating": 4.6,
    "reviews": 47,
    "lat": -27.9155657,
    "lng": 153.3865198,
    "place_id": "ChIJCShWeNkRkWsR_eT-7pS7hPg",
    "maps_url": "https://www.google.com/maps/place/?q=place_id:ChIJCShWeNkRkWsR_eT-7pS7hPg"
  },
  {
    "name": "Dovida Gold Coast",
    "address": "Unit 31/207 Currumburra Rd, Ashmore QLD 4214, Australia",
    "suburb": "Ashmore QLD 4214",
    "state": "QLD",
    "rating": 4.7,
    "reviews": 22,
    "lat": -27.9776268,
    "lng": 153.381531,
    "place_id": "ChIJVZg9mLAakWsRlZkEoROmbBU",
    "maps_url": "https://www.google.com/maps/place/?q=place_id:ChIJVZg9mLAakWsRlZkEoROmbBU"
  },
  {
    "name": "Arcare Aged Care Parkwood",
    "address": "2 Woodlands Way, Parkwood QLD 4214, Australia",
    "suburb": "Parkwood QLD 4214",
    "state": "QLD",
    "rating": 4.9,
    "reviews": 8,
    "lat": -27.9465971,
    "lng": 153.3663565,
    "place_id": "ChIJC48nN7QRkWsRK1ymMsoXevQ",
    "maps_url": "https://www.google.com/maps/place/?q=place_id:ChIJC48nN7QRkWsRK1ymMsoXevQ"
  },
  {
    "name": "St Vincent's Aged Care Arundel",
    "address": "101 Allied Dr, Arundel QLD 4214, Australia",
    "suburb": "Arundel QLD 4214",
    "state": "QLD",
    "rating": 4,
    "reviews": 11,
    "lat": -27.9401344,
    "lng": 153.3824014,
    "place_id": "ChIJww2leiUQkWsRmSWUM2KJdY4",
    "maps_url": "https://www.google.com/maps/place/?q=place_id:ChIJww2leiUQkWsRmSWUM2KJdY4"
  },
  {
    "name": "Southport Lodge",
    "address": "37 Jimmieson Ave, Labrador QLD 4215, Australia",
    "suburb": "Labrador QLD 4215",
    "state": "QLD",
    "rating": 4.3,
    "reviews": 24,
    "lat": -27.9536649,
    "lng": 153.395909,
    "place_id": "ChIJm6qMmeAPkWsR-ZuZLD38Lo0",
    "maps_url": "https://www.google.com/maps/place/?q=place_id:ChIJm6qMmeAPkWsR-ZuZLD38Lo0"
  },
  {
    "name": "BlueCare Arundel Woodlands Lodge Aged Care Facility",
    "address": "29 Melbourne Rd, Arundel QLD 4214, Australia",
    "suburb": "Arundel QLD 4214",
    "state": "QLD",
    "rating": 3.9,
    "reviews": 68,
    "lat": -27.9424602,
    "lng": 153.3860447,
    "place_id": "ChIJe2SIzay1lmsR4-Rc157au7M",
    "maps_url": "https://www.google.com/maps/place/?q=place_id:ChIJe2SIzay1lmsR4-Rc157au7M"
  },
  {
    "name": "Bupa Aged Care Tugun",
    "address": "6 Croft Court, Tugun QLD 4224, Australia",
    "suburb": "Tugun QLD 4224",
    "state": "QLD",
    "rating": 4.4,
    "reviews": 35,
    "lat": -28.1529269,
    "lng": 153.4849219,
    "place_id": "ChIJBcFPjB0CkWsRjdAP2f0wXwQ",
    "maps_url": "https://www.google.com/maps/place/?q=place_id:ChIJBcFPjB0CkWsRjdAP2f0wXwQ"
  },
  {
    "name": "TriCare Cypress Gardens Aged Care Residence",
    "address": "Gooding Drive, Clear Island Waters QLD 4226, Australia",
    "suburb": "Clear Island Waters QLD 4226",
    "state": "QLD",
    "rating": 2.6,
    "reviews": 8,
    "lat": -28.0321022,
    "lng": 153.3927996,
    "place_id": "ChIJ_QGgSS9clmsRMgJjZn91dSA",
    "maps_url": "https://www.google.com/maps/place/?q=place_id:ChIJ_QGgSS9clmsRMgJjZn91dSA"
  },
  {
    "name": "Abri Residential Aged Care Home | Anglicare Southern Queensland - Southport",
    "address": "37 Bauer St, Southport QLD 4215, Australia",
    "suburb": "Southport QLD 4215",
    "state": "QLD",
    "rating": 4.2,
    "reviews": 5,
    "lat": -27.976414,
    "lng": 153.41671,
    "place_id": "ChIJaURaI4sPkWsRilQMdVDMxaQ",
    "maps_url": "https://www.google.com/maps/place/?q=place_id:ChIJaURaI4sPkWsRilQMdVDMxaQ"
  },
  {
    "name": "Bolton Clarke Villa Serena, Robina - Residential Aged Care",
    "address": "2 Easthill Dr, Robina QLD 4226, Australia",
    "suburb": "Robina QLD 4226",
    "state": "QLD",
    "rating": 4.5,
    "reviews": 18,
    "lat": -28.080208,
    "lng": 153.3805642,
    "place_id": "ChIJNxevA8gckWsRumKWc6aAvDY",
    "maps_url": "https://www.google.com/maps/place/?q=place_id:ChIJNxevA8gckWsRumKWc6aAvDY"
  },
  {
    "name": "Homesteads Aged Care Service",
    "address": "64 Billabirra Cres, Nerang QLD 4211, Australia",
    "suburb": "Nerang QLD 4211",
    "state": "QLD",
    "rating": 4.3,
    "reviews": 16,
    "lat": -27.9876394,
    "lng": 153.3162185,
    "place_id": "ChIJz-uqYDoakWsR8iKH9aQ96LI",
    "maps_url": "https://www.google.com/maps/place/?q=place_id:ChIJz-uqYDoakWsR8iKH9aQ96LI"
  },
  {
    "name": "St Vincent's Aged Care Maroochydore",
    "address": "37 Baden Powell St, Maroochydore QLD 4558, Australia",
    "suburb": "Maroochydore QLD 4558",
    "state": "QLD",
    "rating": 4.5,
    "reviews": 33,
    "lat": -26.6511429,
    "lng": 153.0878278,
    "place_id": "ChIJSWffL2B2k2sRR0c98ouDoTM",
    "maps_url": "https://www.google.com/maps/place/?q=place_id:ChIJSWffL2B2k2sRR0c98ouDoTM"
  },
  {
    "name": "BlueCare Warana Beachwood Aged Care Facility",
    "address": "124 Nicklin Way, Warana QLD 4575, Australia",
    "suburb": "Warana QLD 4575",
    "state": "QLD",
    "rating": 4.6,
    "reviews": 26,
    "lat": -26.7146727,
    "lng": 153.1289351,
    "place_id": "ChIJI9OfFBeek2sRTySxamVCZVE",
    "maps_url": "https://www.google.com/maps/place/?q=place_id:ChIJI9OfFBeek2sRTySxamVCZVE"
  },
  {
    "name": "Arcare Aged Care Birtinya",
    "address": "14 waterside Retreat, Birtinya QLD 4575, Australia",
    "suburb": "Birtinya QLD 4575",
    "state": "QLD",
    "rating": 5,
    "reviews": 12,
    "lat": -26.7445385,
    "lng": 153.1216464,
    "place_id": "ChIJqV52mwGfk2sRPdxsBREF9yk",
    "maps_url": "https://www.google.com/maps/place/?q=place_id:ChIJqV52mwGfk2sRPdxsBREF9yk"
  },
  {
    "name": "Palm Lake Care",
    "address": "Village Way, Little Mountain QLD 4551, Australia",
    "suburb": "Little Mountain QLD 4551",
    "state": "QLD",
    "rating": 4.7,
    "reviews": 13,
    "lat": -26.7766948,
    "lng": 153.087178,
    "place_id": "ChIJpcty9Vedk2sRF4jixCDXJ_g",
    "maps_url": "https://www.google.com/maps/place/?q=place_id:ChIJpcty9Vedk2sRF4jixCDXJ_g"
  },
  {
    "name": "Dovida Sunshine Coast & Gympie",
    "address": "Unit 1/8 Innovation Pkwy, Birtinya QLD 4575, Australia",
    "suburb": "Birtinya QLD 4575",
    "state": "QLD",
    "rating": 4.8,
    "reviews": 59,
    "lat": -26.7334831,
    "lng": 153.1212718,
    "place_id": "ChIJkUjcCGJ2k2sRrWB1OS5gQrA",
    "maps_url": "https://www.google.com/maps/place/?q=place_id:ChIJkUjcCGJ2k2sRrWB1OS5gQrA"
  },
  {
    "name": "Estia Health Maroochydore",
    "address": "2-6 Amity Ave, Maroochydore QLD 4558, Australia",
    "suburb": "Maroochydore QLD 4558",
    "state": "QLD",
    "rating": 4,
    "reviews": 30,
    "lat": -26.6611957,
    "lng": 153.0794219,
    "place_id": "ChIJIzhOIx53k2sRma5FXBMb2gU",
    "maps_url": "https://www.google.com/maps/place/?q=place_id:ChIJIzhOIx53k2sRma5FXBMb2gU"
  },
  {
    "name": "Estia Health Pacific Paradise",
    "address": "26 Menzies Dr, Pacific Paradise QLD 4564, Australia",
    "suburb": "Pacific Paradise QLD 4564",
    "state": "QLD",
    "rating": 4.6,
    "reviews": 20,
    "lat": -26.6137024,
    "lng": 153.078335,
    "place_id": "ChIJG6R12Up3k2sRXtGbd8xKXx4",
    "maps_url": "https://www.google.com/maps/place/?q=place_id:ChIJG6R12Up3k2sRXtGbd8xKXx4"
  },
  {
    "name": "Estia Health Twin Waters",
    "address": "190 Ocean Dr, Twin Waters QLD 4564, Australia",
    "suburb": "Twin Waters QLD 4564",
    "state": "QLD",
    "rating": 4.5,
    "reviews": 47,
    "lat": -26.6304643,
    "lng": 153.0879482,
    "place_id": "ChIJPQ0kFZV2k2sRaFNLXHFUfY8",
    "maps_url": "https://www.google.com/maps/place/?q=place_id:ChIJPQ0kFZV2k2sRaFNLXHFUfY8"
  },
  {
    "name": "Kawana Waters Care Community",
    "address": "1 Reflection Cres, Birtinya QLD 4575, Australia",
    "suburb": "Birtinya QLD 4575",
    "state": "QLD",
    "rating": 4.3,
    "reviews": 37,
    "lat": -26.750435,
    "lng": 153.114794,
    "place_id": "ChIJj12PhoOek2sRxF4bwR5B8co",
    "maps_url": "https://www.google.com/maps/place/?q=place_id:ChIJj12PhoOek2sRxF4bwR5B8co"
  },
  {
    "name": "Bolton Clarke, Buderim Views, Buderim - Residential Aged Care",
    "address": "383 Mooloolaba Rd, Buderim QLD 4556, Australia",
    "suburb": "Buderim QLD 4556",
    "state": "QLD",
    "rating": 2.8,
    "reviews": 9,
    "lat": -26.6779575,
    "lng": 153.0914611,
    "place_id": "ChIJa8sj_xN2k2sRltJd0P0Qo1U",
    "maps_url": "https://www.google.com/maps/place/?q=place_id:ChIJa8sj_xN2k2sRltJd0P0Qo1U"
  },
  {
    "name": "Bolton Clarke, The Ormsby, Buderim - Residential Aged Care",
    "address": "112 Burnett St, Buderim QLD 4556, Australia",
    "suburb": "Buderim QLD 4556",
    "state": "QLD",
    "rating": 3.7,
    "reviews": 17,
    "lat": -26.6891152,
    "lng": 153.0450656,
    "place_id": "ChIJ8_Tf2I6dk2sRKjuITkFiGGA",
    "maps_url": "https://www.google.com/maps/place/?q=place_id:ChIJ8_Tf2I6dk2sRKjuITkFiGGA"
  },
  {
    "name": "Immanuel Gardens Retirement Living, Aged Care & Home Care",
    "address": "10 Magnetic Dr, Buderim QLD 4556, Australia",
    "suburb": "Buderim QLD 4556",
    "state": "QLD",
    "rating": 4.5,
    "reviews": 20,
    "lat": -26.6765491,
    "lng": 153.0833874,
    "place_id": "ChIJO8I8Ljx2k2sRYsAKf7bviZ4",
    "maps_url": "https://www.google.com/maps/place/?q=place_id:ChIJO8I8Ljx2k2sRYsAKf7bviZ4"
  },
  {
    "name": "Regis Kuluin",
    "address": "354 Main Rd, Kuluin QLD 4558, Australia",
    "suburb": "Kuluin QLD 4558",
    "state": "QLD",
    "rating": 3.9,
    "reviews": 17,
    "lat": -26.658172,
    "lng": 153.052026,
    "place_id": "ChIJEdZBwrB3k2sRD9JdeETeP6c",
    "maps_url": "https://www.google.com/maps/place/?q=place_id:ChIJEdZBwrB3k2sRD9JdeETeP6c"
  },
  {
    "name": "Arcare Aged Care Maroochydore",
    "address": "54 Dalton Dr, Maroochydore QLD 4558, Australia",
    "suburb": "Maroochydore QLD 4558",
    "state": "QLD",
    "rating": 3.1,
    "reviews": 11,
    "lat": -26.6669347,
    "lng": 153.0866727,
    "place_id": "ChIJB7PoJ2p2k2sR3AAxxiIdiwQ",
    "maps_url": "https://www.google.com/maps/place/?q=place_id:ChIJB7PoJ2p2k2sR3AAxxiIdiwQ"
  },
  {
    "name": "BlueCare Sunrise Beach Aged Care Facility",
    "address": "4 Grasstree Ct, Sunrise Beach QLD 4567, Australia",
    "suburb": "Sunrise Beach QLD 4567",
    "state": "QLD",
    "rating": 4.4,
    "reviews": 9,
    "lat": -26.4118297,
    "lng": 153.0993481,
    "place_id": "ChIJIdwYX2ppk2sRig3Lf1iPjR8",
    "maps_url": "https://www.google.com/maps/place/?q=place_id:ChIJIdwYX2ppk2sRig3Lf1iPjR8"
  },
  {
    "name": "Saint Mary's Aged Care",
    "address": "31 Verdon St, Pelican Waters QLD 4551, Australia",
    "suburb": "Pelican Waters QLD 4551",
    "state": "QLD",
    "rating": 4.3,
    "reviews": 8,
    "lat": -26.8347134,
    "lng": 153.1128633,
    "place_id": "ChIJW5LdL4GZk2sR9OsUjuoBEZg",
    "maps_url": "https://www.google.com/maps/place/?q=place_id:ChIJW5LdL4GZk2sR9OsUjuoBEZg"
  },
  {
    "name": "Coolum Beach Care Centre (Sundale)",
    "address": "4 Wembley Rd, Coolum Beach QLD 4573, Australia",
    "suburb": "Coolum Beach QLD 4573",
    "state": "QLD",
    "rating": 4.2,
    "reviews": 25,
    "lat": -26.5182491,
    "lng": 153.0835951,
    "place_id": "ChIJ-_mnjt9xk2sR7vaKbXWWP0g",
    "maps_url": "https://www.google.com/maps/place/?q=place_id:ChIJ-_mnjt9xk2sR7vaKbXWWP0g"
  },
  {
    "name": "Regis Maroochydore",
    "address": "33 Allora Dr, Maroochydore QLD 4558, Australia",
    "suburb": "Maroochydore QLD 4558",
    "state": "QLD",
    "rating": 4.2,
    "reviews": 6,
    "lat": -26.6606933,
    "lng": 153.0711838,
    "place_id": "ChIJW1pz9k52k2sRwnLgFd_b6Mw",
    "maps_url": "https://www.google.com/maps/place/?q=place_id:ChIJW1pz9k52k2sRwnLgFd_b6Mw"
  },
  {
    "name": "BlueCare Bli Bli Aged Care Facility",
    "address": "20 Lefoes Rd, Bli Bli QLD 4560, Australia",
    "suburb": "Bli Bli QLD 4560",
    "state": "QLD",
    "rating": 4.1,
    "reviews": 28,
    "lat": -26.6140518,
    "lng": 153.0384521,
    "place_id": "ChIJSxVuq0B3k2sRkBO7IMUxQPo",
    "maps_url": "https://www.google.com/maps/place/?q=place_id:ChIJSxVuq0B3k2sRkBO7IMUxQPo"
  },
  {
    "name": "TriCare Kawana Waters Aged Care Residence",
    "address": "90 Nicklin Way, Warana QLD 4575, Australia",
    "suburb": "Warana QLD 4575",
    "state": "QLD",
    "rating": 3.2,
    "reviews": 18,
    "lat": -26.7118594,
    "lng": 153.1297524,
    "place_id": "ChIJ3ye9fBeek2sRNZ71la3R2UA",
    "maps_url": "https://www.google.com/maps/place/?q=place_id:ChIJ3ye9fBeek2sRNZ71la3R2UA"
  },
  {
    "name": "Anglicare Southern Queensland | Townsville - Home and Community Aged Care Services",
    "address": "155/157 Denham St, Townsville City QLD 4810, Australia",
    "suburb": "Townsville City QLD 4810",
    "state": "QLD",
    "rating": 3.8,
    "reviews": 13,
    "lat": -19.2554883,
    "lng": 146.8166196,
    "place_id": "ChIJV8_mM9v41WsRtjh3f4xTtqw",
    "maps_url": "https://www.google.com/maps/place/?q=place_id:ChIJV8_mM9v41WsRtjh3f4xTtqw"
  },
  {
    "name": "Seva Care",
    "address": "Townsville City QLD 4810, Australia",
    "suburb": "Australia",
    "state": "QLD",
    "rating": null,
    "reviews": 0,
    "lat": -19.2589635,
    "lng": 146.8169483,
    "place_id": "ChIJaaHkwED51WsRf7gwIQ6RZyE",
    "maps_url": "https://www.google.com/maps/place/?q=place_id:ChIJaaHkwED51WsRf7gwIQ6RZyE"
  },
  {
    "name": "Care Direct",
    "address": "Suite 12/28 Hamilton St, Townsville City QLD 4810, Australia",
    "suburb": "Townsville City QLD 4810",
    "state": "QLD",
    "rating": 4.5,
    "reviews": 8,
    "lat": -19.2559972,
    "lng": 146.8163915,
    "place_id": "ChIJ-QJVeiD61WsRrwOqo-O8xyw",
    "maps_url": "https://www.google.com/maps/place/?q=place_id:ChIJ-QJVeiD61WsRrwOqo-O8xyw"
  },
  {
    "name": "Ozcare",
    "address": "10 Blackwood St, Townsville City QLD 4810, Australia",
    "suburb": "Townsville City QLD 4810",
    "state": "QLD",
    "rating": 5,
    "reviews": 3,
    "lat": -19.2622112,
    "lng": 146.8126895,
    "place_id": "ChIJealcCBj51WsRXrt6JP9K1eY",
    "maps_url": "https://www.google.com/maps/place/?q=place_id:ChIJealcCBj51WsRXrt6JP9K1eY"
  },
  {
    "name": "The CareSide",
    "address": "2nd Floor/280 Flinders St, Townsville City QLD 4810, Australia",
    "suburb": "Townsville City QLD 4810",
    "state": "QLD",
    "rating": null,
    "reviews": 0,
    "lat": -19.2592145,
    "lng": 146.8177763,
    "place_id": "ChIJNYPhtff51WsRkUd8wTBezKA",
    "maps_url": "https://www.google.com/maps/place/?q=place_id:ChIJNYPhtff51WsRkUd8wTBezKA"
  },
  {
    "name": "BlueCare Townsville Community Care",
    "address": "73 Wills St, Townsville City QLD 4810, Australia",
    "suburb": "Townsville City QLD 4810",
    "state": "QLD",
    "rating": 3.1,
    "reviews": 8,
    "lat": -19.256832,
    "lng": 146.8141893,
    "place_id": "ChIJLRjgodz41WsRqMP8VPqB4TA",
    "maps_url": "https://www.google.com/maps/place/?q=place_id:ChIJLRjgodz41WsRqMP8VPqB4TA"
  },
  {
    "name": "Bolton Clarke Rowes Bay, Townsville - Residential Aged Care",
    "address": "9 Havana St, Rowes Bay QLD 4810, Australia",
    "suburb": "Rowes Bay QLD 4810",
    "state": "QLD",
    "rating": 4,
    "reviews": 29,
    "lat": -19.2365435,
    "lng": 146.7851946,
    "place_id": "ChIJ5QwCL2D41WsRLybCg4iiS5A",
    "maps_url": "https://www.google.com/maps/place/?q=place_id:ChIJ5QwCL2D41WsRLybCg4iiS5A"
  },
  {
    "name": "Ozcare Villa Vincent - Townsville",
    "address": "2 Acacia St, Mundingburra QLD 4812, Australia",
    "suburb": "Mundingburra QLD 4812",
    "state": "QLD",
    "rating": 4.5,
    "reviews": 4,
    "lat": -19.2903427,
    "lng": 146.7808558,
    "place_id": "ChIJlSWOsYT51WsRNlPOlPKElxY",
    "maps_url": "https://www.google.com/maps/place/?q=place_id:ChIJlSWOsYT51WsRNlPOlPKElxY"
  },
  {
    "name": "Ozcare - Townsville",
    "address": "53-57 Mooney St, Gulliver QLD 4812, Australia",
    "suburb": "Gulliver QLD 4812",
    "state": "QLD",
    "rating": 4.1,
    "reviews": 17,
    "lat": -19.2816695,
    "lng": 146.7713177,
    "place_id": "ChIJ5cyu5pb51WsRE2PbiwF3X5U",
    "maps_url": "https://www.google.com/maps/place/?q=place_id:ChIJ5cyu5pb51WsRE2PbiwF3X5U"
  },
  {
    "name": "Crewe Sharp Townsville",
    "address": "Unit 3/458 Flinders St, Townsville City QLD 4810, Australia",
    "suburb": "Townsville City QLD 4810",
    "state": "QLD",
    "rating": null,
    "reviews": 0,
    "lat": -19.2624107,
    "lng": 146.8151704,
    "place_id": "ChIJG7frQ4P51WsRoGI72_D7lto",
    "maps_url": "https://www.google.com/maps/place/?q=place_id:ChIJG7frQ4P51WsRoGI72_D7lto"
  },
  {
    "name": "Loreto nursing home",
    "address": "24 Fulham Rd, Pimlico QLD 4812, Australia",
    "suburb": "Pimlico QLD 4812",
    "state": "QLD",
    "rating": 4.5,
    "reviews": 2,
    "lat": -19.2898502,
    "lng": 146.7882843,
    "place_id": "ChIJU6gO9tz51WsRkZ3qdML-1sk",
    "maps_url": "https://www.google.com/maps/place/?q=place_id:ChIJU6gO9tz51WsRkZ3qdML-1sk"
  },