[
  {
    "name": "Cashcard ATM",
    "address": "84 Union St, Pyrmont",
    "suburb": "Sydney CBD",
    "state": "NSW",
    "lat": -33.8696894,
    "lng": 151.1973409,
    "place_id": "ChIJ5SS4ODeuEmsRp_Mg8nA7mEg",
    "maps_url": "https://www.google.com/maps/place/?q=place_id:ChIJ5SS4ODeuEmsRp_Mg8nA7mEg",
    "rating": 3.3,
    "total_ratings": 3
  },
  {
    "name": "My Credit Union",
    "address": "Chatswood",
    "suburb": "Sydney CBD",
    "state": "NSW",
    "lat": -33.7964302,
    "lng": 151.1819739,
    "place_id": "ChIJDc1RDNSoEmsRCcBI-ZwpeYs",
    "maps_url": "https://www.google.com/maps/place/?q=place_id:ChIJDc1RDNSoEmsRCcBI-ZwpeYs",
    "rating": null,
    "total_ratings": 0
  },
  {
    "name": "SGE Credit Union",
    "address": "Level 25/201 Elizabeth St, Sydney",
    "suburb": "Sydney CBD",
    "state": "NSW",
    "lat": -33.873788,
    "lng": 151.2095495,
    "place_id": "ChIJr0VfFHGLtAERyzuOUomm3KE",
    "maps_url": "https://www.google.com/maps/place/?q=place_id:ChIJr0VfFHGLtAERyzuOUomm3KE",
    "rating": 3,
    "total_ratings": 2
  },
  {
    "name": "Laboratories Credit Union Limited",
    "address": "Unit 1/3 Julius Ave, North Ryde",
    "suburb": "Sydney CBD",
    "state": "NSW",
    "lat": -33.7971227,
    "lng": 151.1427319,
    "place_id": "ChIJAdFPWlavEmsRZxAKyHXJy9w",
    "maps_url": "https://www.google.com/maps/place/?q=place_id:ChIJAdFPWlavEmsRZxAKyHXJy9w",
    "rating": 5,
    "total_ratings": 9
  },
  {
    "name": "atmx The Artrium",
    "address": "Located near Sydney Laser Dental Care, 60 Union St, Pyrmont",
    "suburb": "Sydney CBD",
    "state": "NSW",
    "lat": -33.8695165,
    "lng": 151.1965742,
    "place_id": "ChIJY4urLeevEmsRhyGC1UDtUsw",
    "maps_url": "https://www.google.com/maps/place/?q=place_id:ChIJY4urLeevEmsRhyGC1UDtUsw",
    "rating": 5,
    "total_ratings": 1
  },
  {
    "name": "Transport Mutual Credit Union",
    "address": "Ground Floor/410 Elizabeth St, Surry Hills",
    "suburb": "Sydney CBD",
    "state": "NSW",
    "lat": -33.885999,
    "lng": 151.208483,
    "place_id": "ChIJWy9g8yGuEmsRxawli3k3LVg",
    "maps_url": "https://www.google.com/maps/place/?q=place_id:ChIJWy9g8yGuEmsRxawli3k3LVg",
    "rating": 4.6,
    "total_ratings": 17
  },
  {
    "name": "RSL Money",
    "address": "1 Bligh St, Sydney",
    "suburb": "Sydney CBD",
    "state": "NSW",
    "lat": -33.8648623,
    "lng": 151.2105338,
    "place_id": "ChIJ5YKnK0GuEmsRzcks9GEVcmk",
    "maps_url": "https://www.google.com/maps/place/?q=place_id:ChIJ5YKnK0GuEmsRzcks9GEVcmk",
    "rating": null,
    "total_ratings": 0
  },
  {
    "name": "Western Union",
    "address": "181/569 George St, Sydney",
    "suburb": "Sydney CBD",
    "state": "NSW",
    "lat": -33.8768601,
    "lng": 151.2057744,
    "place_id": "ChIJUexpusSvEmsR0C7-Wa3fWGc",
    "maps_url": "https://www.google.com/maps/place/?q=place_id:ChIJUexpusSvEmsR0C7-Wa3fWGc",
    "rating": 1.7,
    "total_ratings": 7
  },
  {
    "name": "Western Union",
    "address": "133 Oxford St, Darlinghurst",
    "suburb": "Sydney CBD",
    "state": "NSW",
    "lat": -33.8796865,
    "lng": 151.2155855,
    "place_id": "ChIJ97BaSReuEmsRbadXRIxpUMQ",
    "maps_url": "https://www.google.com/maps/place/?q=place_id:ChIJ97BaSReuEmsRbadXRIxpUMQ",
    "rating": 3,
    "total_ratings": 47
  },
  {
    "name": "Union Bank of India",
    "address": "19th Century Australian Art/20 Hunter St, Sydney",
    "suburb": "Sydney CBD",
    "state": "NSW",
    "lat": -33.8654196,
    "lng": 151.2079876,
    "place_id": "ChIJX6AjB0GuEmsRPaHRN9B7uxo",
    "maps_url": "https://www.google.com/maps/place/?q=place_id:ChIJX6AjB0GuEmsRPaHRN9B7uxo",
    "rating": 3.4,
    "total_ratings": 14
  },
  {
    "name": "Australian Credit Union Archives",
    "address": "3/59 Buckingham St, Surry Hills",
    "suburb": "Sydney CBD",
    "state": "NSW",
    "lat": -33.8884547,
    "lng": 151.206967,
    "place_id": "ChIJGa3JgSCuEmsRWhBQ5j0H2fg",
    "maps_url": "https://www.google.com/maps/place/?q=place_id:ChIJGa3JgSCuEmsRWhBQ5j0H2fg",
    "rating": null,
    "total_ratings": 0
  },
  {
    "name": "atmx Circular Quay 1",
    "address": "e11 Alfred St, Sydney",
    "suburb": "Sydney CBD",
    "state": "NSW",
    "lat": -33.8614612,
    "lng": 151.2109737,
    "place_id": "ChIJhfrqATevEmsRjL34qvq_RXY",
    "maps_url": "https://www.google.com/maps/place/?q=place_id:ChIJhfrqATevEmsRjL34qvq_RXY",
    "rating": 2.3,
    "total_ratings": 4
  },
  {
    "name": "Western Union",
    "address": "525 George St, Sydney",
    "suburb": "Sydney CBD",
    "state": "NSW",
    "lat": -33.8754031,
    "lng": 151.2059185,
    "place_id": "ChIJVaOr2AevEmsRp-38S9-0dnA",
    "maps_url": "https://www.google.com/maps/place/?q=place_id:ChIJVaOr2AevEmsRp-38S9-0dnA",
    "rating": 2.3,
    "total_ratings": 9
  },
  {
    "name": "Oxley Group",
    "address": "8/191 O'Riordan St, Mascot",
    "suburb": "Sydney CBD",
    "state": "NSW",
    "lat": -33.9275057,
    "lng": 151.186796,
    "place_id": "ChIJEaU65AGxEmsRPcnkcfZuH0M",
    "maps_url": "https://www.google.com/maps/place/?q=place_id:ChIJEaU65AGxEmsRPcnkcfZuH0M",
    "rating": null,
    "total_ratings": 0
  },
  {
    "name": "DC ATM",
    "address": "SUITE 1/52 Alfred St S, Milsons Point",
    "suburb": "Sydney CBD",
    "state": "NSW",
    "lat": -33.8469174,
    "lng": 151.2110833,
    "place_id": "ChIJQTNQw4quEmsR5P_OprCzi2A",
    "maps_url": "https://www.google.com/maps/place/?q=place_id:ChIJQTNQw4quEmsR5P_OprCzi2A",
    "rating": 2.7,
    "total_ratings": 3
  },
  {
    "name": "Union St at Bank Lane",
    "address": "McMahons Point",
    "suburb": "Sydney CBD",
    "state": "NSW",
    "lat": -33.840748,
    "lng": 151.20079,
    "place_id": "ChIJRx8I0vCuEmsRLAqiyu63FvQ",
    "maps_url": "https://www.google.com/maps/place/?q=place_id:ChIJRx8I0vCuEmsRLAqiyu63FvQ",
    "rating": 5,
    "total_ratings": 1
  },
  {
    "name": "CBA ATM (Branch)",
    "address": "48 Martin Pl, Sydney",
    "suburb": "Sydney CBD",
    "state": "NSW",
    "lat": -33.8672774,
    "lng": 151.2100349,
    "place_id": "ChIJx65FIkCuEmsRwh6b6GOksSw",
    "maps_url": "https://www.google.com/maps/place/?q=place_id:ChIJx65FIkCuEmsRwh6b6GOksSw",
    "rating": 3.7,
    "total_ratings": 3
  },
  {
    "name": "Precinct ATM Elizabeth St South",
    "address": "410 Elizabeth St, Sydney",
    "suburb": "Sydney CBD",
    "state": "NSW",
    "lat": -33.8667221,
    "lng": 151.21098,
    "place_id": "ChIJ104KsSGuEmsR1LgaXXlutLU",
    "maps_url": "https://www.google.com/maps/place/?q=place_id:ChIJ104KsSGuEmsR1LgaXXlutLU",
    "rating": 3.3,
    "total_ratings": 8
  },
  {
    "name": "CBA ATM (Branch)",
    "address": "Broadway Sydney, 1 Bay St, Broadway",
    "suburb": "Sydney CBD",
    "state": "NSW",
    "lat": -33.8836657,
    "lng": 151.1939611,
    "place_id": "ChIJG2bNO9WxEmsRxm-0lyT0LTw",
    "maps_url": "https://www.google.com/maps/place/?q=place_id:ChIJG2bNO9WxEmsRxm-0lyT0LTw",
    "rating": 3.4,
    "total_ratings": 9
  },
  {
    "name": "Cashcard ATM",
    "address": "196-204 Pitt St, Sydney",
    "suburb": "Sydney CBD",
    "state": "NSW",
    "lat": -33.871179,
    "lng": 151.2086,
    "place_id": "ChIJX4oqSz6uEmsRTPT5jl4f36o",
    "maps_url": "https://www.google.com/maps/place/?q=place_id:ChIJX4oqSz6uEmsRTPT5jl4f36o",
    "rating": 4,
    "total_ratings": 1
  },
  {
    "name": "Precinct ATM Kings Cross Centre",
    "address": "92-94 Darlinghurst Rd, Potts Point",
    "suburb": "Sydney CBD",
    "state": "NSW",
    "lat": -33.8752478,
    "lng": 151.2224731,
    "place_id": "ChIJr8yuPQ2uEmsRpDbRopMviKI",
    "maps_url": "https://www.google.com/maps/place/?q=place_id:ChIJr8yuPQ2uEmsRpDbRopMviKI",
    "rating": 2,
    "total_ratings": 3
  },
  {
    "name": "Blue Vista Capital",
    "address": "35 Spring St, Bondi Junction",
    "suburb": "Sydney CBD",
    "state": "NSW",
    "lat": -33.89249849999999,
    "lng": 151.2464477,
    "place_id": "ChIJ91NC4-atEmsRO3LY37XC7e4",
    "maps_url": "https://www.google.com/maps/place/?q=place_id:ChIJ91NC4-atEmsRO3LY37XC7e4",
    "rating": 5,
    "total_ratings": 6
  },
  {
    "name": "CBA ATM (Branch)",
    "address": "546 George St, Sydney",
    "suburb": "Sydney CBD",
    "state": "NSW",
    "lat": -33.8737291,
    "lng": 151.2071934,
    "place_id": "ChIJ8Rr7_T6uEmsR2CaHeZROTEE",
    "maps_url": "https://www.google.com/maps/place/?q=place_id:ChIJ8Rr7_T6uEmsR2CaHeZROTEE",
    "rating": 3.2,
    "total_ratings": 10
  },
  {
    "name": "Western Union",
    "address": "1/743 755 George St, Haymarket",
    "suburb": "Sydney CBD",
    "state": "NSW",
    "lat": -33.8815027,
    "lng": 151.2043707,
    "place_id": "ChIJL5caOkSvEmsRFnIQO7Fc0PY",
    "maps_url": "https://www.google.com/maps/place/?q=place_id:ChIJL5caOkSvEmsRFnIQO7Fc0PY",
    "rating": 3.8,
    "total_ratings": 4
  },
  {
    "name": "Firefighters Mutual Bank",
    "address": "Level 7/10 Shelley St, Barangaroo",
    "suburb": "Sydney CBD",
    "state": "NSW",
    "lat": -33.8654346,
    "lng": 151.2027228,
    "place_id": "ChIJY_i4sheuEmsRlWLp1LP6J8g",
    "maps_url": "https://www.google.com/maps/place/?q=place_id:ChIJY_i4sheuEmsRlWLp1LP6J8g",
    "rating": 5,
    "total_ratings": 1
  },
  {
    "name": "UnionPay International",
    "address": "363 George St, Sydney",
    "suburb": "Sydney CBD",
    "state": "NSW",
    "lat": -33.8682811,
    "lng": 151.2067069,
    "place_id": "ChIJa-TnpTiuEmsRQjk1gcJk_iI",
    "maps_url": "https://www.google.com/maps/place/?q=place_id:ChIJa-TnpTiuEmsRQjk1gcJk_iI",
    "rating": 3,
    "total_ratings": 2
  },
  {
    "name": "St.George ATM Barangaroo TTW #1",
    "address": "International Towers Sydney, 200 Barangaroo Avenue Tower Two, Shop 16, Barangaroo",
    "suburb": "Sydney CBD",
    "state": "NSW",
    "lat": -33.8651342,
    "lng": 151.2021367,
    "place_id": "ChIJawrnNqevEmsR3RnPGt2J_hE",
    "maps_url": "https://www.google.com/maps/place/?q=place_id:ChIJawrnNqevEmsR3RnPGt2J_hE",
    "rating": 1,
    "total_ratings": 2
  },
  {
    "name": "Gateway Bank",
    "address": "level 10/68 York St, Sydney",
    "suburb": "Sydney CBD",
    "state": "NSW",
    "lat": -33.87039499999999,
    "lng": 151.206571,
    "place_id": "ChIJAQAAAEGuEmsRanFKB_BVJEc",
    "maps_url": "https://www.google.com/maps/place/?q=place_id:ChIJAQAAAEGuEmsRanFKB_BVJEc",
    "rating": 3.3,
    "total_ratings": 75
  },
  {
    "name": "Travelex ATM",
    "address": "Sydney International Airport, Intl Arrivals Landside GF- Escalator Train Station, Level/1 Departure Plaza, Mascot",
    "suburb": "Sydney CBD",
    "state": "NSW",
    "lat": -33.9368355,
    "lng": 151.1662236,
    "place_id": "ChIJ1___v-CwEmsRbNhkilztbG0",
    "maps_url": "https://www.google.com/maps/place/?q=place_id:ChIJ1___v-CwEmsRbNhkilztbG0",
    "rating": 2.2,
    "total_ratings": 10
  },
  {
    "name": "CBA ATM",
    "address": "Lower Level 82/94 Darlinghurst Rd, Potts Point",
    "suburb": "Sydney CBD",
    "state": "NSW",
    "lat": -33.8751195,
    "lng": 151.2226177,
    "place_id": "ChIJ8UbKZAyuEmsRpKPxfLr9Hbs",
    "maps_url": "https://www.google.com/maps/place/?q=place_id:ChIJ8UbKZAyuEmsRpKPxfLr9Hbs",
    "rating": 4.2,
    "total_ratings": 6
  },
  {
    "name": "Cashcard ATM",
    "address": "640 George St, Sydney",
    "suburb": "Sydney CBD",
    "state": "NSW",
    "lat": -33.8762103,
    "lng": 151.2064159,
    "place_id": "ChIJ16Wq8TyuEmsR0bublAgDH4g",
    "maps_url": "https://www.google.com/maps/place/?q=place_id:ChIJ16Wq8TyuEmsR0bublAgDH4g",
    "rating": null,
    "total_ratings": 0
  },
  {
    "name": "Overseas Union Finance (Aust) Pty Ltd",
    "address": "04/04/201 Elizabeth St, Sydney",
    "suburb": "Sydney CBD",
    "state": "NSW",
    "lat": -33.8738569,
    "lng": 151.2094246,
    "place_id": "ChIJTduiCD6uEmsRGJlY6YJ9CLU",
    "maps_url": "https://www.google.com/maps/place/?q=place_id:ChIJTduiCD6uEmsRGJlY6YJ9CLU",
    "rating": 5,
    "total_ratings": 1
  },
  {
    "name": "Qudos Bank - Mascot Branch",
    "address": "Wing C, Qantas Campus, 10 Bourke Rd, Mascot",
    "suburb": "Sydney CBD",
    "state": "NSW",
    "lat": -33.9254116,
    "lng": 151.1865998,
    "place_id": "ChIJGfmGnf6wEmsR9i-dP9HKMOA",
    "maps_url": "https://www.google.com/maps/place/?q=place_id:ChIJGfmGnf6wEmsR9i-dP9HKMOA",
    "rating": 2.2,
    "total_ratings": 16
  },
  {
    "name": "Union St opp Bank Lane",
    "address": "McMahons Point",
    "suburb": "Sydney CBD",
    "state": "NSW",
    "lat": -33.840813,
    "lng": 151.200623,
    "place_id": "ChIJQ8QDzfCuEmsRWg-o-VtR6N8",
    "maps_url": "https://www.google.com/maps/place/?q=place_id:ChIJQ8QDzfCuEmsRWg-o-VtR6N8",
    "rating": null,
    "total_ratings": 0
  },
  {
    "name": "Creditcard.com.au",
    "address": "2/22 Bridge Rd, Sydney",
    "suburb": "Sydney CBD",
    "state": "NSW",
    "lat": -33.8768672,
    "lng": 151.1883222,
    "place_id": "ChIJv1DgwiyuEmsR_H8zrQqkwD4",
    "maps_url": "https://www.google.com/maps/place/?q=place_id:ChIJv1DgwiyuEmsR_H8zrQqkwD4",
    "rating": null,
    "total_ratings": 0
  },
  {
    "name": "atmx Birkenhead Point Brand Outlet",
    "address": "Located near Coles entrance, Birkenhead Point, 19 Roseby St, Drummoyne",
    "suburb": "Sydney CBD",
    "state": "NSW",
    "lat": -33.8553489,
    "lng": 151.1633519,
    "place_id": "ChIJHcgPWucic2sRA4ielWWnndo",
    "maps_url": "https://www.google.com/maps/place/?q=place_id:ChIJHcgPWucic2sRA4ielWWnndo",
    "rating": 1,
    "total_ratings": 1
  },
  {
    "name": "United Currency Exchange 1 Dixon St Haymarket CHINATOWN SYDNEY NSW AUSTRALIA",
    "address": "Number One Dixon Street Shopping Centre Next to Harbour Garden Towers Number One Dixon Street Shopping Centre, Shop 14 (Enter from 28 Harbour Street, Level 2/1 Dixon St, Sydney",
    "suburb": "Sydney CBD",
    "state": "NSW",
    "lat": -33.8768306,
    "lng": 151.2034875,
    "place_id": "ChIJlXsm_BevEmsROdvg2r3_x2w",
    "maps_url": "https://www.google.com/maps/place/?q=place_id:ChIJlXsm_BevEmsROdvg2r3_x2w",
    "rating": 4.7,
    "total_ratings": 126
  },
  {
    "name": "City Currency Exchange",
    "address": "70 Dixon St, Haymarket",
    "suburb": "Sydney CBD",
    "state": "NSW",
    "lat": -33.8785088,
    "lng": 151.2041694,
    "place_id": "ChIJmcZYpiSuEmsRzaXq0MK9Pwo",
    "maps_url": "https://www.google.com/maps/place/?q=place_id:ChIJmcZYpiSuEmsRzaXq0MK9Pwo",
    "rating": 3.8,
    "total_ratings": 4
  },
  {
    "name": "IMB Bank - Wynyard Branch",
    "address": "20 Hunter St, Sydney",
    "suburb": "Sydney CBD",
    "state": "NSW",
    "lat": -33.8654048,
    "lng": 151.2079916,
    "place_id": "ChIJVWPCVUCuEmsRNfLC3bkmeZE",
    "maps_url": "https://www.google.com/maps/place/?q=place_id:ChIJVWPCVUCuEmsRNfLC3bkmeZE",
    "rating": 3.7,
    "total_ratings": 15
  },
  {
    "name": "Western Union",
    "address": "1 Martin Pl, Sydney",
    "suburb": "Sydney CBD",
    "state": "NSW",
    "lat": -33.8678447,
    "lng": 151.2077854,
    "place_id": "ChIJlfFTg3mvEmsR1LD6q93QBGI",
    "maps_url": "https://www.google.com/maps/place/?q=place_id:ChIJlfFTg3mvEmsR1LD6q93QBGI",
    "rating": null,
    "total_ratings": 0
  },
  {
    "name": "Commonwealth Bank ATM",
    "address": "Sydney",
    "suburb": "Sydney CBD",
    "state": "NSW",
    "lat": -33.8706941,
    "lng": 151.2067951,
    "place_id": "ChIJSU818D6uEmsRMcLSDjCxjPg",
    "maps_url": "https://www.google.com/maps/place/?q=place_id:ChIJSU818D6uEmsRMcLSDjCxjPg",
    "rating": 4.3,
    "total_ratings": 6
  },
  {
    "name": "Police Bank - Surry Hills",
    "address": "25 Pelican St, Surry Hills",
    "suburb": "Sydney CBD",
    "state": "NSW",
    "lat": -33.8787838,
    "lng": 151.2129924,
    "place_id": "ChIJe80WzD6uEmsRXSMAE2Cagqw",
    "maps_url": "https://www.google.com/maps/place/?q=place_id:ChIJe80WzD6uEmsRXSMAE2Cagqw",
    "rating": 3.4,
    "total_ratings": 41
  },
  {
    "name": "CBUS Super New South Wales",
    "address": "44 Market St, Sydney",
    "suburb": "Sydney CBD",
    "state": "NSW",
    "lat": -33.8704792,
    "lng": 151.2058502,
    "place_id": "ChIJbSNqQtivEmsRWXqL0Huh90g",
    "maps_url": "https://www.google.com/maps/place/?q=place_id:ChIJbSNqQtivEmsRWXqL0Huh90g",
    "rating": 1.4,
    "total_ratings": 67
  },
  {
    "name": "St.George Branch Crows Nest",
    "address": "18 Willoughby Rd, Crows Nest",
    "suburb": "Sydney CBD",
    "state": "NSW",
    "lat": -33.8268646,
    "lng": 151.2006139,
    "place_id": "ChIJF0cLN-iuEmsRtp62JHEX_nw",
    "maps_url": "https://www.google.com/maps/place/?q=place_id:ChIJF0cLN-iuEmsRtp62JHEX_nw",
    "rating": 3.3,
    "total_ratings": 13
  },
  {
    "name": "St.George Branch Lane Cove",
    "address": "130-132 Longueville Rd, Lane Cove",
    "suburb": "Sydney CBD",
    "state": "NSW",
    "lat": -33.8143478,
    "lng": 151.1702038,
    "place_id": "ChIJS2uBJDyvEmsRX22dlOiObDs",
    "maps_url": "https://www.google.com/maps/place/?q=place_id:ChIJS2uBJDyvEmsRX22dlOiObDs",
    "rating": 2.9,
    "total_ratings": 10
  },
  {
    "name": "Lotus Foreign Exchange - Chinatown",
    "address": "2/68-70 Dixon St, Haymarket",
    "suburb": "Sydney CBD",
    "state": "NSW",
    "lat": -33.878534,
    "lng": 151.2041373,
    "place_id": "ChIJVXOtt42vEmsRRx5Gsx-QQuI",
    "maps_url": "https://www.google.com/maps/place/?q=place_id:ChIJVXOtt42vEmsRRx5Gsx-QQuI",
    "rating": 4.9,
    "total_ratings": 317
  },
  {
    "name": "WorldFirst",
    "address": "17/55 Clarence St, Sydney",
    "suburb": "Sydney CBD",
    "state": "NSW",
    "lat": -33.8649543,
    "lng": 151.2045462,
    "place_id": "ChIJaS4Ia0KuEmsRwaQEiBlibYc",
    "maps_url": "https://www.google.com/maps/place/?q=place_id:ChIJaS4Ia0KuEmsRwaQEiBlibYc",
    "rating": 4.3,
    "total_ratings": 107
  },
  {
    "name": "First Union Capital",
    "address": "L26/1 Bligh St, Sydney",
    "suburb": "Sydney CBD",
    "state": "NSW",
    "lat": -33.8648623,
    "lng": 151.2105338,
    "place_id": "ChIJ17lk2rqvEmsRHWjxk0Cjras",
    "maps_url": "https://www.google.com/maps/place/?q=place_id:ChIJ17lk2rqvEmsRHWjxk0Cjras",
    "rating": 5,
    "total_ratings": 2
  },
  {
    "name": "Credit24",
    "address": "388 George St, Sydney",
    "suburb": "Sydney CBD",
    "state": "NSW",
    "lat": -33.8684088,
    "lng": 151.2073994,
    "place_id": "ChIJV9oG24quEmsRVwkz3l-xsYk",
    "maps_url": "https://www.google.com/maps/place/?q=place_id:ChIJV9oG24quEmsRVwkz3l-xsYk",
    "rating": 4.2,
    "total_ratings": 447
  },
  {
    "name": "Maritime Super",
    "address": "31 Market St, Sydney",
    "suburb": "Sydney CBD",
    "state": "NSW",
    "lat": -33.871172,
    "lng": 151.2057819,
    "place_id": "ChIJWYaJ3T6uEmsRMwiE8sqAfMc",
    "maps_url": "https://www.google.com/maps/place/?q=place_id:ChIJWYaJ3T6uEmsRMwiE8sqAfMc",
    "rating": 3,
    "total_ratings": 2
  },
  {
    "name": "American Express",
    "address": "12 Shelley St, Sydney",
    "suburb": "Sydney CBD",
    "state": "NSW",
    "lat": -33.8662373,
    "lng": 151.202932,
    "place_id": "ChIJlQhR1BeuEmsRcuq5J-XScqE",
    "maps_url": "https://www.google.com/maps/place/?q=place_id:ChIJlQhR1BeuEmsRcuq5J-XScqE",
    "rating": 2.8,
    "total_ratings": 96
  },
  {
    "name": "ANZ Manly Specialist Hub",
    "address": "59 The Corso, Manly",
    "suburb": "Sydney CBD",
    "state": "NSW",
    "lat": -33.797581,
    "lng": 151.2870169,
    "place_id": "ChIJy89dRw-rEmsRmfx5Zo9ztd0",
    "maps_url": "https://www.google.com/maps/place/?q=place_id:ChIJy89dRw-rEmsRmfx5Zo9ztd0",
    "rating": 2.8,
    "total_ratings": 19
  },
  {
    "name": "Western Union",
    "address": "X/168 Redfern St, Redfern",
    "suburb": "Sydney CBD",
    "state": "NSW",
    "lat": -33.8921348,
    "lng": 151.2012805,
    "place_id": "ChIJvRys7EGxEmsRWjpmz9XzfGc",
    "maps_url": "https://www.google.com/maps/place/?q=place_id:ChIJvRys7EGxEmsRWjpmz9XzfGc",
    "rating": null,
    "total_ratings": 0
  },
  {
    "name": "Unity Bank",
    "address": "365/375 Sussex St, Sydney",
    "suburb": "Sydney CBD",
    "state": "NSW",
    "lat": -33.8768732,
    "lng": 151.2044705,
    "place_id": "ChIJWTkypjyuEmsRkyJZnsbf9p4",
    "maps_url": "https://www.google.com/maps/place/?q=place_id:ChIJWTkypjyuEmsRkyJZnsbf9p4",
    "rating": 3,
    "total_ratings": 2
  },
  {
    "name": "Commonwealth Bank 48 Martin Pl Sydney Branch",
    "address": "Commonwealth Bank, 48 Martin Pl, Sydney",
    "suburb": "Sydney CBD",
    "state": "NSW",
    "lat": -33.867374,
    "lng": 151.2103352,
    "place_id": "ChIJx65FIkCuEmsREWJ4epKtl2k",
    "maps_url": "https://www.google.com/maps/place/?q=place_id:ChIJx65FIkCuEmsREWJ4epKtl2k",
    "rating": 3.9,
    "total_ratings": 196
  },
  {
    "name": "Qudos Bank - Qantas Freight",
    "address": "Ground Floor, Qantas Freight Terminal, Link Rd, Mascot",
    "suburb": "Sydney CBD",
    "state": "NSW",
    "lat": -33.9303297,
    "lng": 151.1665294,
    "place_id": "ChIJTa6v_uywEmsRrpOhd76RjY4",
    "maps_url": "https://www.google.com/maps/place/?q=place_id:ChIJTa6v_uywEmsRrpOhd76RjY4",
    "rating": 1,
    "total_ratings": 2
  },
  {
    "name": "Commonwealth Bank Town Hall Sydney Branch",
    "address": "546 George St, Sydney",
    "suburb": "Sydney CBD",
    "state": "NSW",
    "lat": -33.8736305,
    "lng": 151.2072158,
    "place_id": "ChIJwWBUqD-uEmsRyxKLKsq12kk",
    "maps_url": "https://www.google.com/maps/place/?q=place_id:ChIJwWBUqD-uEmsRyxKLKsq12kk",
    "rating": 4.4,
    "total_ratings": 331
  },
  {
    "name": "Commonwealth Bank Potts Point Branch",
    "address": "2/28 Macleay St, Potts Point",
    "suburb": "Sydney CBD",
    "state": "NSW",
    "lat": -33.86983050000001,
    "lng": 151.2255816,
    "place_id": "ChIJT4L9HnOuEmsRkluIkjej_1o",
    "maps_url": "https://www.google.com/maps/place/?q=place_id:ChIJT4L9HnOuEmsRkluIkjej_1o",
    "rating": 3.3,
    "total_ratings": 55
  },
  {
    "name": "United Overseas Bank",
    "address": "Court 4/32-36 Martin Pl, Sydney",
    "suburb": "Sydney CBD",
    "state": "NSW",
    "lat": -33.8673889,
    "lng": 151.2088701,
    "place_id": "ChIJc41VPECuEmsRbE4fzBJc0Jo",
    "maps_url": "https://www.google.com/maps/place/?q=place_id:ChIJc41VPECuEmsRbE4fzBJc0Jo",
    "rating": 1,
    "total_ratings": 3
  },
  {
    "name": "Commonwealth Bank Wynyard Branch",
    "address": "280 George St, Sydney",
    "suburb": "Sydney CBD",
    "state": "NSW",
    "lat": -33.8653488,
    "lng": 151.2075577,
    "place_id": "ChIJwWBUqD-uEmsR6w7uyGPtM7k",
    "maps_url": "https://www.google.com/maps/place/?q=place_id:ChIJwWBUqD-uEmsR6w7uyGPtM7k",
    "rating": 3.8,
    "total_ratings": 275
  },
  {
    "name": "St.George ATM Broadway S/C",
    "address": "1/21 Bay St, Ultimo",
    "suburb": "North Sydney",
    "state": "NSW",
    "lat": -33.8834839,
    "lng": 151.1939224,
    "place_id": "ChIJh6sPuimuEmsR_lIxYtTa1Ww",
    "maps_url": "https://www.google.com/maps/place/?q=place_id:ChIJh6sPuimuEmsR_lIxYtTa1Ww",
    "rating": 3.7,
    "total_ratings": 3
  },
  {
    "name": "Precinct ATM Pavilion Plaza",
    "address": "Near Coles, 580 George St, Sydney",
    "suburb": "North Sydney",
    "state": "NSW",
    "lat": -33.8748504,
    "lng": 151.2070915,
    "place_id": "ChIJ1WUqMjyuEmsRM3_uwqhf7Xs",
    "maps_url": "https://www.google.com/maps/place/?q=place_id:ChIJ1WUqMjyuEmsRM3_uwqhf7Xs",
    "rating": 3.3,
    "total_ratings": 3
  },
  {
    "name": "NAB ATM (World Square)",
    "address": "684/686 George St, Sydney",
    "suburb": "North Sydney",
    "state": "NSW",
    "lat": -33.8772455,
    "lng": 151.2056781,
    "place_id": "ChIJ460aYSOuEmsRpulwIqlz530",
    "maps_url": "https://www.google.com/maps/place/?q=place_id:ChIJ460aYSOuEmsRpulwIqlz530",
    "rating": 1,
    "total_ratings": 3
  },
  {
    "name": "CBA ATM",
    "address": "19/29 Martin Pl, Sydney",
    "suburb": "North Sydney",
    "state": "NSW",
    "lat": -33.8680895,
    "lng": 151.2095711,
    "place_id": "ChIJSauXGUCuEmsRkOSJxxYN1H8",
    "maps_url": "https://www.google.com/maps/place/?q=place_id:ChIJSauXGUCuEmsRkOSJxxYN1H8",
    "rating": null,
    "total_ratings": 0
  },
  {
    "name": "NongHyup Bank Sydney Branch",
    "address": "Suite 45C, Level 45/2 Park St, Sydney",
    "suburb": "North Sydney",
    "state": "NSW",
    "lat": -33.8724906,
    "lng": 151.2075972,
    "place_id": "ChIJk34wU3yvEmsRykuXJfRB3PU",
    "maps_url": "https://www.google.com/maps/place/?q=place_id:ChIJk34wU3yvEmsRykuXJfRB3PU",
    "rating": 5,
    "total_ratings": 1
  },
  {
    "name": "Bank Of Australasia",
    "address": "90 Liverpool St, Sydney",
    "suburb": "North Sydney",
    "state": "NSW",
    "lat": -33.8762019,
    "lng": 151.2060317,
    "place_id": "ChIJQ-6E8jyuEmsRtJDkIK0ld1A",
    "maps_url": "https://www.google.com/maps/place/?q=place_id:ChIJQ-6E8jyuEmsRtJDkIK0ld1A",
    "rating": 5,
    "total_ratings": 1
  },
  {
    "name": "SnapMoney Currency Exchange (Sydney)",
    "address": "261 George St, Sydney",
    "suburb": "North Sydney",
    "state": "NSW",
    "lat": -33.8645554,
    "lng": 151.2072074,
    "place_id": "ChIJ2TwOujOvEmsRRXjmEl-qucY",
    "maps_url": "https://www.google.com/maps/place/?q=place_id:ChIJ2TwOujOvEmsRRXjmEl-qucY",
    "rating": 4.8,
    "total_ratings": 387
  },
  {
    "name": "Instil - Engaging Bright Minds",
    "address": "26C Burwood Rd, Burwood",
    "suburb": "Chatswood",
    "state": "NSW",
    "lat": -33.870514,
    "lng": 151.1053008,
    "place_id": "ChIJnQP4KsW6EmsRNCdR4NOQ1gg",
    "maps_url": "https://www.google.com/maps/place/?q=place_id:ChIJnQP4KsW6EmsRNCdR4NOQ1gg",
    "rating": null,
    "total_ratings": 0
  },
  {
    "name": "St.George Branch Macquarie Centre",
    "address": "Cnr Waterloo &, 90 Waterloo Road, Herring Rd, North Ryde",
    "suburb": "Chatswood",
    "state": "NSW",
    "lat": -33.7770363,
    "lng": 151.120043,
    "place_id": "ChIJK6ktVO-lEmsRRjQ-XAYe-xw",
    "maps_url": "https://www.google.com/maps/place/?q=place_id:ChIJK6ktVO-lEmsRRjQ-XAYe-xw",
    "rating": 2.7,
    "total_ratings": 26
  },
  {
    "name": "Columbus Capital",
    "address": "Level 12/77 Castlereagh St, Sydney",
    "suburb": "Chatswood",
    "state": "NSW",
    "lat": -33.8697385,
    "lng": 151.2094479,
    "place_id": "ChIJU-S9JT6uEmsRZSgUoASLg8Y",
    "maps_url": "https://www.google.com/maps/place/?q=place_id:ChIJU-S9JT6uEmsRZSgUoASLg8Y",
    "rating": 2.8,
    "total_ratings": 13
  },
  {
    "name": "ANZ Balmain Specialist Hub",
    "address": "291 Darling St, Balmain",
    "suburb": "Chatswood",
    "state": "NSW",
    "lat": -33.857258,
    "lng": 151.180899,
    "place_id": "ChIJ0yv5pravEmsR_YMXSmrYEFQ",
    "maps_url": "https://www.google.com/maps/place/?q=place_id:ChIJ0yv5pravEmsR_YMXSmrYEFQ",
    "rating": 3,
    "total_ratings": 18
  },
  {
    "name": "Crown Currency Exchange (Macquarie Centre - North Ryde)",
    "address": "Kiosk K1006 Herring Rd, North Ryde",
    "suburb": "Chatswood",
    "state": "NSW",
    "lat": -33.7777695,
    "lng": 151.1198555,
    "place_id": "ChIJzRdrqg2mEmsR2CNmM49kuI4",
    "maps_url": "https://www.google.com/maps/place/?q=place_id:ChIJzRdrqg2mEmsR2CNmM49kuI4",
    "rating": 4.8,
    "total_ratings": 962
  },
  {
    "name": "Teachers Mutual Bank",
    "address": "Level 7/10 Shelley St, Barangaroo",
    "suburb": "Chatswood",
    "state": "NSW",
    "lat": -33.8654346,
    "lng": 151.2027228,
    "place_id": "ChIJc-99sheuEmsR5TZdVowuvnM",
    "maps_url": "https://www.google.com/maps/place/?q=place_id:ChIJc-99sheuEmsR5TZdVowuvnM",
    "rating": 3.2,
    "total_ratings": 14
  },
  {
    "name": "Speedway Loan",
    "address": "105/780A Pacific Hwy, Gordon",
    "suburb": "Chatswood",
    "state": "NSW",
    "lat": -33.7558447,
    "lng": 151.1525362,
    "place_id": "ChIJiS_4ZtehEmsR4S3LR5LfUNQ",
    "maps_url": "https://www.google.com/maps/place/?q=place_id:ChIJiS_4ZtehEmsR4S3LR5LfUNQ",
    "rating": 5,
    "total_ratings": 38
  },
  {
    "name": "Commonwealth Bank North Sydney Branch",
    "address": "116 Miller St, North Sydney",
    "suburb": "Chatswood",
    "state": "NSW",
    "lat": -33.8371997,
    "lng": 151.2069855,
    "place_id": "ChIJJzvag-2uEmsRT_EhGRqB0PA",
    "maps_url": "https://www.google.com/maps/place/?q=place_id:ChIJJzvag-2uEmsRT_EhGRqB0PA",
    "rating": 4.2,
    "total_ratings": 110
  },
  {
    "name": "NAB branch",
    "address": "Lane Cove Plaza, 2 La Cv La, Lane Cove",
    "suburb": "Chatswood",
    "state": "NSW",
    "lat": -33.8148585,
    "lng": 151.1696787,
    "place_id": "ChIJq5MzKTyvEmsR-hWJJoCY7Ls",
    "maps_url": "https://www.google.com/maps/place/?q=place_id:ChIJq5MzKTyvEmsR-hWJJoCY7Ls",
    "rating": 2.3,
    "total_ratings": 20
  },
  {
    "name": "St.George Branch 403 George Street",
    "address": "403 George St, Sydney",
    "suburb": "Chatswood",
    "state": "NSW",
    "lat": -33.87010679999999,
    "lng": 151.2066959,
    "place_id": "ChIJXYArsj-uEmsRsWN43MASRPA",
    "maps_url": "https://www.google.com/maps/place/?q=place_id:ChIJXYArsj-uEmsRsWN43MASRPA",
    "rating": 3,
    "total_ratings": 42
  },
  {
    "name": "VisiSearch International Limited",
    "address": "People's Choice Credit Union - Governor Phillip Tower - ATM, 1D/1 Farrer Pl, Sydney",
    "suburb": "Chatswood",
    "state": "NSW",
    "lat": -33.8645498,
    "lng": 151.21129,
    "place_id": "ChIJFU8bHmquEmsRv_CeZHO903I",
    "maps_url": "https://www.google.com/maps/place/?q=place_id:ChIJFU8bHmquEmsRv_CeZHO903I",
    "rating": 5,
    "total_ratings": 2
  },
  {
    "name": "St.George Branch Balmain",
    "address": "257 Darling St, Balmain",
    "suburb": "Chatswood",
    "state": "NSW",
    "lat": -33.8575911,
    "lng": 151.1818637,
    "place_id": "ChIJO8oWSAOvEmsRuGw-T5C1VZM",
    "maps_url": "https://www.google.com/maps/place/?q=place_id:ChIJO8oWSAOvEmsRuGw-T5C1VZM",
    "rating": 4,
    "total_ratings": 4
  },
  {
    "name": "atmx Wharoonga",
    "address": "Located in lobby, 185 Fox Valley Rd, Wahroonga",
    "suburb": "Hornsby",
    "state": "NSW",
    "lat": -33.7337885,
    "lng": 151.0984299,
    "place_id": "ChIJCchuT7GnEmsRvBKca1pFZSs",
    "maps_url": "https://www.google.com/maps/place/?q=place_id:ChIJCchuT7GnEmsRvBKca1pFZSs",
    "rating": 5,
    "total_ratings": 1
  },
  {
    "name": "CBA ATM",
    "address": "90 Waterloo Rd, North Ryde",
    "suburb": "Hornsby",
    "state": "NSW",
    "lat": -33.7769737,
    "lng": 151.1198013,
    "place_id": "ChIJo0SexgymEmsRpOEJaBD4q90",
    "maps_url": "https://www.google.com/maps/place/?q=place_id:ChIJo0SexgymEmsRpOEJaBD4q90",
    "rating": 4,
    "total_ratings": 4
  },
  {
    "name": "atmx Gordon Centre",
    "address": "Located inside Gordon Centre near Woolworths, 788 Pacific Hwy, Gordon",
    "suburb": "Hornsby",
    "state": "NSW",
    "lat": -33.75537,
    "lng": 151.152222,
    "place_id": "ChIJixJ6tcKpEmsRGwhxY1_v5JY",
    "maps_url": "https://www.google.com/maps/place/?q=place_id:ChIJixJ6tcKpEmsRGwhxY1_v5JY",
    "rating": null,
    "total_ratings": 0
  },
  {
    "name": "St.George ATM St Ives",
    "address": "8 Denley Ln, St Ives",
    "suburb": "Hornsby",
    "state": "NSW",
    "lat": -33.7301518,
    "lng": 151.1597448,
    "place_id": "ChIJWZGafBOoEmsRux2utS5tgUw",
    "maps_url": "https://www.google.com/maps/place/?q=place_id:ChIJWZGafBOoEmsRux2utS5tgUw",
    "rating": 5,
    "total_ratings": 1
  },
  {
    "name": "NAB ATM",
    "address": "Shop 100 St Ives Shopping Village, 166-170 Mona Vale Rd, St Ives",
    "suburb": "Hornsby",
    "state": "NSW",
    "lat": -33.72980690000001,
    "lng": 151.1581246,
    "place_id": "ChIJWY-GfBSoEmsRPD5Mh05kxO8",
    "maps_url": "https://www.google.com/maps/place/?q=place_id:ChIJWY-GfBSoEmsRPD5Mh05kxO8",
    "rating": 3.8,
    "total_ratings": 4
  },
  {
    "name": "Precinct ATM St Ives Village",
    "address": "166 Mona Vale Rd, St Ives",
    "suburb": "Hornsby",
    "state": "NSW",
    "lat": -33.7298085,
    "lng": 151.1590724,
    "place_id": "ChIJX5r9aBOoEmsRCZnkja4sLP4",
    "maps_url": "https://www.google.com/maps/place/?q=place_id:ChIJX5r9aBOoEmsRCZnkja4sLP4",
    "rating": 5,
    "total_ratings": 1
  },
  {
    "name": "St.George Branch Hornsby",
    "address": "33 Florence St, Hornsby",
    "suburb": "Hornsby",
    "state": "NSW",
    "lat": -33.7038363,
    "lng": 151.10037,
    "place_id": "ChIJBT0TEoSnEmsRkw_WZRrdwfk",
    "maps_url": "https://www.google.com/maps/place/?q=place_id:ChIJBT0TEoSnEmsRkw_WZRrdwfk",
    "rating": 2.3,
    "total_ratings": 53
  },
  {
    "name": "St.George Branch Carlingford",
    "address": "801-809 Pennant Hills Road, Shop 127-130 Level 1 Carlingford Rd, Carlingford",
    "suburb": "Hornsby",
    "state": "NSW",
    "lat": -33.775608,
    "lng": 151.0520708,
    "place_id": "ChIJx6c_FwakEmsRJfpJKAGo9uQ",
    "maps_url": "https://www.google.com/maps/place/?q=place_id:ChIJx6c_FwakEmsRJfpJKAGo9uQ",
    "rating": 2.1,
    "total_ratings": 25
  },
  {
    "name": "Commonwealth Bank Macquarie Centre North Ryde Branch",
    "address": "Shop Uc1, Level 1, Herring Rd, North Ryde",
    "suburb": "Hornsby",
    "state": "NSW",
    "lat": -33.776755,
    "lng": 151.120302,
    "place_id": "ChIJtT6CrA2mEmsRAmVB2RxVWJU",
    "maps_url": "https://www.google.com/maps/place/?q=place_id:ChIJtT6CrA2mEmsRAmVB2RxVWJU",
    "rating": 3.4,
    "total_ratings": 187
  },
  {
    "name": "Commonwealth Bank St Ives Branch",
    "address": "Shopping Village, Shop 47/48/166 Mona Vale Rd, St Ives",
    "suburb": "Hornsby",
    "state": "NSW",
    "lat": -33.7300471,
    "lng": 151.1594808,
    "place_id": "ChIJMbn9aBOoEmsRBSVZWsIK_Ac",
    "maps_url": "https://www.google.com/maps/place/?q=place_id:ChIJMbn9aBOoEmsRBSVZWsIK_Ac",
    "rating": 3.6,
    "total_ratings": 67
  },
  {
    "name": "ANZ ATM",
    "address": "Shopping Village, Shop 21/166 Mona Vale Rd, St Ives",
    "suburb": "Hornsby",
    "state": "NSW",
    "lat": -33.7299009,
    "lng": 151.1585895,
    "place_id": "ChIJYYvFR-CpEmsRgYIKjOcrPM0",
    "maps_url": "https://www.google.com/maps/place/?q=place_id:ChIJYYvFR-CpEmsRgYIKjOcrPM0",
    "rating": 1,
    "total_ratings": 2
  },
  {
    "name": "Dan Murphy's Thornleigh",
    "address": "Plaza Shopping Centre, 2-12 The Comenarra Parkway &, Bellevue St, Thornleigh",
    "suburb": "Hornsby",
    "state": "NSW",
    "lat": -33.7317987,
    "lng": 151.0818842,
    "place_id": "ChIJq-RAzQKnEmsRTkOoOlGp5yI",
    "maps_url": "https://www.google.com/maps/place/?q=place_id:ChIJq-RAzQKnEmsRTkOoOlGp5yI",
    "rating": 4.4,
    "total_ratings": 443
  },
  {
    "name": "Australia Post - Hornsby Post Shop",
    "address": "1 Coronation St, Hornsby",
    "suburb": "Hornsby",
    "state": "NSW",
    "lat": -33.7017714,
    "lng": 151.0971349,
    "place_id": "ChIJIXpcfIGnEmsRDD4LSjq3dXU",
    "maps_url": "https://www.google.com/maps/place/?q=place_id:ChIJIXpcfIGnEmsRDD4LSjq3dXU",
    "rating": 3.2,
    "total_ratings": 81
  },
  {
    "name": "Commonwealth Bank Gordon Branch",
    "address": "775 Pacific Hwy, Gordon",
    "suburb": "Hornsby",
    "state": "NSW",
    "lat": -33.7548843,
    "lng": 151.1527112,
    "place_id": "ChIJ-VOZk4ioEmsRhj7XdHtjqR4",
    "maps_url": "https://www.google.com/maps/place/?q=place_id:ChIJ-VOZk4ioEmsRhj7XdHtjqR4",
    "rating": 3.3,
    "total_ratings": 52
  },
  {
    "name": "Great Southern Bank",
    "address": "Westfield Hornsby, Shop 1013/236 Pacific Hwy, Hornsby",
    "suburb": "Hornsby",
    "state": "NSW",
    "lat": -33.7046815,
    "lng": 151.099463,
    "place_id": "ChIJt325gYOnEmsRVMUatE7Exkw",
    "maps_url": "https://www.google.com/maps/place/?q=place_id:ChIJt325gYOnEmsRVMUatE7Exkw",
    "rating": 3.8,
    "total_ratings": 17
  },
  {
    "name": "Bendigo Bank",
    "address": "5/318 Pacific Hwy, Lindfield",
    "suburb": "Hornsby",
    "state": "NSW",
    "lat": -33.7757218,
    "lng": 151.168609,
    "place_id": "ChIJO3mbEOqoEmsRMht1XWmwES0",
    "maps_url": "https://www.google.com/maps/place/?q=place_id:ChIJO3mbEOqoEmsRMht1XWmwES0",
    "rating": 3.7,
    "total_ratings": 10
  },
  {
    "name": "Westpac Branch St Ives",
    "address": "Shopping Village, Shops 123 & 124/166 Mona Vale Rd, St Ives",
    "suburb": "Hornsby",
    "state": "NSW",
    "lat": -33.7298085,
    "lng": 151.1590724,
    "place_id": "ChIJ2XqxXxSoEmsRJPGUcymBaJw",
    "maps_url": "https://www.google.com/maps/place/?q=place_id:ChIJ2XqxXxSoEmsRJPGUcymBaJw",
    "rating": 3,
    "total_ratings": 13
  },
  {
    "name": "St.George Branch St Ives",
    "address": "8 Denley Lane, 166 Mona Vale Rd, St Ives",
    "suburb": "Hornsby",
    "state": "NSW",
    "lat": -33.7300718,
    "lng": 151.1595949,
    "place_id": "ChIJr3nRbxSoEmsReOx9blvJipM",
    "maps_url": "https://www.google.com/maps/place/?q=place_id:ChIJr3nRbxSoEmsReOx9blvJipM",
    "rating": 3.3,
    "total_ratings": 12
  },
  {
    "name": "Westpac Branch Gordon",
    "address": "741 Pacific Hwy, Gordon",
    "suburb": "Hornsby",
    "state": "NSW",
    "lat": -33.7556681,
    "lng": 151.1534107,
    "place_id": "ChIJLc_OvYioEmsRuyE_2HDkmdA",
    "maps_url": "https://www.google.com/maps/place/?q=place_id:ChIJLc_OvYioEmsRuyE_2HDkmdA",
    "rating": 2.9,
    "total_ratings": 28
  },
  {
    "name": "St.George Branch Gordon",
    "address": "741 Pacific Hwy, Gordon",
    "suburb": "Hornsby",
    "state": "NSW",
    "lat": -33.7556681,
    "lng": 151.1534107,
    "place_id": "ChIJ9XLFIIaoEmsRX5hoG9OXxFI",
    "maps_url": "https://www.google.com/maps/place/?q=place_id:ChIJ9XLFIIaoEmsRX5hoG9OXxFI",
    "rating": 2.8,
    "total_ratings": 4
  },
  {
    "name": "Australia Post - Carlingford LPO",
    "address": "Shop 230/801/809 Pennant Hills Rd, Carlingford",
    "suburb": "Hornsby",
    "state": "NSW",
    "lat": -33.7762846,
    "lng": 151.0525366,
    "place_id": "ChIJ1R3ucgakEmsR10sDnbcoNAA",
    "maps_url": "https://www.google.com/maps/place/?q=place_id:ChIJ1R3ucgakEmsR10sDnbcoNAA",
    "rating": 4.6,
    "total_ratings": 479
  },
  {
    "name": "HSBC Bank Australia",
    "address": "Macquarie Shopping Centre, 17 Herring Rd &, Waterloo Rd, North Ryde",
    "suburb": "Hornsby",
    "state": "NSW",
    "lat": -33.777093,
    "lng": 151.1208256,
    "place_id": "ChIJC8ktUwymEmsRSukB3hEJHgQ",
    "maps_url": "https://www.google.com/maps/place/?q=place_id:ChIJC8ktUwymEmsRSukB3hEJHgQ",
    "rating": 2.6,
    "total_ratings": 54
  },
  {
    "name": "Forex World Macquarie Centre",
    "address": "Near Westpac Bank, Shop K1001 Herring Rd, North Ryde",
    "suburb": "Hornsby",
    "state": "NSW",
    "lat": -33.7768572,
    "lng": 151.120471,
    "place_id": "ChIJT9BdtgKnEmsRc_1QiNpoP6s",
    "maps_url": "https://www.google.com/maps/place/?q=place_id:ChIJT9BdtgKnEmsRc_1QiNpoP6s",
    "rating": 4.9,
    "total_ratings": 707
  },
  {
    "name": "NAB branch",
    "address": "St Ives Shopping Village, Shop 100/166-170 Mona Vale Rd, St Ives",
    "suburb": "Hornsby",
    "state": "NSW",
    "lat": -33.7298299,
    "lng": 151.1580697,
    "place_id": "ChIJKei4chKpEmsRgeECu6ZzY9A",
    "maps_url": "https://www.google.com/maps/place/?q=place_id:ChIJKei4chKpEmsRgeECu6ZzY9A",
    "rating": 2.2,
    "total_ratings": 16
  },
  {
    "name": "Bank of Queensland Macquarie Centre",
    "address": "Macquarie Shopping Centre, Shop R01-001, Lower Level 1/197 Herring Rd, North Ryde",
    "suburb": "Hornsby",
    "state": "NSW",
    "lat": -33.777118,
    "lng": 151.1201079,
    "place_id": "ChIJ1Vw5rQ2mEmsR0aq-HxbBIw8",
    "maps_url": "https://www.google.com/maps/place/?q=place_id:ChIJ1Vw5rQ2mEmsR0aq-HxbBIw8",
    "rating": 4.6,
    "total_ratings": 31
  },
  {
    "name": "Travelex - Currency Exchange Hornsby",
    "address": "Shop 3013/236 Pacific Hwy, Hornsby",
    "suburb": "Hornsby",
    "state": "NSW",
    "lat": -33.705293,
    "lng": 151.0999376,
    "place_id": "ChIJBT0TEoSnEmsRqbSGLTehkMQ",
    "maps_url": "https://www.google.com/maps/place/?q=place_id:ChIJBT0TEoSnEmsRqbSGLTehkMQ",
    "rating": 4.9,
    "total_ratings": 360
  },
  {
    "name": "Community First Bank - Dee Why",
    "address": "17/19 Oaks Ave, Dee Why",
    "suburb": "Manly",
    "state": "NSW",
    "lat": -33.753798,
    "lng": 151.2869007,
    "place_id": "ChIJu-nAwoWqEmsRpr0Kaf4n7aI",
    "maps_url": "https://www.google.com/maps/place/?q=place_id:ChIJu-nAwoWqEmsRpr0Kaf4n7aI",
    "rating": 4.9,
    "total_ratings": 108
  },
  {
    "name": "Manly Warringah Credit Union Ltd.",
    "address": "17/19 Oaks Ave, Dee Why",
    "suburb": "Manly",
    "state": "NSW",
    "lat": -33.7537913,
    "lng": 151.2868513,
    "place_id": "ChIJu-nAwoWqEmsRc0zDO5nfbP8",
    "maps_url": "https://www.google.com/maps/place/?q=place_id:ChIJu-nAwoWqEmsRc0zDO5nfbP8",
    "rating": null,
    "total_ratings": 0
  },
  {
    "name": "NAB branch",
    "address": "Shop 3/884-896 Pittwater Rd, Dee Why",
    "suburb": "Manly",
    "state": "NSW",
    "lat": -33.7526553,
    "lng": 151.2869629,
    "place_id": "ChIJB5qJhF2qEmsRr4ulhpsOiHc",
    "maps_url": "https://www.google.com/maps/place/?q=place_id:ChIJB5qJhF2qEmsRr4ulhpsOiHc",
    "rating": 3.6,
    "total_ratings": 20
  },
  {
    "name": "Royal Bank of Canada",
    "address": "Level 59/25 Martin Pl, Sydney",
    "suburb": "Manly",
    "state": "NSW",
    "lat": -33.868225,
    "lng": 151.2092631,
    "place_id": "ChIJI18Xhz6uEmsRtp8m9K8YTdE",
    "maps_url": "https://www.google.com/maps/place/?q=place_id:ChIJI18Xhz6uEmsRtp8m9K8YTdE",
    "rating": 3,
    "total_ratings": 6
  },
  {
    "name": "St.George Branch Manly",
    "address": "27 The Corso, Manly",
    "suburb": "Manly",
    "state": "NSW",
    "lat": -33.7980131,
    "lng": 151.2860078,
    "place_id": "ChIJvXY8LQ-rEmsRKzCdmvVo3ws",
    "maps_url": "https://www.google.com/maps/place/?q=place_id:ChIJvXY8LQ-rEmsRKzCdmvVo3ws",
    "rating": 3.4,
    "total_ratings": 9
  },
  {
    "name": "ANZ Dee Why Specialist Hub",
    "address": "882 Pittwater Rd, Dee Why",
    "suburb": "Manly",
    "state": "NSW",
    "lat": -33.7531779,
    "lng": 151.286195,
    "place_id": "ChIJk6h20YWqEmsRAv2YnpU9yjo",
    "maps_url": "https://www.google.com/maps/place/?q=place_id:ChIJk6h20YWqEmsRAv2YnpU9yjo",
    "rating": 3,
    "total_ratings": 21
  },
  {
    "name": "Astute Financial Mosman",
    "address": "Shop 1/156-162 Spit Rd, Mosman",
    "suburb": "Manly",
    "state": "NSW",
    "lat": -33.8177464,
    "lng": 151.2434563,
    "place_id": "ChIJjRpmuQesEmsR0Jomj7ao2UU",
    "maps_url": "https://www.google.com/maps/place/?q=place_id:ChIJjRpmuQesEmsR0Jomj7ao2UU",
    "rating": 4.9,
    "total_ratings": 66
  },
  {
    "name": "Western Union",
    "address": "Shop 1, Level 7/100 Miller St, North Sydney",
    "suburb": "Manly",
    "state": "NSW",
    "lat": -33.8378548,
    "lng": 151.206647,
    "place_id": "ChIJzRrbphOvEmsRz43g1ijlmco",
    "maps_url": "https://www.google.com/maps/place/?q=place_id:ChIJzRrbphOvEmsRz43g1ijlmco",
    "rating": 2,
    "total_ratings": 20
  },
  {
    "name": "Community First Bank - Head Office",
    "address": "67/73 St Hilliers Rd, Auburn",
    "suburb": "Parramatta",
    "state": "NSW",
    "lat": -33.8499026,
    "lng": 151.0394193,
    "place_id": "ChIJidAkWqy8EmsRdwgQtRSm0Cs",
    "maps_url": "https://www.google.com/maps/place/?q=place_id:ChIJidAkWqy8EmsRdwgQtRSm0Cs",
    "rating": 1.9,
    "total_ratings": 10
  },
  {
    "name": "Hai Ha Money Transfer Canley Heights",
    "address": "SHOP 1/238 Canley Vale Rd, Canley Heights",
    "suburb": "Parramatta",
    "state": "NSW",
    "lat": -33.884196,
    "lng": 150.9262079,
    "place_id": "ChIJXXJ_E2yWEmsRPau6XEqT-z4",
    "maps_url": "https://www.google.com/maps/place/?q=place_id:ChIJXXJ_E2yWEmsRPau6XEqT-z4",
    "rating": 4.5,
    "total_ratings": 34
  },
  {
    "name": "IMB Bank - Parramatta Branch",
    "address": "Westfield Parramatta, Level 1, Shop 1136/159-175 Church St, Parramatta",
    "suburb": "Parramatta",
    "state": "NSW",
    "lat": -33.8173782,
    "lng": 151.0016557,
    "place_id": "ChIJoeRYox-jEmsR6gpk6JRSa3c",
    "maps_url": "https://www.google.com/maps/place/?q=place_id:ChIJoeRYox-jEmsR6gpk6JRSa3c",
    "rating": 5,
    "total_ratings": 77
  },
  {
    "name": "Lotus Foreign Exchange - Parramatta",
    "address": "Westfield Shoppingtown, Shop 2105, Level 2, 15/175 Church St, Parramatta",
    "suburb": "Parramatta",
    "state": "NSW",
    "lat": -33.8176887,
    "lng": 151.0020378,
    "place_id": "ChIJN46PsuajEmsRSXTIFZj0Nm4",
    "maps_url": "https://www.google.com/maps/place/?q=place_id:ChIJN46PsuajEmsRSXTIFZj0Nm4",
    "rating": 4.9,
    "total_ratings": 2150
  },
  {
    "name": "Western Union",
    "address": "Shop 1/1 Canley Vale Rd, Canley Vale",
    "suburb": "Parramatta",
    "state": "NSW",
    "lat": -33.8871185,
    "lng": 150.9431842,
    "place_id": "ChIJmwWVoR6XEmsR54RxGenfs-I",
    "maps_url": "https://www.google.com/maps/place/?q=place_id:ChIJmwWVoR6XEmsR54RxGenfs-I",
    "rating": null,
    "total_ratings": 0
  },
  {
    "name": "Great Southern Bank",
    "address": "Westfield Parramatta, Shop 1105/159-175 Church St, Parramatta",
    "suburb": "Parramatta",
    "state": "NSW",
    "lat": -33.8175664,
    "lng": 151.0032631,
    "place_id": "ChIJ1ZLQZyCjEmsRPAhje2mJ_AM",
    "maps_url": "https://www.google.com/maps/place/?q=place_id:ChIJ1ZLQZyCjEmsRPAhje2mJ_AM",
    "rating": 3.8,
    "total_ratings": 28
  },
  {
    "name": "Teachers Mutual Bank",
    "address": "Rhodes Waterside Shopping Centre Ground level (near Kmart, 1 Rider Blvd, Rhodes",
    "suburb": "Parramatta",
    "state": "NSW",
    "lat": -33.8342459,
    "lng": 151.0855419,
    "place_id": "ChIJ_c_8YC67EmsR1IqakeapIow",
    "maps_url": "https://www.google.com/maps/place/?q=place_id:ChIJ_c_8YC67EmsR1IqakeapIow",
    "rating": 3.6,
    "total_ratings": 48
  },
  {
    "name": "St.George Branch Eastwood",
    "address": "146 Rowe St, Eastwood",
    "suburb": "Parramatta",
    "state": "NSW",
    "lat": -33.7918262,
    "lng": 151.0816399,
    "place_id": "ChIJfzFB5jmkEmsRoRIAatrQTOk",
    "maps_url": "https://www.google.com/maps/place/?q=place_id:ChIJfzFB5jmkEmsRoRIAatrQTOk",
    "rating": 3.3,
    "total_ratings": 24
  },
  {
    "name": "St.George Branch Winston Hills",
    "address": "Winston Hills Mall, Shop 45, Kiosk 2/190 Caroline Chisholm Dr, Winston Hills",
    "suburb": "Parramatta",
    "state": "NSW",
    "lat": -33.7732721,
    "lng": 150.9706376,
    "place_id": "ChIJuwKeX26iEmsRURoSBRkS09A",
    "maps_url": "https://www.google.com/maps/place/?q=place_id:ChIJuwKeX26iEmsRURoSBRkS09A",
    "rating": 2.9,
    "total_ratings": 14
  },
  {
    "name": "St.George Branch Merrylands",
    "address": "Stockland Merrylands, Ground Floor/199 McFarlane St, Merrylands",
    "suburb": "Parramatta",
    "state": "NSW",
    "lat": -33.8348808,
    "lng": 150.9879585,
    "place_id": "ChIJJZE2jDK9EmsRUMGAo2BBUGE",
    "maps_url": "https://www.google.com/maps/place/?q=place_id:ChIJJZE2jDK9EmsRUMGAo2BBUGE",
    "rating": 3.1,
    "total_ratings": 35
  },
  {
    "name": "Beyond Bank - Advice Hub (appointment only)",
    "address": "Shop 7.4/2 Dawn Fraser Ave, Sydney Olympic Park",
    "suburb": "Parramatta",
    "state": "NSW",
    "lat": -33.8464545,
    "lng": 151.0712925,
    "place_id": "ChIJx2iSNcikEmsRRXUxfcXUqzA",
    "maps_url": "https://www.google.com/maps/place/?q=place_id:ChIJx2iSNcikEmsRRXUxfcXUqzA",
    "rating": 1,
    "total_ratings": 1
  },
  {
    "name": "Travel Money Oz Parramatta - Foreign Currency Exchange",
    "address": "Westfield Parramatta, Shop 3079 Level 3, 159/175 Church St, Parramatta",
    "suburb": "Parramatta",
    "state": "NSW",
    "lat": -33.8176449,
    "lng": 151.0032823,
    "place_id": "ChIJSd9aQiCjEmsRy2zZd_-crkQ",
    "maps_url": "https://www.google.com/maps/place/?q=place_id:ChIJSd9aQiCjEmsRy2zZd_-crkQ",
    "rating": 5,
    "total_ratings": 1877
  },
  {
    "name": "St.George Branch Chester Hill",
    "address": "123 Waldron Rd, Chester Hill",
    "suburb": "Parramatta",
    "state": "NSW",
    "lat": -33.883007,
    "lng": 151.0002072,
    "place_id": "ChIJHQQqtKy9EmsRtE5ClC33R_k",
    "maps_url": "https://www.google.com/maps/place/?q=place_id:ChIJHQQqtKy9EmsRtE5ClC33R_k",
    "rating": 3.6,
    "total_ratings": 23
  },
  {
    "name": "Australian Mutual Bank",
    "address": "Level 3, Shop 3007, Westfield Parramatta, 159-175 Church St, Parramatta",
    "suburb": "Parramatta",
    "state": "NSW",
    "lat": -33.8173782,
    "lng": 151.0016557,
    "place_id": "ChIJPdD-jB6jEmsRzly5guwKY8c",
    "maps_url": "https://www.google.com/maps/place/?q=place_id:ChIJPdD-jB6jEmsRzly5guwKY8c",
    "rating": 3.6,
    "total_ratings": 12
  },
  {
    "name": "Western Union",
    "address": "354 Guildford Rd, Guildford",
    "suburb": "Parramatta",
    "state": "NSW",
    "lat": -33.8540259,
    "lng": 150.9853636,
    "place_id": "ChIJrXHaTJm9EmsRCdEmiVLv2HU",
    "maps_url": "https://www.google.com/maps/place/?q=place_id:ChIJrXHaTJm9EmsRCdEmiVLv2HU",
    "rating": null,
    "total_ratings": 0
  },
  {
    "name": "Community First Credit Union",
    "address": "Mount Druitt",
    "suburb": "Blacktown",
    "state": "NSW",
    "lat": -33.7676091,
    "lng": 150.8202854,
    "place_id": "ChIJpbFh312aEmsRCsAmYB22G68",
    "maps_url": "https://www.google.com/maps/place/?q=place_id:ChIJpbFh312aEmsRCsAmYB22G68",
    "rating": null,
    "total_ratings": 0
  },
  {
    "name": "CBA",
    "address": "Mount Druitt",
    "suburb": "Blacktown",
    "state": "NSW",
    "lat": -33.7663301,
    "lng": 150.8196101,
    "place_id": "ChIJ69K_h16aEmsRVsDoPPZcml8",
    "maps_url": "https://www.google.com/maps/place/?q=place_id:ChIJ69K_h16aEmsRVsDoPPZcml8",
    "rating": null,
    "total_ratings": 0
  },
  {
    "name": "Western Union",
    "address": "69 Richmond Rd, Blacktown",
    "suburb": "Blacktown",
    "state": "NSW",
    "lat": -33.7639556,
    "lng": 150.9024087,
    "place_id": "ChIJS1Q6dayZEmsRwYBdisGlyBk",
    "maps_url": "https://www.google.com/maps/place/?q=place_id:ChIJS1Q6dayZEmsRwYBdisGlyBk",
    "rating": 3.5,
    "total_ratings": 2
  },
  {
    "name": "Community First Bank - Mount Druitt",
    "address": "Central, 32/10 Zoe Pl, Mount Druitt",
    "suburb": "Blacktown",
    "state": "NSW",
    "lat": -33.7667972,
    "lng": 150.8273924,
    "place_id": "ChIJG1DCDFyaEmsRyRn0SFvQmcU",
    "maps_url": "https://www.google.com/maps/place/?q=place_id:ChIJG1DCDFyaEmsRyRn0SFvQmcU",
    "rating": 5,
    "total_ratings": 158
  },
  {
    "name": "Community First Bank - Blacktown",
    "address": "Blacktown Workers Club, 55 Campbell St, Blacktown",
    "suburb": "Blacktown",
    "state": "NSW",
    "lat": -33.7731782,
    "lng": 150.9082146,
    "place_id": "ChIJxUgiPFWYEmsRwmqAP9qxPUA",
    "maps_url": "https://www.google.com/maps/place/?q=place_id:ChIJxUgiPFWYEmsRwmqAP9qxPUA",
    "rating": 4.9,
    "total_ratings": 52
  },
  {
    "name": "Lotus Foreign Exchange - Mt Druitt",
    "address": "Westfield Shopping Centre, Kiosk 48, Level 1 Carlisle Ave, Mount Druitt",
    "suburb": "Blacktown",
    "state": "NSW",
    "lat": -33.7657609,
    "lng": 150.819462,
    "place_id": "ChIJ7eanydubEmsRjleq-vAuRSw",
    "maps_url": "https://www.google.com/maps/place/?q=place_id:ChIJ7eanydubEmsRjleq-vAuRSw",
    "rating": 5,
    "total_ratings": 1699
  },
  {
    "name": "Teachers Mutual Bank",
    "address": "5 Beames Ave, Rooty Hill",
    "suburb": "Blacktown",
    "state": "NSW",
    "lat": -33.772504,
    "lng": 150.843358,
    "place_id": "ChIJxW9wgD6aEmsR0-Xe4MB6wwM",
    "maps_url": "https://www.google.com/maps/place/?q=place_id:ChIJxW9wgD6aEmsR0-Xe4MB6wwM",
    "rating": 4.2,
    "total_ratings": 25
  },
  {
    "name": "Mufti Finance",
    "address": "383 Woodstock Ave, Plumpton",
    "suburb": "Blacktown",
    "state": "NSW",
    "lat": -33.7574244,
    "lng": 150.8277066,
    "place_id": "ChIJq0z6Rk6aEmsRgjE2-3nSzSU",
    "maps_url": "https://www.google.com/maps/place/?q=place_id:ChIJq0z6Rk6aEmsRgjE2-3nSzSU",
    "rating": 5,
    "total_ratings": 182
  },
  {
    "name": "Western Union",
    "address": "Westpoint Shopping Centre, Shop/3061 Patrick St, Blacktown",
    "suburb": "Blacktown",
    "state": "NSW",
    "lat": -33.7708147,
    "lng": 150.9077657,
    "place_id": "ChIJ_Q6pjTWZEmsR4ZyleuWMBEQ",
    "maps_url": "https://www.google.com/maps/place/?q=place_id:ChIJ_Q6pjTWZEmsR4ZyleuWMBEQ",
    "rating": 5,
    "total_ratings": 3
  },
  {
    "name": "Australia Post - Toongabbie Old LPO",
    "address": "27 Emma Cres, Constitution Hill",
    "suburb": "Blacktown",
    "state": "NSW",
    "lat": -33.7919434,
    "lng": 150.9738409,
    "place_id": "ChIJ9_DD_pWiEmsR8eib1XbPx28",
    "maps_url": "https://www.google.com/maps/place/?q=place_id:ChIJ9_DD_pWiEmsR8eib1XbPx28",
    "rating": 4,
    "total_ratings": 24
  },
  {
    "name": "Community First Bank - Penrith",
    "address": "Shop/032 Station St, Penrith",
    "suburb": "Penrith",
    "state": "NSW",
    "lat": -33.7573958,
    "lng": 150.6925823,
    "place_id": "ChIJ8VfAAPaFEmsRqqQuUczRo6U",
    "maps_url": "https://www.google.com/maps/place/?q=place_id:ChIJ8VfAAPaFEmsRqqQuUczRo6U",
    "rating": 4.9,
    "total_ratings": 127
  },
  {
    "name": "IMB Bank - Penrith Branch",
    "address": "25 Riley St, Penrith",
    "suburb": "Penrith",
    "state": "NSW",
    "lat": -33.7525463,
    "lng": 150.6937498,
    "place_id": "ChIJt4eyE_SFEmsR9R-Gd65tvY4",
    "maps_url": "https://www.google.com/maps/place/?q=place_id:ChIJt4eyE_SFEmsR9R-Gd65tvY4",
    "rating": 4.8,
    "total_ratings": 53
  },
  {
    "name": "Australian Mutual Bank",
    "address": "29 Riley St, Penrith",
    "suburb": "Penrith",
    "state": "NSW",
    "lat": -33.7526792,
    "lng": 150.693684,
    "place_id": "ChIJe3A_2C2FEmsROiac60WSeHQ",
    "maps_url": "https://www.google.com/maps/place/?q=place_id:ChIJe3A_2C2FEmsROiac60WSeHQ",
    "rating": 3.7,
    "total_ratings": 3
  },
  {
    "name": "Great Southern Bank",
    "address": "Westfield Penrith, Shop 80/585 High St, Penrith",
    "suburb": "Penrith",
    "state": "NSW",
    "lat": -33.7515956,
    "lng": 150.6935222,
    "place_id": "ChIJc6jygPOFEmsR-dIvdBTcbHg",
    "maps_url": "https://www.google.com/maps/place/?q=place_id:ChIJc6jygPOFEmsR-dIvdBTcbHg",
    "rating": 4.3,
    "total_ratings": 18
  },
  {
    "name": "Greater Bank Penrith",
    "address": "502 High St, Penrith",
    "suburb": "Penrith",
    "state": "NSW",
    "lat": -33.7531561,
    "lng": 150.6951521,
    "place_id": "ChIJNaavYfSFEmsRO52eEX2nSJg",
    "maps_url": "https://www.google.com/maps/place/?q=place_id:ChIJNaavYfSFEmsRO52eEX2nSJg",
    "rating": 4.8,
    "total_ratings": 31
  },
  {
    "name": "Cash Stop",
    "address": "SHOP 1/102 Queen St, St Marys",
    "suburb": "Penrith",
    "state": "NSW",
    "lat": -33.7655184,
    "lng": 150.7743469,
    "place_id": "ChIJZwhHmrGaEmsROSVFzyAvIBw",
    "maps_url": "https://www.google.com/maps/place/?q=place_id:ChIJZwhHmrGaEmsROSVFzyAvIBw",
    "rating": 4.4,
    "total_ratings": 45
  },
  {
    "name": "St Marys Rugby League Club",
    "address": "Cnr Forrester & Boronia Rds, Forrester Rd, St Marys",
    "suburb": "Penrith",
    "state": "NSW",
    "lat": -33.7475545,
    "lng": 150.7786819,
    "place_id": "ChIJ-2xBPdCaEmsRkl133mfon9A",
    "maps_url": "https://www.google.com/maps/place/?q=place_id:ChIJ-2xBPdCaEmsRkl133mfon9A",
    "rating": 4.2,
    "total_ratings": 3370
  },
  {
    "name": "Travelex - Currency Exchange Penrith",
    "address": "Kiosk 13/585 High St, Penrith",
    "suburb": "Penrith",
    "state": "NSW",
    "lat": -33.7509406,
    "lng": 150.6915362,
    "place_id": "ChIJvfVzofaFEmsRS9W77LdGZxA",
    "maps_url": "https://www.google.com/maps/place/?q=place_id:ChIJvfVzofaFEmsRS9W77LdGZxA",
    "rating": 4.9,
    "total_ratings": 504
  },
  {
    "name": "Community First Bank - Liverpool",
    "address": "107 Moore St, Liverpool",
    "suburb": "Liverpool",
    "state": "NSW",
    "lat": -33.9219681,
    "lng": 150.9215758,
    "place_id": "ChIJD21XvriVEmsRyaVNFkj4MX8",
    "maps_url": "https://www.google.com/maps/place/?q=place_id:ChIJD21XvriVEmsRyaVNFkj4MX8",
    "rating": 4.9,
    "total_ratings": 84
  },
  {
    "name": "Western Union",
    "address": "163 George St, Liverpool",
    "suburb": "Liverpool",
    "state": "NSW",
    "lat": -33.921493,
    "lng": 150.925081,
    "place_id": "ChIJMTmfdU-VEmsR9KX0nZQXCzk",
    "maps_url": "https://www.google.com/maps/place/?q=place_id:ChIJMTmfdU-VEmsR9KX0nZQXCzk",
    "rating": 2,
    "total_ratings": 9
  },
  {
    "name": "atmx Westfield Liverpool 3",
    "address": "Located 1st floor outside Donut King and Target, Westfield Liverpool, 120 Macquarie St, Liverpool",
    "suburb": "Liverpool",
    "state": "NSW",
    "lat": -33.9207953,
    "lng": 150.9242196,
    "place_id": "ChIJTbI5tU2xEmsRGg--CtplVi0",
    "maps_url": "https://www.google.com/maps/place/?q=place_id:ChIJTbI5tU2xEmsRGg--CtplVi0",
    "rating": 1,
    "total_ratings": 2
  },
  {
    "name": "Precinct ATM Canley Heights",
    "address": "223 Canley Vale Rd, Canley Heights",
    "suburb": "Liverpool",
    "state": "NSW",
    "lat": -33.8838013,
    "lng": 150.9260036,
    "place_id": "ChIJ-bW6E2yWEmsRt0ao1fAAN7g",
    "maps_url": "https://www.google.com/maps/place/?q=place_id:ChIJ-bW6E2yWEmsRt0ao1fAAN7g",
    "rating": 4,
    "total_ratings": 1
  },
  {
    "name": "St.George ATM Wetherill Park",
    "address": "581-583 Polding St, Wetherill Park",
    "suburb": "Liverpool",
    "state": "NSW",
    "lat": -33.857841,
    "lng": 150.897726,
    "place_id": "ChIJFcsxzI-XEmsRpmsBO6t5iK4",
    "maps_url": "https://www.google.com/maps/place/?q=place_id:ChIJFcsxzI-XEmsRpmsBO6t5iK4",
    "rating": null,
    "total_ratings": 0
  },
  {
    "name": "CBA ATM",
    "address": "Ground Floor/90 Cartwright Ave, Miller",
    "suburb": "Liverpool",
    "state": "NSW",
    "lat": -33.9195766,
    "lng": 150.8832896,
    "place_id": "ChIJ91X_2meUEmsR8vD4vi9-zl0",
    "maps_url": "https://www.google.com/maps/place/?q=place_id:ChIJ91X_2meUEmsR8vD4vi9-zl0",
    "rating": 4,
    "total_ratings": 6
  },
  {
    "name": "Precinct ATM Glenfield Tnt Bakery",
    "address": "108 Railway Parade, Glenfield",
    "suburb": "Liverpool",
    "state": "NSW",
    "lat": -33.9726309,
    "lng": 150.8935134,
    "place_id": "ChIJD7Lx2jLrEmsRfXLAln2ySw8",
    "maps_url": "https://www.google.com/maps/place/?q=place_id:ChIJD7Lx2jLrEmsRfXLAln2ySw8",
    "rating": 4.5,
    "total_ratings": 2
  },
  {
    "name": "St George ATM",
    "address": "90 Cartwright Ave, Miller",
    "suburb": "Liverpool",
    "state": "NSW",
    "lat": -33.91945700000001,
    "lng": 150.883489,
    "place_id": "ChIJ4Zir8meUEmsRtSHIGiSDhPg",
    "maps_url": "https://www.google.com/maps/place/?q=place_id:ChIJ4Zir8meUEmsRtSHIGiSDhPg",
    "rating": 3,
    "total_ratings": 2
  },
  {
    "name": "Precinct ATM Bonnyrigg Plaza 1",
    "address": "100 Bonnyrigg Ave, Bonnyrigg",
    "suburb": "Liverpool",
    "state": "NSW",
    "lat": -33.8868362,
    "lng": 150.8871661,
    "place_id": "ChIJsw_S9Z6WEmsReGu8-wdQ9CM",
    "maps_url": "https://www.google.com/maps/place/?q=place_id:ChIJsw_S9Z6WEmsReGu8-wdQ9CM",
    "rating": 4.5,
    "total_ratings": 2
  },
  {
    "name": "Precinct ATM Liverpool Westfield 2",
    "address": "Westfield Liverpool, 120 Macquarie St, Liverpool",
    "suburb": "Liverpool",
    "state": "NSW",
    "lat": -33.918926,
    "lng": 150.924153,
    "place_id": "ChIJOQqTpQWVEmsRN4zM3FYjmL4",
    "maps_url": "https://www.google.com/maps/place/?q=place_id:ChIJOQqTpQWVEmsRN4zM3FYjmL4",
    "rating": null,
    "total_ratings": 0
  },
  {
    "name": "IMB Bank - Liverpool Branch",
    "address": "Shop 48 &49, Shop 19/165-191 Macquarie St, Liverpool",
    "suburb": "Liverpool",
    "state": "NSW",
    "lat": -33.9215544,
    "lng": 150.9228207,
    "place_id": "ChIJ49g_I7mVEmsRt5yMJz1nIzE",
    "maps_url": "https://www.google.com/maps/place/?q=place_id:ChIJ49g_I7mVEmsRt5yMJz1nIzE",
    "rating": 4.4,
    "total_ratings": 7
  },
  {
    "name": "Precinct ATM Macquarie Fields",
    "address": "53 Saywell Rd, Macquarie Fields",
    "suburb": "Liverpool",
    "state": "NSW",
    "lat": -33.9907492,
    "lng": 150.8833176,
    "place_id": "ChIJC9m5vmrrEmsR_kxkJ3mphww",
    "maps_url": "https://www.google.com/maps/place/?q=place_id:ChIJC9m5vmrrEmsR_kxkJ3mphww",
    "rating": 1,
    "total_ratings": 1
  },
  {
    "name": "Precinct ATM Casula Mall",
    "address": "2A Ingham Dr, Casula",
    "suburb": "Liverpool",
    "state": "NSW",
    "lat": -33.9473014,
    "lng": 150.9017649,
    "place_id": "ChIJedqkCuSUEmsRU_a2frKEFsM",
    "maps_url": "https://www.google.com/maps/place/?q=place_id:ChIJedqkCuSUEmsRU_a2frKEFsM",
    "rating": 1,
    "total_ratings": 1
  },
  {
    "name": "Commonwealth Bank ATM",
    "address": "34-38 John St, Cabramatta",
    "suburb": "Liverpool",
    "state": "NSW",
    "lat": -33.8952983,
    "lng": 150.9368177,
    "place_id": "ChIJ94M2pg6WEmsRyEyb_-bqTS8",
    "maps_url": "https://www.google.com/maps/place/?q=place_id:ChIJ94M2pg6WEmsRyEyb_-bqTS8",
    "rating": 4.2,
    "total_ratings": 10
  },
  {
    "name": "Western Union",
    "address": "Shop 5/14 Hume Hwy, Warwick Farm",
    "suburb": "Liverpool",
    "state": "NSW",
    "lat": -33.914373,
    "lng": 150.9300418,
    "place_id": "ChIJ3X-_QrOVEmsRnAv8XwoYxgE",
    "maps_url": "https://www.google.com/maps/place/?q=place_id:ChIJ3X-_QrOVEmsRnAv8XwoYxgE",
    "rating": null,
    "total_ratings": 0
  },
  {
    "name": "Precinct ATM Green Valley Shopping Centre",
    "address": "170/174 Green Valley Rd, Green Valley",
    "suburb": "Liverpool",
    "state": "NSW",
    "lat": -33.9029654,
    "lng": 150.8694317,
    "place_id": "ChIJuxja5AyUEmsRetN7ZHG9AJs",
    "maps_url": "https://www.google.com/maps/place/?q=place_id:ChIJuxja5AyUEmsRetN7ZHG9AJs",
    "rating": 5,
    "total_ratings": 3
  },
  {
    "name": "atmx Westfield Liverpool 1",
    "address": "Cnr Macquarie %26, Located 1st floor outside Subway in smaller food court, Elizabeth St, Liverpool",
    "suburb": "Liverpool",
    "state": "NSW",
    "lat": -33.9186346,
    "lng": 150.9239618,
    "place_id": "ChIJq4fTPrmVEmsRBxvhEU3J2lo",
    "maps_url": "https://www.google.com/maps/place/?q=place_id:ChIJq4fTPrmVEmsRBxvhEU3J2lo",
    "rating": null,
    "total_ratings": 0
  },
  {
    "name": "Western Union",
    "address": "64 Moore St, Liverpool",
    "suburb": "Liverpool",
    "state": "NSW",
    "lat": -33.922795,
    "lng": 150.9243444,
    "place_id": "ChIJ5w-OInWVEmsRU-HqER1cOAQ",
    "maps_url": "https://www.google.com/maps/place/?q=place_id:ChIJ5w-OInWVEmsRU-HqER1cOAQ",
    "rating": null,
    "total_ratings": 0
  },
  {
    "name": "St.George CDM Liverpool Westfield",
    "address": "254 Macquarie St, Liverpool",
    "suburb": "Liverpool",
    "state": "NSW",
    "lat": -33.919641,
    "lng": 150.923446,
    "place_id": "ChIJL6wsah-VEmsR-uKYnjZiT90",
    "maps_url": "https://www.google.com/maps/place/?q=place_id:ChIJL6wsah-VEmsR-uKYnjZiT90",
    "rating": null,
    "total_ratings": 0
  },
  {
    "name": "St.George ATM Liverpool Westfield",
    "address": "Westfield Liverpool, Shop 118/120 Elizabeth St, Liverpool",
    "suburb": "Liverpool",
    "state": "NSW",
    "lat": -33.9196786,
    "lng": 150.9241411,
    "place_id": "ChIJUZ5dGl2VEmsRRKiI_Atffn0",
    "maps_url": "https://www.google.com/maps/place/?q=place_id:ChIJUZ5dGl2VEmsRRKiI_Atffn0",
    "rating": null,
    "total_ratings": 0
  },
  {
    "name": "NAB ATM",
    "address": "Westfield Liverpool, Macquarie St, Liverpool",
    "suburb": "Liverpool",
    "state": "NSW",
    "lat": -33.918968,
    "lng": 150.9239576,
    "place_id": "ChIJpwA-sYyVEmsRlfPoa-xdchE",
    "maps_url": "https://www.google.com/maps/place/?q=place_id:ChIJpwA-sYyVEmsRlfPoa-xdchE",
    "rating": 1.8,
    "total_ratings": 5
  },
  {
    "name": "Lotus Foreign Exchange - Liverpool",
    "address": "Westfield Shopping Centre, Shop 164, Level 1, Liverpool",
    "suburb": "Liverpool",
    "state": "NSW",
    "lat": -33.9191276,
    "lng": 150.923924,
    "place_id": "ChIJb34Nu7iVEmsRrUlrq4VfvFE",
    "maps_url": "https://www.google.com/maps/place/?q=place_id:ChIJb34Nu7iVEmsRrUlrq4VfvFE",
    "rating": 4.9,
    "total_ratings": 1221
  },
  {
    "name": "Commonwealth Bank Liverpool Branch",
    "address": "270/274 Macquarie St, Liverpool",
    "suburb": "Liverpool",
    "state": "NSW",
    "lat": -33.9241904,
    "lng": 150.9235598,
    "place_id": "ChIJFVgRwruVEmsRrb9uNUIjuuM",
    "maps_url": "https://www.google.com/maps/place/?q=place_id:ChIJFVgRwruVEmsRrb9uNUIjuuM",
    "rating": 4,
    "total_ratings": 198
  },
  {
    "name": "Commonwealth Bank Westfield Shoppingtown Liverpool Branch",
    "address": "Shop 203/204 Campbell St, Liverpool",
    "suburb": "Liverpool",
    "state": "NSW",
    "lat": -33.9185479,
    "lng": 150.9234589,
    "place_id": "ChIJocBkwruVEmsRKYRx6bt9J4s",
    "maps_url": "https://www.google.com/maps/place/?q=place_id:ChIJocBkwruVEmsRKYRx6bt9J4s",
    "rating": 4.4,
    "total_ratings": 524
  },
  {
    "name": "Commonwealth Bank Casula Branch",
    "address": "Shops 15 - 16 Kurrajong Rd, Casula",
    "suburb": "Liverpool",
    "state": "NSW",
    "lat": -33.9479697,
    "lng": 150.9002615,
    "place_id": "ChIJA5z2Cx6VEmsRZHwSpqzEWR0",
    "maps_url": "https://www.google.com/maps/place/?q=place_id:ChIJA5z2Cx6VEmsRZHwSpqzEWR0",
    "rating": 3.7,
    "total_ratings": 135
  },
  {
    "name": "Commonwealth Bank Moorebank Branch",
    "address": "Shop 5-6a/32-40 Stockton Ave, Moorebank",
    "suburb": "Liverpool",
    "state": "NSW",
    "lat": -33.9329926,
    "lng": 150.9500474,
    "place_id": "ChIJJdtjtIiVEmsRUN5oBSotV2o",
    "maps_url": "https://www.google.com/maps/place/?q=place_id:ChIJJdtjtIiVEmsRUN5oBSotV2o",
    "rating": 3.9,
    "total_ratings": 102
  },
  {
    "name": "St.George Branch Cabramatta",
    "address": "66 John St, Cabramatta",
    "suburb": "Liverpool",
    "state": "NSW",
    "lat": -33.8951738,
    "lng": 150.935936,
    "place_id": "ChIJdV3qBAyWEmsRzYxR8NzQdFU",
    "maps_url": "https://www.google.com/maps/place/?q=place_id:ChIJdV3qBAyWEmsRzYxR8NzQdFU",
    "rating": 2.2,
    "total_ratings": 40
  },
  {
    "name": "Commonwealth Bank Cabramatta Branch",
    "address": "34 John St, Cabramatta",
    "suburb": "Liverpool",
    "state": "NSW",
    "lat": -33.8952899,
    "lng": 150.9367976,
    "place_id": "ChIJN91RoQ6WEmsR_emmOdPGDfE",
    "maps_url": "https://www.google.com/maps/place/?q=place_id:ChIJN91RoQ6WEmsR_emmOdPGDfE",
    "rating": 4.8,
    "total_ratings": 1291
  },
  {
    "name": "St.George Branch Liverpool",
    "address": "Westfield Liverpool, Shops 1019-1020 Level 1/2074A Macquarie St, Liverpool",
    "suburb": "Liverpool",
    "state": "NSW",
    "lat": -33.9191729,
    "lng": 150.9243148,
    "place_id": "ChIJ0aHdsbiVEmsRm9qMEhEHncE",
    "maps_url": "https://www.google.com/maps/place/?q=place_id:ChIJ0aHdsbiVEmsRm9qMEhEHncE",
    "rating": 2.7,
    "total_ratings": 44
  },
  {
    "name": "Westpac Branch Liverpool",
    "address": "254, Westfield Liverpool, Shop 1021/1022 Macquarie St, Liverpool",
    "suburb": "Liverpool",
    "state": "NSW",
    "lat": -33.919502,
    "lng": 150.9232807,
    "place_id": "ChIJ5cPf6riVEmsRBlENPn-zkck",
    "maps_url": "https://www.google.com/maps/place/?q=place_id:ChIJ5cPf6riVEmsRBlENPn-zkck",
    "rating": 3.1,
    "total_ratings": 57
  },
  {
    "name": "ANZ Branch Liverpool",
    "address": "Liverpool Plaza, Shop 7/165 Macquarie St, Liverpool",
    "suburb": "Liverpool",
    "state": "NSW",
    "lat": -33.9215898,
    "lng": 150.9234001,
    "place_id": "ChIJ06UGF7mVEmsREe8O0W42AlQ",
    "maps_url": "https://www.google.com/maps/place/?q=place_id:ChIJ06UGF7mVEmsREe8O0W42AlQ",
    "rating": 2.3,
    "total_ratings": 64
  },
  {
    "name": "Allcare",
    "address": "22 Apex St, Liverpool",
    "suburb": "Liverpool",
    "state": "NSW",
    "lat": -33.9121308,
    "lng": 150.9169417,
    "place_id": "ChIJmws-qf2VEmsRfCkCv0yr648",
    "maps_url": "https://www.google.com/maps/place/?q=place_id:ChIJmws-qf2VEmsRfCkCv0yr648",
    "rating": 4.2,
    "total_ratings": 20
  },
  {
    "name": "Commonwealth Bank Bonnyrigg Branch",
    "address": "Shop 35, Bonnyrigg Plaza, 100 Bonnyrigg Ave, Bonnyrigg",
    "suburb": "Liverpool",
    "state": "NSW",
    "lat": -33.8863388,
    "lng": 150.8894193,
    "place_id": "ChIJGbxg7p6WEmsRZG83ryRaQhY",
    "maps_url": "https://www.google.com/maps/place/?q=place_id:ChIJGbxg7p6WEmsRZG83ryRaQhY",
    "rating": 3.9,
    "total_ratings": 117
  },
  {
    "name": "Western Union",
    "address": "244/250 George St, Liverpool",
    "suburb": "Liverpool",
    "state": "NSW",
    "lat": -33.9237982,
    "lng": 150.9250012,
    "place_id": "ChIJVfWtfYGVEmsRdYKtgnXSGpw",
    "maps_url": "https://www.google.com/maps/place/?q=place_id:ChIJVfWtfYGVEmsRdYKtgnXSGpw",
    "rating": null,
    "total_ratings": 0
  },
  {
    "name": "Western Union",
    "address": "Westfield Shoppingtown, Shop 137/33-125 George St, Liverpool",
    "suburb": "Liverpool",
    "state": "NSW",
    "lat": -33.919182,
    "lng": 150.923727,
    "place_id": "ChIJhZCH1vOvEmsRjYEFq6DiK0k",
    "maps_url": "https://www.google.com/maps/place/?q=place_id:ChIJhZCH1vOvEmsRjYEFq6DiK0k",
    "rating": null,
    "total_ratings": 0
  },
  {
    "name": "NAB branch",
    "address": "Macquarie St, Liverpool",
    "suburb": "Liverpool",
    "state": "NSW",
    "lat": -33.9188263,
    "lng": 150.9226996,
    "place_id": "ChIJoecrP7mVEmsRa179VwqR5d8",
    "maps_url": "https://www.google.com/maps/place/?q=place_id:ChIJoecrP7mVEmsRa179VwqR5d8",
    "rating": 2.4,
    "total_ratings": 118
  },
  {
    "name": "NAB branch",
    "address": "22 John St, Cabramatta",
    "suburb": "Liverpool",
    "state": "NSW",
    "lat": -33.8954565,
    "lng": 150.9371326,
    "place_id": "ChIJ2bl9pA6WEmsRDjDoAqHXILQ",
    "maps_url": "https://www.google.com/maps/place/?q=place_id:ChIJ2bl9pA6WEmsRDjDoAqHXILQ",
    "rating": 3.8,
    "total_ratings": 75
  },
  {
    "name": "Defence Bank",
    "address": "Maxwell's Club, MacArthur Dr, Holsworthy",
    "suburb": "Liverpool",
    "state": "NSW",
    "lat": -33.9703869,
    "lng": 150.9542825,
    "place_id": "ChIJz7Z7aF-VEmsRGmdGCTa4ZMI",
    "maps_url": "https://www.google.com/maps/place/?q=place_id:ChIJz7Z7aF-VEmsRGmdGCTa4ZMI",
    "rating": 4.7,
    "total_ratings": 3
  },
  {
    "name": "Community First Bank - Narellan",
    "address": "t309/326 Camden Valley Wy, Narellan",
    "suburb": "Campbelltown",
    "state": "NSW",
    "lat": -34.0396236,
    "lng": 150.7374882,
    "place_id": "ChIJO0fwQbrxEmsR7nKOOTMbVCI",
    "maps_url": "https://www.google.com/maps/place/?q=place_id:ChIJO0fwQbrxEmsR7nKOOTMbVCI",
    "rating": 4.9,
    "total_ratings": 48
  },
  {
    "name": "Great Southern Bank",
    "address": "Macarthur Square Shopping Centre, Shop U50/200 Gilchrist Dr, Campbelltown",
    "suburb": "Campbelltown",
    "state": "NSW",
    "lat": -34.0759753,
    "lng": 150.7985603,
    "place_id": "ChIJO85QOLHvEmsRjXAsw3sWVBU",
    "maps_url": "https://www.google.com/maps/place/?q=place_id:ChIJO85QOLHvEmsRjXAsw3sWVBU",
    "rating": 4.6,
    "total_ratings": 31
  },
  {
    "name": "IMB Bank - Oran Park Branch",
    "address": "Podium, Shop 4C/351 Oran Park Dr, Oran Park",
    "suburb": "Campbelltown",
    "state": "NSW",
    "lat": -34.0004614,
    "lng": 150.7405915,
    "place_id": "ChIJ6_shQDzyEmsRWtowQp2BlRY",
    "maps_url": "https://www.google.com/maps/place/?q=place_id:ChIJ6_shQDzyEmsRWtowQp2BlRY",
    "rating": 4.6,
    "total_ratings": 27
  },
  {
    "name": "IMB Bank - Macarthur Square Branch",
    "address": "Shop L10-L11 Level 2, Macarthur Square Shopping Centre, Gilchrist Dr, Ambarvale",
    "suburb": "Campbelltown",
    "state": "NSW",
    "lat": -34.075483,
    "lng": 150.798339,
    "place_id": "ChIJrRQ9QrHvEmsRJzajjZ11S0E",
    "maps_url": "https://www.google.com/maps/place/?q=place_id:ChIJrRQ9QrHvEmsRJzajjZ11S0E",
    "rating": 4.2,
    "total_ratings": 5
  },
  {
    "name": "St.George Branch Ingleburn",
    "address": "26-28 Oxford Rd, Ingleburn",
    "suburb": "Campbelltown",
    "state": "NSW",
    "lat": -33.9982478,
    "lng": 150.8660301,
    "place_id": "ChIJnTh5XnzrEmsRGA0a1ua2a6o",
    "maps_url": "https://www.google.com/maps/place/?q=place_id:ChIJnTh5XnzrEmsRGA0a1ua2a6o",
    "rating": 3.6,
    "total_ratings": 31
  },
  {
    "name": "Australian Mutual Bank",
    "address": "Shop U012, Macarthur Square, Gilchrist Dr, Ambarvale",
    "suburb": "Campbelltown",
    "state": "NSW",
    "lat": -34.075128,
    "lng": 150.798243,
    "place_id": "ChIJheCMK7LvEmsR7Pln4t_WLXg",
    "maps_url": "https://www.google.com/maps/place/?q=place_id:ChIJheCMK7LvEmsR7Pln4t_WLXg",
    "rating": 4.3,
    "total_ratings": 6
  },
  {
    "name": "Travelex - Currency Exchange Narellan",
    "address": "K16/326 Camden Valley Wy, Narellan",
    "suburb": "Campbelltown",
    "state": "NSW",
    "lat": -34.0418509,
    "lng": 150.7364129,
    "place_id": "ChIJDbTFtUPxEmsRxZ1WDV70cUA",
    "maps_url": "https://www.google.com/maps/place/?q=place_id:ChIJDbTFtUPxEmsRxZ1WDV70cUA",
    "rating": 5,
    "total_ratings": 445
  },
  {
    "name": "Australia Post - Campbelltown North LPO",
    "address": "1/66 Chamberlain St, Campbelltown",
    "suburb": "Campbelltown",
    "state": "NSW",
    "lat": -34.0656888,
    "lng": 150.8253703,
    "place_id": "ChIJN1WUC_DuEmsRDxi6kDrT3uI",
    "maps_url": "https://www.google.com/maps/place/?q=place_id:ChIJN1WUC_DuEmsRDxi6kDrT3uI",
    "rating": 3.8,
    "total_ratings": 39
  },
  {
    "name": "Travelex - Currency Exchange Campbelltown",
    "address": "53/200 Gilchrist Dr, Campbelltown",
    "suburb": "Campbelltown",
    "state": "NSW",
    "lat": -34.076404,
    "lng": 150.797743,
    "place_id": "ChIJeeoVTLHvEmsRxxfnUmVdzBY",
    "maps_url": "https://www.google.com/maps/place/?q=place_id:ChIJeeoVTLHvEmsRxxfnUmVdzBY",
    "rating": 4.9,
    "total_ratings": 872
  },
  {
    "name": "Cash Savvy Leumeah",
    "address": "6 O'Sullivan Rd, Leumeah",
    "suburb": "Campbelltown",
    "state": "NSW",
    "lat": -34.0514928,
    "lng": 150.8307277,
    "place_id": "ChIJw8dKdLrvEmsRRbc7utaHMHA",
    "maps_url": "https://www.google.com/maps/place/?q=place_id:ChIJw8dKdLrvEmsRRbc7utaHMHA",
    "rating": 5,
    "total_ratings": 364
  },
  {
    "name": "Pre Uni College Oran Park",
    "address": "7/342 Camden Valley Wy, Narellan",
    "suburb": "Campbelltown",
    "state": "NSW",
    "lat": -34.0400262,
    "lng": 150.7384394,
    "place_id": "ChIJqUI3f6DxEmsR0qtWDzvFrd4",
    "maps_url": "https://www.google.com/maps/place/?q=place_id:ChIJqUI3f6DxEmsR0qtWDzvFrd4",
    "rating": 4.7,
    "total_ratings": 44
  },
  {
    "name": "Select Credit Union Ltd",
    "address": "6 Blamey St & Corner of Dixon Lane, Revesby",
    "suburb": "Bankstown",
    "state": "NSW",
    "lat": -33.9532009,
    "lng": 151.0148452,
    "place_id": "ChIJLy6qae--EmsRxBZ_q73KblU",
    "maps_url": "https://www.google.com/maps/place/?q=place_id:ChIJLy6qae--EmsRxBZ_q73KblU",
    "rating": 1,
    "total_ratings": 1
  },
  {
    "name": "Western Union",
    "address": "184 Liverpool Rd, Enfield",
    "suburb": "Bankstown",
    "state": "NSW",
    "lat": -33.887232,
    "lng": 151.0977821,
    "place_id": "ChIJt6X79QK7EmsRAf_rKAhCxMY",
    "maps_url": "https://www.google.com/maps/place/?q=place_id:ChIJt6X79QK7EmsRAf_rKAhCxMY",
    "rating": 3,
    "total_ratings": 2
  },
  {
    "name": "Community First Bank - Bankstown",
    "address": "1 Meredith St, Bankstown",
    "suburb": "Bankstown",
    "state": "NSW",
    "lat": -33.9170162,
    "lng": 151.0318651,
    "place_id": "ChIJ36EwCg-8EmsRV1r63nkVF0M",
    "maps_url": "https://www.google.com/maps/place/?q=place_id:ChIJ36EwCg-8EmsRV1r63nkVF0M",
    "rating": 4.8,
    "total_ratings": 81
  },
  {
    "name": "Amba Commercial Collections Pty Ltd",
    "address": "10 Park Rd, Hurstville",
    "suburb": "Bankstown",
    "state": "NSW",
    "lat": -33.9663096,
    "lng": 151.1068556,
    "place_id": "ChIJM31gQL25EmsRewkI7cm2Wfc",
    "maps_url": "https://www.google.com/maps/place/?q=place_id:ChIJM31gQL25EmsRewkI7cm2Wfc",
    "rating": null,
    "total_ratings": 0
  },
  {
    "name": "Unity Bank",
    "address": "64 Kitchener Parade, Bankstown",
    "suburb": "Bankstown",
    "state": "NSW",
    "lat": -33.9140566,
    "lng": 151.0328971,
    "place_id": "ChIJI49vWRC8EmsRBm7Ko4p5L-o",
    "maps_url": "https://www.google.com/maps/place/?q=place_id:ChIJI49vWRC8EmsRBm7Ko4p5L-o",
    "rating": 4.3,
    "total_ratings": 12
  },
  {
    "name": "Hai Ha Money Transfer Bankstown",
    "address": "62 Bankstown City Plaza, Bankstown",
    "suburb": "Bankstown",
    "state": "NSW",
    "lat": -33.91826,
    "lng": 151.032889,
    "place_id": "ChIJDU43ABu8EmsRZV1ItWDVzpU",
    "maps_url": "https://www.google.com/maps/place/?q=place_id:ChIJDU43ABu8EmsRZV1ItWDVzpU",
    "rating": 4.8,
    "total_ratings": 109
  },
  {
    "name": "Australian Exchange",
    "address": "Shop 367, Bankstown Central, North Terrace, Bankstown",
    "suburb": "Bankstown",
    "state": "NSW",
    "lat": -33.9168057,
    "lng": 151.0376447,
    "place_id": "ChIJAcOGiA-8EmsRti6bOKcrVlI",
    "maps_url": "https://www.google.com/maps/place/?q=place_id:ChIJAcOGiA-8EmsRti6bOKcrVlI",
    "rating": 3.7,
    "total_ratings": 34
  },
  {
    "name": "Western Union",
    "address": "7a/88 North Terrace, Bankstown",
    "suburb": "Bankstown",
    "state": "NSW",
    "lat": -33.9173065,
    "lng": 151.0344442,
    "place_id": "ChIJUU6gLw-8EmsRi9I_ShRkCAc",
    "maps_url": "https://www.google.com/maps/place/?q=place_id:ChIJUU6gLw-8EmsRi9I_ShRkCAc",
    "rating": 2.6,
    "total_ratings": 5
  },
  {
    "name": "bp",
    "address": "Milperra Rd, The River Rd, Revesby",
    "suburb": "Bankstown",
    "state": "NSW",
    "lat": -33.9386984,
    "lng": 151.0178998,
    "place_id": "ChIJZ2aTD5S-EmsRlcu-wpBf2mM",
    "maps_url": "https://www.google.com/maps/place/?q=place_id:ChIJZ2aTD5S-EmsRlcu-wpBf2mM",
    "rating": 2.9,
    "total_ratings": 46
  },
  {
    "name": "Australian Mutual Bank",
    "address": "Shop SP364, Bankstown Central Shopping Centre, North Terrace, Bankstown",
    "suburb": "Bankstown",
    "state": "NSW",
    "lat": -33.9172635,
    "lng": 151.0388392,
    "place_id": "ChIJS_VN6mi9EmsRhPkPK3h57uc",
    "maps_url": "https://www.google.com/maps/place/?q=place_id:ChIJS_VN6mi9EmsRhPkPK3h57uc",
    "rating": 3.7,
    "total_ratings": 3
  },
  {
    "name": "Dnister Bank",
    "address": "32-34 Parnell St, Strathfield",
    "suburb": "Bankstown",
    "state": "NSW",
    "lat": -33.8732973,
    "lng": 151.0947995,
    "place_id": "ChIJV-d2ARm7EmsR7HIXXqrviXA",
    "maps_url": "https://www.google.com/maps/place/?q=place_id:ChIJV-d2ARm7EmsR7HIXXqrviXA",
    "rating": 5,
    "total_ratings": 9
  },
  {
    "name": "Bank of Sydney Bankstown Branch",
    "address": "2/228 South Terrace, Bankstown",
    "suburb": "Bankstown",
    "state": "NSW",
    "lat": -33.9179685,
    "lng": 151.0387531,
    "place_id": "ChIJiVemnAW8EmsRKtJPQXOOgxk",
    "maps_url": "https://www.google.com/maps/place/?q=place_id:ChIJiVemnAW8EmsRKtJPQXOOgxk",
    "rating": 2.7,
    "total_ratings": 7
  },
  {
    "name": "Finch Financial Services",
    "address": "Suite 11/11 Forest Rd, Hurstville",
    "suburb": "Bankstown",
    "state": "NSW",
    "lat": -33.962959,
    "lng": 151.1122386,
    "place_id": "ChIJ_3b2-LK5EmsRI_Ll7wtx9wE",
    "maps_url": "https://www.google.com/maps/place/?q=place_id:ChIJ_3b2-LK5EmsRI_Ll7wtx9wE",
    "rating": 4.9,
    "total_ratings": 17
  },
  {
    "name": "Australia Post - Hurstville Westfield Post Shop",
    "address": "Hurstville Westfield Centre, 223/3 Cross St, Hurstville",
    "suburb": "Bankstown",
    "state": "NSW",
    "lat": -33.9666725,
    "lng": 151.1041632,
    "place_id": "ChIJwdZOyKK5EmsRN2iAj41pxNg",
    "maps_url": "https://www.google.com/maps/place/?q=place_id:ChIJwdZOyKK5EmsRN2iAj41pxNg",
    "rating": 2.8,
    "total_ratings": 70
  },
  {
    "name": "Qudos Bank - Miranda Branch",
    "address": "Shop 3/581-587 Kingsway, Miranda",
    "suburb": "Hurstville",
    "state": "NSW",
    "lat": -34.0337609,
    "lng": 151.1014918,
    "place_id": "ChIJvVj1DoXHEmsRjFxhQEFRK0U",
    "maps_url": "https://www.google.com/maps/place/?q=place_id:ChIJvVj1DoXHEmsRjFxhQEFRK0U",
    "rating": 2.7,
    "total_ratings": 15
  },
  {
    "name": "IMB Bank - Sutherland Branch",
    "address": "740 Old Princes Hwy, Sutherland",
    "suburb": "Hurstville",
    "state": "NSW",
    "lat": -34.0308373,
    "lng": 151.0585684,
    "place_id": "ChIJwy-Bn0jHEmsRTRKxz3VHf1g",
    "maps_url": "https://www.google.com/maps/place/?q=place_id:ChIJwy-Bn0jHEmsRTRKxz3VHf1g",
    "rating": 5,
    "total_ratings": 3
  },
  {
    "name": "IMB",
    "address": "Shop G105/600 Kingsway, Miranda",
    "suburb": "Hurstville",
    "state": "NSW",
    "lat": -34.035169,
    "lng": 151.1017047,
    "place_id": "ChIJbSn70YTHEmsRdaO6ibGeiOs",
    "maps_url": "https://www.google.com/maps/place/?q=place_id:ChIJbSn70YTHEmsRdaO6ibGeiOs",
    "rating": 4,
    "total_ratings": 8
  },
  {
    "name": "IMB Bank - Sylvania Branch",
    "address": "Southgate Shopping Centre, 27 Port Hacking Rd, Sylvania",
    "suburb": "Hurstville",
    "state": "NSW",
    "lat": -34.0106117,
    "lng": 151.1049146,
    "place_id": "ChIJS0hMFGa4EmsR4SgGcunvnO4",
    "maps_url": "https://www.google.com/maps/place/?q=place_id:ChIJS0hMFGa4EmsR4SgGcunvnO4",
    "rating": 3.6,
    "total_ratings": 8
  },
  {
    "name": "Energy Collections",
    "address": "2A Russell Ave, Sans Souci",
    "suburb": "Hurstville",
    "state": "NSW",
    "lat": -33.992514,
    "lng": 151.13259,
    "place_id": "ChIJmSZgzCy4EmsRAkJqeZbd7Hc",
    "maps_url": "https://www.google.com/maps/place/?q=place_id:ChIJmSZgzCy4EmsRAkJqeZbd7Hc",
    "rating": null,
    "total_ratings": 0
  },
  {
    "name": "IMB Bank - Menai Branch",
    "address": "152/194 Allison Cres, Menai",
    "suburb": "Hurstville",
    "state": "NSW",
    "lat": -34.0133599,
    "lng": 151.0158531,
    "place_id": "ChIJT-gofZDAEmsRi6SNKTcgc_o",
    "maps_url": "https://www.google.com/maps/place/?q=place_id:ChIJT-gofZDAEmsRi6SNKTcgc_o",
    "rating": 5,
    "total_ratings": 3
  },
  {
    "name": "St.George Branch Sutherland",
    "address": "768 Old Princes Hwy, Sutherland",
    "suburb": "Hurstville",
    "state": "NSW",
    "lat": -34.0315052,
    "lng": 151.0581663,
    "place_id": "ChIJybDehUjHEmsRlns7Ecr9R5Y",
    "maps_url": "https://www.google.com/maps/place/?q=place_id:ChIJybDehUjHEmsRlns7Ecr9R5Y",
    "rating": 2.3,
    "total_ratings": 18
  },
  {
    "name": "Australian Mutual Bank",
    "address": "Suite 44/61/65 Glencoe St, Sutherland",
    "suburb": "Hurstville",
    "state": "NSW",
    "lat": -34.0315156,
    "lng": 151.0629583,
    "place_id": "ChIJA7dKG0bHEmsR2ULJ7mXh6wg",
    "maps_url": "https://www.google.com/maps/place/?q=place_id:ChIJA7dKG0bHEmsR2ULJ7mXh6wg",
    "rating": 4.8,
    "total_ratings": 6
  },
  {
    "name": "St.George Branch Menai",
    "address": "180 Allison Cres, Menai",
    "suburb": "Hurstville",
    "state": "NSW",
    "lat": -34.0134523,
    "lng": 151.0157054,
    "place_id": "ChIJv5HugZDAEmsRjQPmET4E4MQ",
    "maps_url": "https://www.google.com/maps/place/?q=place_id:ChIJv5HugZDAEmsRjQPmET4E4MQ",
    "rating": 3.4,
    "total_ratings": 17
  },
  {
    "name": "The Bank",
    "address": "324 King St, Newtown",
    "suburb": "Hurstville",
    "state": "NSW",
    "lat": -33.8974865,
    "lng": 151.1792614,
    "place_id": "ChIJtRkqxTawEmsRlXVE5CkdA3w",
    "maps_url": "https://www.google.com/maps/place/?q=place_id:ChIJtRkqxTawEmsRlXVE5CkdA3w",
    "rating": 4.1,
    "total_ratings": 2779
  },
  {
    "name": "JAC-UNITY Financial",
    "address": "Shop 4/570 New Canterbury Rd, Hurlstone Park",
    "suburb": "Hurstville",
    "state": "NSW",
    "lat": -33.9058512,
    "lng": 151.1340818,
    "place_id": "ChIJf9zVCn-wEmsRsytEvIXaGEA",
    "maps_url": "https://www.google.com/maps/place/?q=place_id:ChIJf9zVCn-wEmsRsytEvIXaGEA",
    "rating": 4.9,
    "total_ratings": 29
  },
  {
    "name": "CAPE",
    "address": "109/22-32 Kingsway, Cronulla",
    "suburb": "Cronulla",
    "state": "NSW",
    "lat": -34.0515199,
    "lng": 151.152476,
    "place_id": "ChIJt9eQ3gjIEmsRz3n6dUMdrBU",
    "maps_url": "https://www.google.com/maps/place/?q=place_id:ChIJt9eQ3gjIEmsRz3n6dUMdrBU",
    "rating": null,
    "total_ratings": 0
  },
  {
    "name": "St.George ATM Caringbah",
    "address": "347 Kingsway, Caringbah",
    "suburb": "Cronulla",
    "state": "NSW",
    "lat": -34.0418864,
    "lng": 151.1221582,
    "place_id": "ChIJL6_-C6zHEmsRaVHsqWRDXoE",
    "maps_url": "https://www.google.com/maps/place/?q=place_id:ChIJL6_-C6zHEmsRaVHsqWRDXoE",
    "rating": 1,
    "total_ratings": 2
  },
  {
    "name": "atmx South Village",
    "address": "Located near Panetta, 580 Princes Hwy, Kirrawee",
    "suburb": "Cronulla",
    "state": "NSW",
    "lat": -34.0325153,
    "lng": 151.0733067,
    "place_id": "ChIJmXiBn0jHEmsRdWo3VZTguUY",
    "maps_url": "https://www.google.com/maps/place/?q=place_id:ChIJmXiBn0jHEmsRdWo3VZTguUY",
    "rating": null,
    "total_ratings": 0
  },
  {
    "name": "Precinct ATM Gymea",
    "address": "52 Gymea Bay Rd, Gymea",
    "suburb": "Cronulla",
    "state": "NSW",
    "lat": -34.0356973,
    "lng": 151.0852648,
    "place_id": "ChIJFx1xTnLHEmsR5v0AgmcMo84",
    "maps_url": "https://www.google.com/maps/place/?q=place_id:ChIJFx1xTnLHEmsR5v0AgmcMo84",
    "rating": 2.3,
    "total_ratings": 3
  },
  {
    "name": "Community First Bank - Cronulla",
    "address": "Level 1/28-32 Kingsway, Cronulla",
    "suburb": "Cronulla",
    "state": "NSW",
    "lat": -34.0514616,
    "lng": 151.1522908,
    "place_id": "ChIJMSLuJuy3EmsReR9QRWwx20Y",
    "maps_url": "https://www.google.com/maps/place/?q=place_id:ChIJMSLuJuy3EmsReR9QRWwx20Y",
    "rating": 4.9,
    "total_ratings": 32
  },
  {
    "name": "atmx Southgate Shopping Centre",
    "address": "Located outside Coles, 124 Princes Hwy, Sylvania",
    "suburb": "Cronulla",
    "state": "NSW",
    "lat": -34.0101254,
    "lng": 151.104192,
    "place_id": "ChIJT5dy7kfOsGoREUel6_jZioY",
    "maps_url": "https://www.google.com/maps/place/?q=place_id:ChIJT5dy7kfOsGoREUel6_jZioY",
    "rating": 3.2,
    "total_ratings": 6
  },
  {
    "name": "Precinct ATM Caringbah Shopping Village",
    "address": "53 President Ave, Caringbah",
    "suburb": "Cronulla",
    "state": "NSW",
    "lat": -34.0423406,
    "lng": 151.1188297,
    "place_id": "ChIJ4b5r4ezHEmsRxJWCA6_cWuA",
    "maps_url": "https://www.google.com/maps/place/?q=place_id:ChIJ4b5r4ezHEmsRxJWCA6_cWuA",
    "rating": 4,
    "total_ratings": 1
  },
  {
    "name": "IMB Bank - Cronulla Branch",
    "address": "80 Cronulla St, Cronulla",
    "suburb": "Cronulla",
    "state": "NSW",
    "lat": -34.0537215,
    "lng": 151.1524383,
    "place_id": "ChIJZTZNAhLIEmsRcUrBCNV8jnc",
    "maps_url": "https://www.google.com/maps/place/?q=place_id:ChIJZTZNAhLIEmsRcUrBCNV8jnc",
    "rating": 5,
    "total_ratings": 3
  },
  {
    "name": "Commonwealth Bank Miranda Branch",
    "address": "Westfield Miranda, Shop G104/600 Kingsway, Miranda",
    "suburb": "Cronulla",
    "state": "NSW",
    "lat": -34.035359,
    "lng": 151.101626,
    "place_id": "ChIJz_eu04THEmsRVux9n6hMUOk",
    "maps_url": "https://www.google.com/maps/place/?q=place_id:ChIJz_eu04THEmsRVux9n6hMUOk",
    "rating": 3.4,
    "total_ratings": 125
  },
  {
    "name": "St.George Branch Caringbah",
    "address": "349C Kingsway, Caringbah",
    "suburb": "Cronulla",
    "state": "NSW",
    "lat": -34.0411565,
    "lng": 151.1215378,
    "place_id": "ChIJS3WB8u3HEmsR6Z5vIWlaTQc",
    "maps_url": "https://www.google.com/maps/place/?q=place_id:ChIJS3WB8u3HEmsR6Z5vIWlaTQc",
    "rating": 3.4,
    "total_ratings": 9
  },
  {
    "name": "St.George Branch Sylvania",
    "address": "Southgate Shopping Centre, 124 Princes Hwy, Sylvania",
    "suburb": "Cronulla",
    "state": "NSW",
    "lat": -34.0103235,
    "lng": 151.104277,
    "place_id": "ChIJQYsXL2a4EmsRKEOaHuaeRuk",
    "maps_url": "https://www.google.com/maps/place/?q=place_id:ChIJQYsXL2a4EmsRKEOaHuaeRuk",
    "rating": 2.4,
    "total_ratings": 13
  },
  {
    "name": "St.George Branch Miranda",
    "address": "600 Kingsway, Miranda",
    "suburb": "Cronulla",
    "state": "NSW",
    "lat": -34.0351498,
    "lng": 151.1006623,
    "place_id": "ChIJexQL2oTHEmsRfsWb9x9g5NQ",
    "maps_url": "https://www.google.com/maps/place/?q=place_id:ChIJexQL2oTHEmsRfsWb9x9g5NQ",
    "rating": 3.2,
    "total_ratings": 26
  },
  {
    "name": "Commonwealth Bank Sylvania Branch",
    "address": "Princes HWY, Shop 38, Southgate, Sylvania",
    "suburb": "Cronulla",
    "state": "NSW",
    "lat": -34.010055,
    "lng": 151.1038037,
    "place_id": "ChIJvUs3LWa4EmsRTLwXhTZKkPQ",
    "maps_url": "https://www.google.com/maps/place/?q=place_id:ChIJvUs3LWa4EmsRTLwXhTZKkPQ",
    "rating": 4.3,
    "total_ratings": 70
  },
  {
    "name": "NAB branch",
    "address": "600 Kingsway, Miranda",
    "suburb": "Cronulla",
    "state": "NSW",
    "lat": -34.0354935,
    "lng": 151.1023623,
    "place_id": "ChIJC27fuITHEmsR14MXvvK36v8",
    "maps_url": "https://www.google.com/maps/place/?q=place_id:ChIJC27fuITHEmsR14MXvvK36v8",
    "rating": 3.2,
    "total_ratings": 39
  },
  {
    "name": "Unity Bank",
    "address": "Level 25/201 Elizabeth St, Sydney",
    "suburb": "Bondi",
    "state": "NSW",
    "lat": -33.8737875,
    "lng": 151.2095295,
    "place_id": "ChIJmzpMJj-uEmsR3BwQdOLiXeQ",
    "maps_url": "https://www.google.com/maps/place/?q=place_id:ChIJmzpMJj-uEmsR3BwQdOLiXeQ",
    "rating": 3.5,
    "total_ratings": 2
  },
  {
    "name": "Travelex - Currency Exchange Bondi Junction",
    "address": "Kiosk 03A/500 Oxford St, Bondi Junction",
    "suburb": "Bondi",
    "state": "NSW",
    "lat": -33.8922772,
    "lng": 151.2506732,
    "place_id": "ChIJuzMl_gauEmsRg8_wOliidu0",
    "maps_url": "https://www.google.com/maps/place/?q=place_id:ChIJuzMl_gauEmsRg8_wOliidu0",
    "rating": 4.9,
    "total_ratings": 864
  },
  {
    "name": "Customer Owned Banking Association",
    "address": "Suite 403/151 Castlereagh St, Sydney",
    "suburb": "Bondi",
    "state": "NSW",
    "lat": -33.87193080000001,
    "lng": 151.2090038,
    "place_id": "ChIJ84dGMkGuEmsRDLdgn4_SFjE",
    "maps_url": "https://www.google.com/maps/place/?q=place_id:ChIJ84dGMkGuEmsRDLdgn4_SFjE",
    "rating": 3,
    "total_ratings": 4
  },
  {
    "name": "Commonwealth Bank George & Market Sts Sydney Branch",
    "address": "Ground Floor/46 Market St, Sydney",
    "suburb": "Bondi",
    "state": "NSW",
    "lat": -33.8706525,
    "lng": 151.206766,
    "place_id": "ChIJwWBUqD-uEmsRcEMfn5v4qzA",
    "maps_url": "https://www.google.com/maps/place/?q=place_id:ChIJwWBUqD-uEmsRcEMfn5v4qzA",
    "rating": 3.9,
    "total_ratings": 183
  },
  {
    "name": "Travelex - Currency Exchange Queen Victoria Building Sydney",
    "address": "Queen Victoria Building, Shop 15C, Lower ground 2, 455 George St, Sydney",
    "suburb": "Bondi",
    "state": "NSW",
    "lat": -33.8720973,
    "lng": 151.2066698,
    "place_id": "ChIJozxb8j6uEmsR0oGjbPDfsqI",
    "maps_url": "https://www.google.com/maps/place/?q=place_id:ChIJozxb8j6uEmsR0oGjbPDfsqI",
    "rating": 4.8,
    "total_ratings": 831
  },
  {
    "name": "Bank of Sydney Maroubra Branch",
    "address": "Shop 3 & 4/205 Maroubra Rd, Maroubra",
    "suburb": "Bondi",
    "state": "NSW",
    "lat": -33.941833,
    "lng": 151.239747,
    "place_id": "ChIJR_YgLo-xEmsRRUHhs6hN1YQ",
    "maps_url": "https://www.google.com/maps/place/?q=place_id:ChIJR_YgLo-xEmsRRUHhs6hN1YQ",
    "rating": 4.3,
    "total_ratings": 18
  },
  {
    "name": "Commonwealth Bank World Square Branch",
    "address": "Suite 10/52C 644 George St, Sydney",
    "suburb": "Bondi",
    "state": "NSW",
    "lat": -33.8775171,
    "lng": 151.2068067,
    "place_id": "ChIJt_ai2zyuEmsR6Eyv2XJ_khE",
    "maps_url": "https://www.google.com/maps/place/?q=place_id:ChIJt_ai2zyuEmsR6Eyv2XJ_khE",
    "rating": 3.8,
    "total_ratings": 167
  },
  {
    "name": "Precinct ATM Top Ryde Shp Ctr",
    "address": "109-129 Blaxland Rd, Ryde",
    "suburb": "Ryde",
    "state": "NSW",
    "lat": -33.8115945,
    "lng": 151.106492,
    "place_id": "ChIJrZfnTaWlEmsRTCTIV2S1seg",
    "maps_url": "https://www.google.com/maps/place/?q=place_id:ChIJrZfnTaWlEmsRTCTIV2S1seg",
    "rating": 3,
    "total_ratings": 2
  },
  {
    "name": "CBA ATM",
    "address": "Blaxland Rd & Tucker St, Ryde",
    "suburb": "Ryde",
    "state": "NSW",
    "lat": -33.8117961,
    "lng": 151.1057023,
    "place_id": "ChIJhWa2eqWlEmsR5BX3srauHeg",
    "maps_url": "https://www.google.com/maps/place/?q=place_id:ChIJhWa2eqWlEmsR5BX3srauHeg",
    "rating": 2.2,
    "total_ratings": 6
  },
  {
    "name": "Precinct ATM West Ryde M/Place",
    "address": "14b Anthony Rd, West Ryde",
    "suburb": "Ryde",
    "state": "NSW",
    "lat": -33.806362,
    "lng": 151.0884945,
    "place_id": "ChIJDz7y2E2kEmsRmjCUHtjLRKE",
    "maps_url": "https://www.google.com/maps/place/?q=place_id:ChIJDz7y2E2kEmsRmjCUHtjLRKE",
    "rating": 3.4,
    "total_ratings": 5
  },
  {
    "name": "atmx Top Ryde City Shopping Centre 1",
    "address": "Located near Top Juice, 129 Blaxland Rd, Ryde",
    "suburb": "Ryde",
    "state": "NSW",
    "lat": -33.8121003,
    "lng": 151.1063807,
    "place_id": "ChIJicVQHEzfbaoRDz0HKnBqlAc",
    "maps_url": "https://www.google.com/maps/place/?q=place_id:ChIJicVQHEzfbaoRDz0HKnBqlAc",
    "rating": 1,
    "total_ratings": 2
  },
  {
    "name": "Commonwealth Bank Lane Cove Branch",
    "address": "Shop T1/24-28 Burns Bay Rd, Lane Cove",
    "suburb": "Ryde",
    "state": "NSW",
    "lat": -33.8149362,
    "lng": 151.1690414,
    "place_id": "ChIJ5RC2GDyvEmsRTJ1yNNzMvjo",
    "maps_url": "https://www.google.com/maps/place/?q=place_id:ChIJ5RC2GDyvEmsRTJ1yNNzMvjo",
    "rating": 2.9,
    "total_ratings": 63
  },
  {
    "name": "St.George Branch Top Ryde",
    "address": "Top Ryde Shopping Centre, 2 Devlin St, Ryde",
    "suburb": "Ryde",
    "state": "NSW",
    "lat": -33.8106026,
    "lng": 151.1061322,
    "place_id": "ChIJmxJijK-lEmsRse7k8eoRXR4",
    "maps_url": "https://www.google.com/maps/place/?q=place_id:ChIJmxJijK-lEmsRse7k8eoRXR4",
    "rating": 3,
    "total_ratings": 30
  },
  {
    "name": "Commonwealth Bank Top Ryde City Branch",
    "address": "TOP Ryde Shopping Centre C3006, Blaxland Rd, Ryde",
    "suburb": "Ryde",
    "state": "NSW",
    "lat": -33.8118193,
    "lng": 151.1056881,
    "place_id": "ChIJqZCDi6-lEmsR8HJLvBf7djY",
    "maps_url": "https://www.google.com/maps/place/?q=place_id:ChIJqZCDi6-lEmsR8HJLvBf7djY",
    "rating": 3.5,
    "total_ratings": 95
  },
  {
    "name": "Western Union",
    "address": "Bank, University of Sydney, Camperdown",
    "suburb": "Ryde",
    "state": "NSW",
    "lat": -33.888135,
    "lng": 151.1882326,
    "place_id": "ChIJjZ6cFh6xEmsRb1Q9hLPPrMA",
    "maps_url": "https://www.google.com/maps/place/?q=place_id:ChIJjZ6cFh6xEmsRb1Q9hLPPrMA",
    "rating": null,
    "total_ratings": 0
  },
  {
    "name": "HSBC Bank Australia",
    "address": "202 Burwood Rd, Burwood",
    "suburb": "Ryde",
    "state": "NSW",
    "lat": -33.8784508,
    "lng": 151.1035751,
    "place_id": "ChIJX1lAkdy6EmsRmJw4R_v_bfM",
    "maps_url": "https://www.google.com/maps/place/?q=place_id:ChIJX1lAkdy6EmsRmJw4R_v_bfM",
    "rating": 2.2,
    "total_ratings": 64
  },
  {
    "name": "Bendigo Bank",
    "address": "203-213 Coxs Rd, North Ryde",
    "suburb": "Ryde",
    "state": "NSW",
    "lat": -33.794483,
    "lng": 151.121704,
    "place_id": "ChIJf9sNEOalEmsRu4lZ1TxTCIM",
    "maps_url": "https://www.google.com/maps/place/?q=place_id:ChIJf9sNEOalEmsRu4lZ1TxTCIM",
    "rating": 3.4,
    "total_ratings": 10
  },
  {
    "name": "CUA ATM",
    "address": "Shop 257b, Low Lev, Castle Towers S/C, Castle St, Castle Hill",
    "suburb": "Castle Hill",
    "state": "NSW",
    "lat": -33.730424,
    "lng": 151.006522,
    "place_id": "ChIJVVhAgIOnEmsRdhRNkXuQNEc",
    "maps_url": "https://www.google.com/maps/place/?q=place_id:ChIJVVhAgIOnEmsRdhRNkXuQNEc",
    "rating": null,
    "total_ratings": 0
  },
  {
    "name": "atmx Parklea Markets",
    "address": "Parklea Markets, 601 Sunnyholt Rd, Parklea",
    "suburb": "Castle Hill",
    "state": "NSW",
    "lat": -33.72460830000001,
    "lng": 150.9341053,
    "place_id": "ChIJHS2dtyOlEmsRNKnlfUiq6PA",
    "maps_url": "https://www.google.com/maps/place/?q=place_id:ChIJHS2dtyOlEmsRNKnlfUiq6PA",
    "rating": 2.7,
    "total_ratings": 18
  },
  {
    "name": "IMB Bank Rouse Hill",
    "address": "Rouse Hill",
    "suburb": "Castle Hill",
    "state": "NSW",
    "lat": -33.6907366,
    "lng": 150.9258593,
    "place_id": "ChIJWc1xL66fEmsRnee1pgy1POI",
    "maps_url": "https://www.google.com/maps/place/?q=place_id:ChIJWc1xL66fEmsRnee1pgy1POI",
    "rating": 4.8,
    "total_ratings": 24
  },
  {
    "name": "Australia Post - Rouse Hill Town Centre LPO",
    "address": "Shop 1c 10/14 Market Ln, Rouse Hill",
    "suburb": "Castle Hill",
    "state": "NSW",
    "lat": -33.6903886,
    "lng": 150.9266178,
    "place_id": "ChIJ4WSNNqefEmsROmQ-PTfgk2s",
    "maps_url": "https://www.google.com/maps/place/?q=place_id:ChIJ4WSNNqefEmsROmQ-PTfgk2s",
    "rating": 2.1,
    "total_ratings": 162
  },
  {
    "name": "Australian Mutual Bank",
    "address": "Shop Gr092a, Civic Way, Rouse Hill",
    "suburb": "Castle Hill",
    "state": "NSW",
    "lat": -33.6908179,
    "lng": 150.9260139,
    "place_id": "ChIJ5XiOF6GfEmsRetefZYtZjIM",
    "maps_url": "https://www.google.com/maps/place/?q=place_id:ChIJ5XiOF6GfEmsRetefZYtZjIM",
    "rating": 3.8,
    "total_ratings": 4
  },
  {
    "name": "atmx PARRAMATTA STATION #2",
    "address": "Located near: Woolworths Metro Parramatta, 110 Argyle St, Parramatta",
    "suburb": "Baulkham Hills",
    "state": "NSW",
    "lat": -33.8169926,
    "lng": 151.0032479,
    "place_id": "ChIJqWVUDGB1bqoRjN4_AdUKPQY",
    "maps_url": "https://www.google.com/maps/place/?q=place_id:ChIJqWVUDGB1bqoRjN4_AdUKPQY",
    "rating": 5,
    "total_ratings": 1
  },
  {
    "name": "Precinct ATM Ermington",
    "address": "8 Betty Cuthbert Ave, Ermington",
    "suburb": "Baulkham Hills",
    "state": "NSW",
    "lat": -33.8146747,
    "lng": 151.0556899,
    "place_id": "ChIJuT12K4SkEmsReiMfxuptvAU",
    "maps_url": "https://www.google.com/maps/place/?q=place_id:ChIJuT12K4SkEmsReiMfxuptvAU",
    "rating": 3,
    "total_ratings": 5
  },
  {
    "name": "atmx Rydalmere Ampol",
    "address": "Located inside service station, 305 Victoria Rd, Rydalmere",
    "suburb": "Baulkham Hills",
    "state": "NSW",
    "lat": -33.8119195,
    "lng": 151.0368786,
    "place_id": "ChIJ-yopXHqjEmsRNCDA_0_PiT8",
    "maps_url": "https://www.google.com/maps/place/?q=place_id:ChIJ-yopXHqjEmsRNCDA_0_PiT8",
    "rating": 3.2,
    "total_ratings": 5
  },
  {
    "name": "Precinct ATM Parramatta Westfield 3",
    "address": "42 Campbell St, Parramatta",
    "suburb": "Baulkham Hills",
    "state": "NSW",
    "lat": -33.8187662,
    "lng": 151.0030199,
    "place_id": "ChIJQyvxRSCjEmsR4IlkxFef1Vg",
    "maps_url": "https://www.google.com/maps/place/?q=place_id:ChIJQyvxRSCjEmsR4IlkxFef1Vg",
    "rating": 1.7,
    "total_ratings": 3
  },
  {
    "name": "Cashcard ATM",
    "address": "116-118 James Ruse Dr, Rosehill",
    "suburb": "Baulkham Hills",
    "state": "NSW",
    "lat": -33.82336799999999,
    "lng": 151.020589,
    "place_id": "ChIJbYnT_j6jEmsRgYw67eKGa94",
    "maps_url": "https://www.google.com/maps/place/?q=place_id:ChIJbYnT_j6jEmsRgYw67eKGa94",
    "rating": null,
    "total_ratings": 0
  },