[
  {
    "name": "Books Kinokuniya Sydney",
    "address": "Level 2/500 George St, Sydney NSW 2000, Australia",
    "suburb": "Sydney NSW 2000",
    "state": "NSW",
    "rating": 4.7,
    "reviews": 4496,
    "lat": -33.8726763,
    "lng": 151.2072391,
    "place_id": "ChIJRzzaXz6uEmsRgcuNAhyfIqY",
    "maps_url": "https://www.google.com/maps/place/?q=place_id:ChIJRzzaXz6uEmsRgcuNAhyfIqY"
  },
  {
    "name": "Dymocks Sydney",
    "address": "424-430 George St, Sydney NSW 2000, Australia",
    "suburb": "Sydney NSW 2000",
    "state": "NSW",
    "rating": 4.6,
    "reviews": 4044,
    "lat": -33.8697999,
    "lng": 151.2070811,
    "place_id": "ChIJwZtEpz-uEmsR_KVgqT4EtLU",
    "maps_url": "https://www.google.com/maps/place/?q=place_id:ChIJwZtEpz-uEmsR_KVgqT4EtLU"
  },
  {
    "name": "Abbey's Bookshop",
    "address": "131 York St, Sydney NSW 2000, Australia",
    "suburb": "Sydney NSW 2000",
    "state": "NSW",
    "rating": 4.7,
    "reviews": 929,
    "lat": -33.8721503,
    "lng": 151.2063297,
    "place_id": "ChIJt7jWkz6uEmsR1Ttu2JJF9Yw",
    "maps_url": "https://www.google.com/maps/place/?q=place_id:ChIJt7jWkz6uEmsR1Ttu2JJF9Yw"
  },
  {
    "name": "Galaxy Bookshop",
    "address": "Level 1/131 York St, Sydney NSW 2000, Australia",
    "suburb": "Sydney NSW 2000",
    "state": "NSW",
    "rating": 4.5,
    "reviews": 115,
    "lat": -33.8721206,
    "lng": 151.2062777,
    "place_id": "ChIJRzT1kD6uEmsRodRxkeYbrnM",
    "maps_url": "https://www.google.com/maps/place/?q=place_id:ChIJRzT1kD6uEmsRodRxkeYbrnM"
  },
  {
    "name": "Hondarake Full Of Books",
    "address": "Suite 204, Level 2/35-39 Liverpool St, Sydney NSW 2000, Australia",
    "suburb": "Level 2/35-39 Liverpool St",
    "state": "NSW",
    "rating": 4.8,
    "reviews": 169,
    "lat": -33.8763453,
    "lng": 151.204293,
    "place_id": "ChIJM7O2AzyuEmsRANFNuivqnvc",
    "maps_url": "https://www.google.com/maps/place/?q=place_id:ChIJM7O2AzyuEmsRANFNuivqnvc"
  },
  {
    "name": "Sappho Books, Cafe & Bar",
    "address": "51 Glebe Point Rd, Glebe NSW 2037, Australia",
    "suburb": "Glebe NSW 2037",
    "state": "NSW",
    "rating": 4.6,
    "reviews": 1128,
    "lat": -33.8831714,
    "lng": 151.1914481,
    "place_id": "ChIJOdsIPyquEmsRDdga3tuIXhk",
    "maps_url": "https://www.google.com/maps/place/?q=place_id:ChIJOdsIPyquEmsRDdga3tuIXhk"
  },
  {
    "name": "Berkelouw Paddington",
    "address": "19 Oxford St, Paddington NSW 2021, Australia",
    "suburb": "Paddington NSW 2021",
    "state": "NSW",
    "rating": 4.6,
    "reviews": 592,
    "lat": -33.8825986,
    "lng": 151.2201305,
    "place_id": "ChIJF-3slhquEmsRKvYODdKJXBk",
    "maps_url": "https://www.google.com/maps/place/?q=place_id:ChIJF-3slhquEmsRKvYODdKJXBk"
  },
  {
    "name": "Better Read Than Dead",
    "address": "265 King St, Newtown NSW 2042, Australia",
    "suburb": "Newtown NSW 2042",
    "state": "NSW",
    "rating": 4.5,
    "reviews": 489,
    "lat": -33.8960608,
    "lng": 151.1803555,
    "place_id": "ChIJ4fAxQzGwEmsRr8nKeuKN0_o",
    "maps_url": "https://www.google.com/maps/place/?q=place_id:ChIJ4fAxQzGwEmsRr8nKeuKN0_o"
  },
  {
    "name": "Elizabeth's Bookshop",
    "address": "257 King St, Newtown NSW 2042, Australia",
    "suburb": "Newtown NSW 2042",
    "state": "NSW",
    "rating": 4.6,
    "reviews": 401,
    "lat": -33.8958168,
    "lng": 151.1806472,
    "place_id": "ChIJ89-iMDKwEmsRbdcEoQVfL88",
    "maps_url": "https://www.google.com/maps/place/?q=place_id:ChIJ89-iMDKwEmsRbdcEoQVfL88"
  },
  {
    "name": "Ampersand Cafe & Bookstore.",
    "address": "78 Oxford St, Paddington NSW 2021, Australia",
    "suburb": "Paddington NSW 2021",
    "state": "NSW",
    "rating": 4.1,
    "reviews": 987,
    "lat": -33.8831036,
    "lng": 151.2209812,
    "place_id": "ChIJH2wnkLRQkWsR5F11rOyftmY",
    "maps_url": "https://www.google.com/maps/place/?q=place_id:ChIJH2wnkLRQkWsR5F11rOyftmY"
  },
  {
    "name": "Potts Point Bookshop",
    "address": "14 Macleay St, Elizabeth Bay NSW 2011, Australia",
    "suburb": "Elizabeth Bay NSW 2011",
    "state": "NSW",
    "rating": 4.6,
    "reviews": 129,
    "lat": -33.8689105,
    "lng": 151.225898,
    "place_id": "ChIJAadYxnOuEmsRd0cSq1d9NoM",
    "maps_url": "https://www.google.com/maps/place/?q=place_id:ChIJAadYxnOuEmsRd0cSq1d9NoM"
  },
  {
    "name": "Gleebooks",
    "address": "49 Glebe Point Rd, Glebe NSW 2037, Australia",
    "suburb": "Glebe NSW 2037",
    "state": "NSW",
    "rating": 4.6,
    "reviews": 416,
    "lat": -33.8832459,
    "lng": 151.1914893,
    "place_id": "ChIJ0wcDPyquEmsRmrC5GpQnpc0",
    "maps_url": "https://www.google.com/maps/place/?q=place_id:ChIJ0wcDPyquEmsRmrC5GpQnpc0"
  },
  {
    "name": "Ariel Booksellers",
    "address": "326 Oxford St, Paddington NSW 2021, Australia",
    "suburb": "Paddington NSW 2021",
    "state": "NSW",
    "rating": 4.8,
    "reviews": 190,
    "lat": -33.8857576,
    "lng": 151.2288321,
    "place_id": "ChIJB3XHmRquEmsR6Cx9TDI4w-A",
    "maps_url": "https://www.google.com/maps/place/?q=place_id:ChIJB3XHmRquEmsR6Cx9TDI4w-A"
  },
  {
    "name": "Kings Comics",
    "address": "283 Clarence St, Sydney NSW 2000, Australia",
    "suburb": "Sydney NSW 2000",
    "state": "NSW",
    "rating": 4.7,
    "reviews": 1046,
    "lat": -33.8725112,
    "lng": 151.2054874,
    "place_id": "ChIJVVVVVTyuEmsRU37vfBGx4HQ",
    "maps_url": "https://www.google.com/maps/place/?q=place_id:ChIJVVVVVTyuEmsRU37vfBGx4HQ"
  },
  {
    "name": "TITLE Store Barangaroo",
    "address": "400 Barangaroo Ave, Barangaroo NSW 2000, Australia",
    "suburb": "Barangaroo NSW 2000",
    "state": "NSW",
    "rating": 4.2,
    "reviews": 205,
    "lat": -33.8655755,
    "lng": 151.2020596,
    "place_id": "ChIJx8W0DEeuEmsR52ERb41iaO0",
    "maps_url": "https://www.google.com/maps/place/?q=place_id:ChIJx8W0DEeuEmsR52ERb41iaO0"
  },
  {
    "name": "Roaring Stories Bookshop",
    "address": "268 Darling St, Balmain NSW 2041, Australia",
    "suburb": "Balmain NSW 2041",
    "state": "NSW",
    "rating": 4.8,
    "reviews": 28,
    "lat": -33.8578441,
    "lng": 151.1817886,
    "place_id": "ChIJ51AR8kqvEmsRjqE7pMuSyQM",
    "maps_url": "https://www.google.com/maps/place/?q=place_id:ChIJ51AR8kqvEmsRjqE7pMuSyQM"
  },
  {
    "name": "Gould's Books",
    "address": "536 King St, Newtown NSW 2042, Australia",
    "suburb": "Newtown NSW 2042",
    "state": "NSW",
    "rating": 4.4,
    "reviews": 279,
    "lat": -33.902881,
    "lng": 151.1796393,
    "place_id": "ChIJEcvjSy2wEmsRb3RSfBP8nh4",
    "maps_url": "https://www.google.com/maps/place/?q=place_id:ChIJEcvjSy2wEmsRb3RSfBP8nh4"
  },
  {
    "name": "The Library Shop",
    "address": "State Library of NSW, 1 Shakespeare Pl, Sydney NSW 2000, Australia",
    "suburb": "1 Shakespeare Pl",
    "state": "NSW",
    "rating": 4.4,
    "reviews": 30,
    "lat": -33.8668205,
    "lng": 151.2129383,
    "place_id": "ChIJ-zNYUWquEmsRgY9-CkXmKDg",
    "maps_url": "https://www.google.com/maps/place/?q=place_id:ChIJ-zNYUWquEmsRgY9-CkXmKDg"
  },
  {
    "name": "Pauline Book Centre",
    "address": "150 Castlereagh St, Sydney NSW 2000, Australia",
    "suburb": "Sydney NSW 2000",
    "state": "NSW",
    "rating": 4.7,
    "reviews": 63,
    "lat": -33.8719016,
    "lng": 151.2094762,
    "place_id": "ChIJdUJLJT6uEmsRCXVgn_lEIDw",
    "maps_url": "https://www.google.com/maps/place/?q=place_id:ChIJdUJLJT6uEmsRCXVgn_lEIDw"
  },
  {
    "name": "Rudolf Steiner Book Centre",
    "address": "307 Sussex St, Sydney NSW 2000, Australia",
    "suburb": "Sydney NSW 2000",
    "state": "NSW",
    "rating": 4.8,
    "reviews": 19,
    "lat": -33.8747568,
    "lng": 151.2042117,
    "place_id": "ChIJgZsGhzuuEmsRJaOE4cHEQaE",
    "maps_url": "https://www.google.com/maps/place/?q=place_id:ChIJgZsGhzuuEmsRJaOE4cHEQaE"
  },
  {
    "name": "Dymocks Parramatta",
    "address": "Shop 2164 / 2165/159-175 Church St, Parramatta NSW 2150, Australia",
    "suburb": "Parramatta NSW 2150",
    "state": "NSW",
    "rating": 4.3,
    "reviews": 724,
    "lat": -33.817331,
    "lng": 151.0030749,
    "place_id": "ChIJ_euajCCjEmsR2stkeyGlU3Q",
    "maps_url": "https://www.google.com/maps/place/?q=place_id:ChIJ_euajCCjEmsR2stkeyGlU3Q"
  },
  {
    "name": "QBD Books Parramatta",
    "address": "Westfield Parramatta, Shop 4073/159-175 Church St, Parramatta NSW 2150, Australia",
    "suburb": "Shop 4073/159-175 Church St",
    "state": "NSW",
    "rating": 4.5,
    "reviews": 174,
    "lat": -33.8175723,
    "lng": 151.00327,
    "place_id": "ChIJ8RYRph-jEmsRquQrycPsPOY",
    "maps_url": "https://www.google.com/maps/place/?q=place_id:ChIJ8RYRph-jEmsRquQrycPsPOY"
  },
  {
    "name": "Book Grocer",
    "address": "200 Hunter St, Newcastle NSW 2300, Australia",
    "suburb": "Newcastle NSW 2300",
    "state": "NSW",
    "rating": 4.6,
    "reviews": 123,
    "lat": -32.9265179,
    "lng": 151.7795257,
    "place_id": "ChIJk_fgV2QUc2sRNPxPxgsOHWA",
    "maps_url": "https://www.google.com/maps/place/?q=place_id:ChIJk_fgV2QUc2sRNPxPxgsOHWA"
  },
  {
    "name": "Betty Loves Books",
    "address": "The Station, Shop 1a/110 Scott St, Newcastle NSW 2300, Australia",
    "suburb": "Shop 1a/110 Scott St",
    "state": "NSW",
    "rating": 4.9,
    "reviews": 39,
    "lat": -32.9268939,
    "lng": 151.7844796,
    "place_id": "ChIJj1SBhK_7sYIRypUqabMyr3A",
    "maps_url": "https://www.google.com/maps/place/?q=place_id:ChIJj1SBhK_7sYIRypUqabMyr3A"
  },
  {
    "name": "Cooks Hill Books & Records",
    "address": "72 Darby St, Cooks Hill NSW 2300, Australia",
    "suburb": "Cooks Hill NSW 2300",
    "state": "NSW",
    "rating": 4.9,
    "reviews": 151,
    "lat": -32.9300156,
    "lng": 151.7728698,
    "place_id": "ChIJp9HNWmgUc2sRdB7DraNLPTU",
    "maps_url": "https://www.google.com/maps/place/?q=place_id:ChIJp9HNWmgUc2sRdB7DraNLPTU"
  },
  {
    "name": "MacLean's Booksellers",
    "address": "69 Beaumont St, Hamilton NSW 2303, Australia",
    "suburb": "Hamilton NSW 2303",
    "state": "NSW",
    "rating": 4.8,
    "reviews": 126,
    "lat": -32.9213456,
    "lng": 151.7475404,
    "place_id": "ChIJ19eWrVIUc2sRwWSIDQl5R9k",
    "maps_url": "https://www.google.com/maps/place/?q=place_id:ChIJ19eWrVIUc2sRwWSIDQl5R9k"
  },
  {
    "name": "The Press Book House",
    "address": "462 Hunter St, Newcastle NSW 2300, Australia",
    "suburb": "Newcastle NSW 2300",
    "state": "NSW",
    "rating": 4.7,
    "reviews": 474,
    "lat": -32.9269795,
    "lng": 151.7708978,
    "place_id": "ChIJw46p92cUc2sRrpHcUrCXBQs",
    "maps_url": "https://www.google.com/maps/place/?q=place_id:ChIJw46p92cUc2sRrpHcUrCXBQs"
  },
  {
    "name": "Harry Hartog Kotara",
    "address": "Westfield Kotara Shop, FH3/75 Park Ave, Kotara NSW 2289, Australia",
    "suburb": "FH3/75 Park Ave",
    "state": "NSW",
    "rating": 4.5,
    "reviews": 326,
    "lat": -32.9428948,
    "lng": 151.7117343,
    "place_id": "ChIJSwaPIv0Vc2sRM14yUHh3BH8",
    "maps_url": "https://www.google.com/maps/place/?q=place_id:ChIJSwaPIv0Vc2sRM14yUHh3BH8"
  },
  {
    "name": "Qs Books",
    "address": "115 Beaumont St, Hamilton NSW 2303, Australia",
    "suburb": "Hamilton NSW 2303",
    "state": "NSW",
    "rating": 4.6,
    "reviews": 95,
    "lat": -32.9234715,
    "lng": 151.7471105,
    "place_id": "ChIJwRh8zLIVc2sRHGV33g2inhg",
    "maps_url": "https://www.google.com/maps/place/?q=place_id:ChIJwRh8zLIVc2sRHGV33g2inhg"
  },
  {
    "name": "Rices Bookshop",
    "address": "96 Beaumont St, Hamilton NSW 2303, Australia",
    "suburb": "Hamilton NSW 2303",
    "state": "NSW",
    "rating": 4.1,
    "reviews": 77,
    "lat": -32.9222882,
    "lng": 151.7469871,
    "place_id": "ChIJ9eJNJ0UUc2sRNsRbepaJTms",
    "maps_url": "https://www.google.com/maps/place/?q=place_id:ChIJ9eJNJ0UUc2sRNsRbepaJTms"
  },
  {
    "name": "QBD Books Charlestown",
    "address": "Square Shopping Centre, Shop L01/1056 Pearson St, Charlestown NSW 2290, Australia",
    "suburb": "Shop L01/1056 Pearson St",
    "state": "NSW",
    "rating": 4.3,
    "reviews": 123,
    "lat": -32.9635571,
    "lng": 151.6941459,
    "place_id": "ChIJw3ZJf4s9c2sRmDV52FXq3UQ",
    "maps_url": "https://www.google.com/maps/place/?q=place_id:ChIJw3ZJf4s9c2sRmDV52FXq3UQ"
  },
  {
    "name": "QBD Books Kotara",
    "address": "Shop 2142 Northcott Dr, Kotara NSW 2289, Australia",
    "suburb": "Kotara NSW 2289",
    "state": "NSW",
    "rating": 4.5,
    "reviews": 85,
    "lat": -32.94096,
    "lng": 151.710626,
    "place_id": "ChIJC6vqTfsVc2sRIKw_Q2ka5bk",
    "maps_url": "https://www.google.com/maps/place/?q=place_id:ChIJC6vqTfsVc2sRIKw_Q2ka5bk"
  },
  {
    "name": "The Book Buff",
    "address": "100 Belford St, Broadmeadow NSW 2292, Australia",
    "suburb": "Broadmeadow NSW 2292",
    "state": "NSW",
    "rating": 4.4,
    "reviews": 17,
    "lat": -32.9240234,
    "lng": 151.7380008,
    "place_id": "ChIJr4_52rAVc2sR-kren3o8AyU",
    "maps_url": "https://www.google.com/maps/place/?q=place_id:ChIJr4_52rAVc2sR-kren3o8AyU"
  },
  {
    "name": "Koorong Warners Bay",
    "address": "4/10-16 Medcalf St, Warners Bay NSW 2282, Australia",
    "suburb": "Warners Bay NSW 2282",
    "state": "NSW",
    "rating": 4.6,
    "reviews": 333,
    "lat": -32.9671936,
    "lng": 151.6507873,
    "place_id": "ChIJaUy-Wz08c2sRXOxGiqmYflg",
    "maps_url": "https://www.google.com/maps/place/?q=place_id:ChIJaUy-Wz08c2sRXOxGiqmYflg"
  },
  {
    "name": "Harry Hartog Green Hills",
    "address": "Shop 2020/1 Molly Morgan Dr, East Maitland NSW 2323, Australia",
    "suburb": "East Maitland NSW 2323",
    "state": "NSW",
    "rating": 4.5,
    "reviews": 249,
    "lat": -32.7619752,
    "lng": 151.591917,
    "place_id": "ChIJbfStqbtGc2sRNR2-ghk_zsk",
    "maps_url": "https://www.google.com/maps/place/?q=place_id:ChIJbfStqbtGc2sRNR2-ghk_zsk"
  },
  {
    "name": "Paper Caravan",
    "address": "Unit 3/850 Hunter St, Newcastle West NSW 2302, Australia",
    "suburb": "Newcastle West NSW 2302",
    "state": "NSW",
    "rating": 4.9,
    "reviews": 29,
    "lat": -32.9247591,
    "lng": 151.7590159,
    "place_id": "ChIJk8bdcjUVc2sRw3hYkG03EvE",
    "maps_url": "https://www.google.com/maps/place/?q=place_id:ChIJk8bdcjUVc2sRw3hYkG03EvE"
  },
  {
    "name": "Rezourced",
    "address": "Building S, Clyde St, Tighes Hill NSW 2297, Australia",
    "suburb": "Clyde St",
    "state": "NSW",
    "rating": 5,
    "reviews": 1,
    "lat": -32.9090958,
    "lng": 151.7440911,
    "place_id": "ChIJX2ObWSQVc2sRzqq-qfA2R5M",
    "maps_url": "https://www.google.com/maps/place/?q=place_id:ChIJX2ObWSQVc2sRzqq-qfA2R5M"
  },
  {
    "name": "Australian Pathak",
    "address": "17 High St, New Lambton NSW 2305, Australia",
    "suburb": "New Lambton NSW 2305",
    "state": "NSW",
    "rating": 5,
    "reviews": 2,
    "lat": -32.9278743,
    "lng": 151.7098839,
    "place_id": "ChIJ_bIJ1wAVc2sRbx4GgnAD0BE",
    "maps_url": "https://www.google.com/maps/place/?q=place_id:ChIJ_bIJ1wAVc2sRbx4GgnAD0BE"
  },
  {
    "name": "QBD Books Erina Fair",
    "address": "620 - 658 Terrigal Drive, Shop T078A, Erina Fair Shopping Centre, Erina NSW 2250, Australia",
    "suburb": "Shop T078A",
    "state": "NSW",
    "rating": 4.4,
    "reviews": 433,
    "lat": -33.4380395,
    "lng": 151.3947675,
    "place_id": "ChIJx9JkjXPKcmsRo61xiw4AqXM",
    "maps_url": "https://www.google.com/maps/place/?q=place_id:ChIJx9JkjXPKcmsRo61xiw4AqXM"
  },
  {
    "name": "Umina Beach Book Nook",
    "address": "294 West St, Umina Beach NSW 2257, Australia",
    "suburb": "Umina Beach NSW 2257",
    "state": "NSW",
    "rating": 4.9,
    "reviews": 144,
    "lat": -33.5216454,
    "lng": 151.3190398,
    "place_id": "ChIJCd5I37BMDWsRvrn3SeVsKZo",
    "maps_url": "https://www.google.com/maps/place/?q=place_id:ChIJCd5I37BMDWsRvrn3SeVsKZo"
  },
  {
    "name": "Khaki & Green Books",
    "address": "2 Kalaroo Rd, Redhead NSW 2290, Australia",
    "suburb": "Redhead NSW 2290",
    "state": "NSW",
    "rating": 2,
    "reviews": 1,
    "lat": -33.0113653,
    "lng": 151.7059542,
    "place_id": "ChIJsZNLJZHz-osRxKchqHAC6X4",
    "maps_url": "https://www.google.com/maps/place/?q=place_id:ChIJsZNLJZHz-osRxKchqHAC6X4"
  },
  {
    "name": "Newcastle (City) Library",
    "address": "Laman St, Newcastle NSW 2300, Australia",
    "suburb": "Newcastle NSW 2300",
    "state": "NSW",
    "rating": 4.4,
    "reviews": 80,
    "lat": -32.9294061,
    "lng": 151.7724113,
    "place_id": "ChIJYTDgQWgUc2sRRom4Fh1t8YQ",
    "maps_url": "https://www.google.com/maps/place/?q=place_id:ChIJYTDgQWgUc2sRRom4Fh1t8YQ"
  },
  {
    "name": "Dymocks Wollongong",
    "address": "Wollongong Central, Shop S007, Ground Floor, 200 Crown St, Wollongong NSW 2500, Australia",
    "suburb": "Shop S007",
    "state": "NSW",
    "rating": 4.4,
    "reviews": 197,
    "lat": -34.4259341,
    "lng": 150.8931499,
    "place_id": "ChIJP_SUdKYZE2sR_cDQOdSkXQ0",
    "maps_url": "https://www.google.com/maps/place/?q=place_id:ChIJP_SUdKYZE2sR_cDQOdSkXQ0"
  },
  {
    "name": "QBD Books Wollongong",
    "address": "Shop W211 / 212/200 Crown St, Wollongong NSW 2500, Australia",
    "suburb": "Wollongong NSW 2500",
    "state": "NSW",
    "rating": 4.4,
    "reviews": 110,
    "lat": -34.4246687,
    "lng": 150.8941472,
    "place_id": "ChIJu9YIdaYZE2sRATcTPbZYLms",
    "maps_url": "https://www.google.com/maps/place/?q=place_id:ChIJu9YIdaYZE2sRATcTPbZYLms"
  },
  {
    "name": "Ever After- The Romance Book Specialists",
    "address": "RMB BUILDING, Unit 15b/110-114 Crown St, Wollongong NSW 2500, Australia",
    "suburb": "Unit 15b/110-114 Crown St",
    "state": "NSW",
    "rating": 5,
    "reviews": 8,
    "lat": -34.4250585,
    "lng": 150.8966544,
    "place_id": "ChIJu3UEqagZE2sREWsQScwgWZk",
    "maps_url": "https://www.google.com/maps/place/?q=place_id:ChIJu3UEqagZE2sREWsQScwgWZk"
  },
  {
    "name": "UOW UniShop",
    "address": "2 Northfields Ave, Keiraville NSW 2500, Australia",
    "suburb": "Keiraville NSW 2500",
    "state": "NSW",
    "rating": 4,
    "reviews": 117,
    "lat": -34.4075705,
    "lng": 150.8790808,
    "place_id": "ChIJL7MK-3AZE2sRzpY_n6vPMSs",
    "maps_url": "https://www.google.com/maps/place/?q=place_id:ChIJL7MK-3AZE2sRzpY_n6vPMSs"
  },
  {
    "name": "Society City",
    "address": "274-278 Crown St, Wollongong NSW 2500, Australia",
    "suburb": "Wollongong NSW 2500",
    "state": "NSW",
    "rating": 4.7,
    "reviews": 23,
    "lat": -34.4251245,
    "lng": 150.8910788,
    "place_id": "ChIJc-021tkZE2sRAhYZyn30-94",
    "maps_url": "https://www.google.com/maps/place/?q=place_id:ChIJc-021tkZE2sRAhYZyn30-94"
  },
  {
    "name": "The Bookshop Bowral",
    "address": "309 Bong Bong St, Bowral NSW 2576, Australia",
    "suburb": "Bowral NSW 2576",
    "state": "NSW",
    "rating": 4.6,
    "reviews": 121,
    "lat": -34.47929,
    "lng": 150.417606,
    "place_id": "ChIJzTyjsb-iE2sRiRm5tUTF6tc",
    "maps_url": "https://www.google.com/maps/place/?q=place_id:ChIJzTyjsb-iE2sRiRm5tUTF6tc"
  },
  {
    "name": "Collins Booksellers Thirroul",
    "address": "5/264 Lawrence Hargrave Dr, Thirroul NSW 2515, Australia",
    "suburb": "Thirroul NSW 2515",
    "state": "NSW",
    "rating": 4.8,
    "reviews": 84,
    "lat": -34.3148681,
    "lng": 150.9228678,
    "place_id": "ChIJickdkt8fE2sRIyew7iFyn7w",
    "maps_url": "https://www.google.com/maps/place/?q=place_id:ChIJickdkt8fE2sRIyew7iFyn7w"
  },
  {
    "name": "The Bookshop Kiama",
    "address": "64 Terralong St, Kiama NSW 2533, Australia",
    "suburb": "Kiama NSW 2533",
    "state": "NSW",
    "rating": 3.9,
    "reviews": 39,
    "lat": -34.6704251,
    "lng": 150.8542175,
    "place_id": "ChIJgxhknXNsE2sRGAPMr89iwhM",
    "maps_url": "https://www.google.com/maps/place/?q=place_id:ChIJgxhknXNsE2sRGAPMr89iwhM"
  },
  {
    "name": "Next Chapter",
    "address": "8 Kenny St, Wollongong NSW 2500, Australia",
    "suburb": "Wollongong NSW 2500",
    "state": "NSW",
    "rating": null,
    "reviews": 0,
    "lat": -34.426668,
    "lng": 150.891518,
    "place_id": "ChIJCTnEdkYZE2sRnzoIDtgUGRs",
    "maps_url": "https://www.google.com/maps/place/?q=place_id:ChIJCTnEdkYZE2sRnzoIDtgUGRs"
  },
  {
    "name": "QBD Books Shellharbour",
    "address": "Stockland Shellharbour, Lake Entrance Rd, Shellharbour City Centre NSW 2529, Australia",
    "suburb": "Lake Entrance Rd",
    "state": "NSW",
    "rating": 4.5,
    "reviews": 127,
    "lat": -34.5639476,
    "lng": 150.8388356,
    "place_id": "ChIJIZneFJ8TE2sRjkat8kn2kho",
    "maps_url": "https://www.google.com/maps/place/?q=place_id:ChIJIZneFJ8TE2sRjkat8kn2kho"
  },
  {
    "name": "Jennie's Book Nook",
    "address": "6/106 Terralong St, Kiama NSW 2533, Australia",
    "suburb": "Kiama NSW 2533",
    "state": "NSW",
    "rating": 4.9,
    "reviews": 39,
    "lat": -34.669659,
    "lng": 150.852815,
    "place_id": "ChIJ91cwr3NsE2sR8bgdtGg6LNU",
    "maps_url": "https://www.google.com/maps/place/?q=place_id:ChIJ91cwr3NsE2sR8bgdtGg6LNU"
  },
  {
    "name": "The Best Little Bookshop In Town",
    "address": "97 Cronulla St, Cronulla NSW 2230, Australia",
    "suburb": "Cronulla NSW 2230",
    "state": "NSW",
    "rating": 4.2,
    "reviews": 91,
    "lat": -34.0545969,
    "lng": 151.1518398,
    "place_id": "ChIJc8bVeRLIEmsRWdo4gfs9c4w",
    "maps_url": "https://www.google.com/maps/place/?q=place_id:ChIJc8bVeRLIEmsRWdo4gfs9c4w"
  },
  {
    "name": "UOW Used Books/The Alumni Bookshop- Main Campus",
    "address": "Northfields Ave, North Wollongong NSW 2500, Australia",
    "suburb": "North Wollongong NSW 2500",
    "state": "NSW",
    "rating": null,
    "reviews": 0,
    "lat": -34.406297,
    "lng": 150.8797065,
    "place_id": "ChIJYzOk82gZE2sRkU-H_6_ibNw",
    "maps_url": "https://www.google.com/maps/place/?q=place_id:ChIJYzOk82gZE2sRkU-H_6_ibNw"
  },
  {
    "name": "Manna Bookstore",
    "address": "500 Shellharbour Rd, Shellharbour NSW 2529, Australia",
    "suburb": "Shellharbour NSW 2529",
    "state": "NSW",
    "rating": 4.9,
    "reviews": 13,
    "lat": -34.5792236,
    "lng": 150.8614959,
    "place_id": "ChIJi7FSBYIUE2sRG3N9k2ToeDE",
    "maps_url": "https://www.google.com/maps/place/?q=place_id:ChIJi7FSBYIUE2sRG3N9k2ToeDE"
  },
  {
    "name": "Textbook Agency",
    "address": "10 Lismore St, Bellambi NSW 2518, Australia",
    "suburb": "Bellambi NSW 2518",
    "state": "NSW",
    "rating": 5,
    "reviews": 2,
    "lat": -34.3657417,
    "lng": 150.9109922,
    "place_id": "ChIJJ63-jITHEmsRrmiLPOm17aI",
    "maps_url": "https://www.google.com/maps/place/?q=place_id:ChIJJ63-jITHEmsRrmiLPOm17aI"
  },
  {
    "name": "Lions Club Book Store",
    "address": "59A Central Ave, Oak Flats NSW 2529, Australia",
    "suburb": "Oak Flats NSW 2529",
    "state": "NSW",
    "rating": 4.6,
    "reviews": 11,
    "lat": -34.5643996,
    "lng": 150.8188808,
    "place_id": "ChIJm0o0vAkUE2sR7EAM19627jQ",
    "maps_url": "https://www.google.com/maps/place/?q=place_id:ChIJm0o0vAkUE2sR7EAM19627jQ"
  },
  {
    "name": "THE HERB SHOP",
    "address": "2/335 Crown St, Wollongong NSW 2500, Australia",
    "suburb": "Wollongong NSW 2500",
    "state": "NSW",
    "rating": 5,
    "reviews": 35,
    "lat": -34.4260076,
    "lng": 150.8887386,
    "place_id": "ChIJ36RYAgQZE2sRFXihxmOMjaE",
    "maps_url": "https://www.google.com/maps/place/?q=place_id:ChIJ36RYAgQZE2sRFXihxmOMjaE"
  },
  {
    "name": "The Phoenix Bookstore",
    "address": "Lamond Ln, Bowral NSW 2576, Australia",
    "suburb": "Bowral NSW 2576",
    "state": "NSW",
    "rating": 4.1,
    "reviews": 27,
    "lat": -34.4785031,
    "lng": 150.4188311,
    "place_id": "ChIJceJVfC-jE2sRjKixvIjIkdM",
    "maps_url": "https://www.google.com/maps/place/?q=place_id:ChIJceJVfC-jE2sRjKixvIjIkdM"
  },
  {
    "name": "Lifeline South Coast - Book Sorting & Book Donations",
    "address": "19 Auburn St, Wollongong NSW 2500, Australia",
    "suburb": "Wollongong NSW 2500",
    "state": "NSW",
    "rating": 4.2,
    "reviews": 6,
    "lat": -34.4279718,
    "lng": 150.8896964,
    "place_id": "ChIJhYlSMdQRE2sRA12i2ghhwpU",
    "maps_url": "https://www.google.com/maps/place/?q=place_id:ChIJhYlSMdQRE2sRA12i2ghhwpU"
  },
  {
    "name": "UOW Alumni Secondhand Bookshop",
    "address": "Squires Way, North Wollongong NSW 2500, Australia",
    "suburb": "North Wollongong NSW 2500",
    "state": "NSW",
    "rating": null,
    "reviews": 0,
    "lat": -34.3975246,
    "lng": 150.8994839,
    "place_id": "ChIJ5RPVLSMZE2sRE2wfZNCMNw8",
    "maps_url": "https://www.google.com/maps/place/?q=place_id:ChIJ5RPVLSMZE2sRE2wfZNCMNw8"
  },
  {
    "name": "Coast Book Exchange",
    "address": "Shop 4/153 Mann St, Gosford NSW 2250, Australia",
    "suburb": "Gosford NSW 2250",
    "state": "NSW",
    "rating": 4.6,
    "reviews": 55,
    "lat": -33.425824,
    "lng": 151.342549,
    "place_id": "ChIJFxJemabKcmsRnVbwFw-H8KE",
    "maps_url": "https://www.google.com/maps/place/?q=place_id:ChIJFxJemabKcmsRnVbwFw-H8KE"
  },
  {
    "name": "QBD Books Tuggerah",
    "address": "Shop 1140/1, Westfield Tuggerah Corner Wyong Road and, Gavenlock Rd, Tuggerah NSW 2259, Australia",
    "suburb": "Westfield Tuggerah Corner Wyong Road and",
    "state": "NSW",
    "rating": 4.5,
    "reviews": 334,
    "lat": -33.3078543,
    "lng": 151.4105544,
    "place_id": "ChIJTQTP1d3NcmsR3C42xf6Cfq4",
    "maps_url": "https://www.google.com/maps/place/?q=place_id:ChIJTQTP1d3NcmsR3C42xf6Cfq4"
  },
  {
    "name": "Coast Books & Records",
    "address": "shop 10-13, 7/9 The Boulevarde, Woy Woy NSW 2256, Australia",
    "suburb": "7/9 The Boulevarde",
    "state": "NSW",
    "rating": 4.5,
    "reviews": 74,
    "lat": -33.4844928,
    "lng": 151.3244187,
    "place_id": "ChIJCZ9nDjVLDWsRAHiWEyStnoc",
    "maps_url": "https://www.google.com/maps/place/?q=place_id:ChIJCZ9nDjVLDWsRAHiWEyStnoc"
  },
  {
    "name": "BOOK FACE",
    "address": "KM 006, Terrigal Dr, Erina NSW 2250, Australia",
    "suburb": "Terrigal Dr",
    "state": "NSW",
    "rating": 4.4,
    "reviews": 121,
    "lat": -33.437796,
    "lng": 151.3916054,
    "place_id": "ChIJD7oIB3TKcmsRC5Elp-MJVCA",
    "maps_url": "https://www.google.com/maps/place/?q=place_id:ChIJD7oIB3TKcmsRC5Elp-MJVCA"
  },
  {
    "name": "Ink & Ivy Bookstore",
    "address": "Shop 6/36 Alison Rd, Wyong NSW 2259, Australia",
    "suburb": "Wyong NSW 2259",
    "state": "NSW",
    "rating": 5,
    "reviews": 3,
    "lat": -33.2829976,
    "lng": 151.4221896,
    "place_id": "ChIJMy89A9y54K0RTObAtolPVBg",
    "maps_url": "https://www.google.com/maps/place/?q=place_id:ChIJMy89A9y54K0RTObAtolPVBg"
  },
  {
    "name": "Scholastic Australia",
    "address": "76 - 80 Railway Cres, Lisarow NSW 2250, Australia",
    "suburb": "Lisarow NSW 2250",
    "state": "NSW",
    "rating": 4.5,
    "reviews": 39,
    "lat": -33.3820811,
    "lng": 151.3661714,
    "place_id": "ChIJjfuf5A7LcmsRd0uSN0ThL0U",
    "maps_url": "https://www.google.com/maps/place/?q=place_id:ChIJjfuf5A7LcmsRd0uSN0ThL0U"
  },
  {
    "name": "The Scholastic Store",
    "address": "Niagara Park Shopping Centre, Shop 11, 16 Washington Ave, Niagara Park NSW 2250, Australia",
    "suburb": "Shop 11",
    "state": "NSW",
    "rating": 4.7,
    "reviews": 3,
    "lat": -33.3827929,
    "lng": 151.3525058,
    "place_id": "ChIJdZ6NNXzLcmsRRhd9aIfyuZE",
    "maps_url": "https://www.google.com/maps/place/?q=place_id:ChIJdZ6NNXzLcmsRRhd9aIfyuZE"
  },
  {
    "name": "Berkelouw Mona Vale",
    "address": "12-14 Park St, Mona Vale NSW 2013, Australia",
    "suburb": "Mona Vale NSW 2013",
    "state": "NSW",
    "rating": 4.7,
    "reviews": 70,
    "lat": -33.6760253,
    "lng": 151.3046568,
    "place_id": "ChIJ_SfBk6JUDWsRfxQNzkSjyJg",
    "maps_url": "https://www.google.com/maps/place/?q=place_id:ChIJ_SfBk6JUDWsRfxQNzkSjyJg"
  },
  {
    "name": "Bookoccino",
    "address": "66 Old Barrenjoey Rd, Avalon Beach NSW 2107, Australia",
    "suburb": "Avalon Beach NSW 2107",
    "state": "NSW",
    "rating": 4.6,
    "reviews": 168,
    "lat": -33.6370939,
    "lng": 151.3293447,
    "place_id": "ChIJtZ8LkdSscmsRGgV2gGO-hZk",
    "maps_url": "https://www.google.com/maps/place/?q=place_id:ChIJtZ8LkdSscmsRGgV2gGO-hZk"
  },
  {
    "name": "Better Books & Food",
    "address": "588 Freemans Dr, Cooranbong NSW 2265, Australia",
    "suburb": "Cooranbong NSW 2265",
    "state": "NSW",
    "rating": 4.5,
    "reviews": 101,
    "lat": -33.076666,
    "lng": 151.4547504,
    "place_id": "ChIJkeibDhApc2sRS6AP5Gwm9FM",
    "maps_url": "https://www.google.com/maps/place/?q=place_id:ChIJkeibDhApc2sRS6AP5Gwm9FM"
  },
  {
    "name": "Ruby's Cafe & Books",
    "address": "322 West St, Umina Beach NSW 2257, Australia",
    "suburb": "Umina Beach NSW 2257",
    "state": "NSW",
    "rating": 4.5,
    "reviews": 386,
    "lat": -33.5214669,
    "lng": 151.3183571,
    "place_id": "ChIJoZJlJrFMDWsRddaikiceLe4",
    "maps_url": "https://www.google.com/maps/place/?q=place_id:ChIJoZJlJrFMDWsRddaikiceLe4"
  },
  {
    "name": "The Bookplate",
    "address": "173 Peats Ferry Rd, Hornsby NSW 2077, Australia",
    "suburb": "Hornsby NSW 2077",
    "state": "NSW",
    "rating": 4.6,
    "reviews": 111,
    "lat": -33.7032064,
    "lng": 151.0973204,
    "place_id": "ChIJNUxbyoOnEmsRd5ADSiDLXl8",
    "maps_url": "https://www.google.com/maps/place/?q=place_id:ChIJNUxbyoOnEmsRd5ADSiDLXl8"
  },
  {
    "name": "Books & Beyond",
    "address": "Burns Rd, Ourimbah NSW 2252, Australia",
    "suburb": "Ourimbah NSW 2252",
    "state": "NSW",
    "rating": null,
    "reviews": 0,
    "lat": -33.34704809999999,
    "lng": 151.3752097,
    "place_id": "ChIJiUhYxFDNcmsR_mSFjS3w-Hw",
    "maps_url": "https://www.google.com/maps/place/?q=place_id:ChIJiUhYxFDNcmsR_mSFjS3w-Hw"
  },
  {
    "name": "Dog Eared Books",
    "address": "2/7 Hillcrest Rd, Pennant Hills NSW 2120, Australia",
    "suburb": "Pennant Hills NSW 2120",
    "state": "NSW",
    "rating": 4.7,
    "reviews": 68,
    "lat": -33.738164,
    "lng": 151.0701244,
    "place_id": "ChIJO7Nlht2mEmsRZsZ-G0ie8ng",
    "maps_url": "https://www.google.com/maps/place/?q=place_id:ChIJO7Nlht2mEmsRZsZ-G0ie8ng"
  },
  {
    "name": "Tuggerah,New South Wales,Australia",
    "address": "50 Wyong Rd, Tuggerah NSW 2259, Australia",
    "suburb": "Tuggerah NSW 2259",
    "state": "NSW",
    "rating": null,
    "reviews": 0,
    "lat": -33.3084109,
    "lng": 151.4121777,
    "place_id": "ChIJw3kOJADNcmsRX_-n_L06eSY",
    "maps_url": "https://www.google.com/maps/place/?q=place_id:ChIJw3kOJADNcmsRX_-n_L06eSY"
  },
  {
    "name": "Verse / Halfback Books & Records Dee Why",
    "address": "Suite 1/8-12 Pacific Parade, Dee Why NSW 2099, Australia",
    "suburb": "Dee Why NSW 2099",
    "state": "NSW",
    "rating": 4.8,
    "reviews": 42,
    "lat": -33.7543443,
    "lng": 151.2851757,
    "place_id": "ChIJc2_aGoaqEmsRYN_yCuG7Gw8",
    "maps_url": "https://www.google.com/maps/place/?q=place_id:ChIJc2_aGoaqEmsRYN_yCuG7Gw8"
  },
  {
    "name": "Central Coast Book Exchange",
    "address": "9 The Boulevarde, Blackwall NSW 2256, Australia",
    "suburb": "Blackwall NSW 2256",
    "state": "NSW",
    "rating": null,
    "reviews": 0,
    "lat": -33.4846961,
    "lng": 151.3244385,
    "place_id": "ChIJqdLR-zRLDWsRh9PR1yBKZu0",
    "maps_url": "https://www.google.com/maps/place/?q=place_id:ChIJqdLR-zRLDWsRh9PR1yBKZu0"
  },
  {
    "name": "Harry Hartog Penrith",
    "address": "378 High St, Penrith NSW 2750, Australia",
    "suburb": "Penrith NSW 2750",
    "state": "NSW",
    "rating": 4.5,
    "reviews": 299,
    "lat": -33.7540336,
    "lng": 150.6983622,
    "place_id": "ChIJRZHoKryFEmsR6K-7HmFhwHw",
    "maps_url": "https://www.google.com/maps/place/?q=place_id:ChIJRZHoKryFEmsR6K-7HmFhwHw"
  },
  {
    "name": "QBD Books Penrith",
    "address": "Shop 109/585 High St, Penrith NSW 2750, Australia",
    "suburb": "Penrith NSW 2750",
    "state": "NSW",
    "rating": 4.4,
    "reviews": 364,
    "lat": -33.7510911,
    "lng": 150.6917945,
    "place_id": "ChIJe2_gUvGFEmsRBvEHhag6c1M",
    "maps_url": "https://www.google.com/maps/place/?q=place_id:ChIJe2_gUvGFEmsRBvEHhag6c1M"
  },
  {
    "name": "Dymocks Penrith",
    "address": "Westfield Penrith, Shop 119, Level 1/585 High St, Penrith NSW 2750, Australia",
    "suburb": "Shop 119",
    "state": "NSW",
    "rating": 4.3,
    "reviews": 209,
    "lat": -33.7514068,
    "lng": 150.6946635,
    "place_id": "ChIJBxSwUouFEmsRYzv23uBUy2U",
    "maps_url": "https://www.google.com/maps/place/?q=place_id:ChIJBxSwUouFEmsRYzv23uBUy2U"
  },
  {
    "name": "Koorong Penrith",
    "address": "Henry Lawson Centre, Unit 3b/61-79 Henry St, Penrith NSW 2750, Australia",
    "suburb": "Unit 3b/61-79 Henry St",
    "state": "NSW",
    "rating": 4.7,
    "reviews": 666,
    "lat": -33.7525772,
    "lng": 150.7017694,
    "place_id": "ChIJw0jBYIyFEmsR3l1zdr7M8B8",
    "maps_url": "https://www.google.com/maps/place/?q=place_id:ChIJw0jBYIyFEmsR3l1zdr7M8B8"
  },
  {
    "name": "Elizabeth Arcade Books",
    "address": "79 Greendale Rd, Wallacia NSW 2745, Australia",
    "suburb": "Wallacia NSW 2745",
    "state": "NSW",
    "rating": 4.6,
    "reviews": 40,
    "lat": -33.8711559,
    "lng": 150.6407869,
    "place_id": "ChIJ0TDCovSFEmsR9fbLSZNWpdw",
    "maps_url": "https://www.google.com/maps/place/?q=place_id:ChIJ0TDCovSFEmsR9fbLSZNWpdw"
  },
  {
    "name": "The Turning Page Bookshop",
    "address": "Shop 1/125 Macquarie Rd, Springwood NSW 2777, Australia",
    "suburb": "Springwood NSW 2777",
    "state": "NSW",
    "rating": 4.8,
    "reviews": 103,
    "lat": -33.6990157,
    "lng": 150.5675961,
    "place_id": "ChIJL3khKGl9EmsRm49kbwAj1sM",
    "maps_url": "https://www.google.com/maps/place/?q=place_id:ChIJL3khKGl9EmsRm49kbwAj1sM"
  },
  {
    "name": "The Forbidden Spine",
    "address": "89 Great Western Hwy, Emu Plains NSW 2750, Australia",
    "suburb": "Emu Plains NSW 2750",
    "state": "NSW",
    "rating": 5,
    "reviews": 5,
    "lat": -33.7464928,
    "lng": 150.6740517,
    "place_id": "ChIJI1F5t62HEmsR6ZU0_bUojNE",
    "maps_url": "https://www.google.com/maps/place/?q=place_id:ChIJI1F5t62HEmsR6ZU0_bUojNE"
  },
  {
    "name": "Blue Dragon Books",
    "address": "Shop C/11 Ross St, Glenbrook NSW 2773, Australia",
    "suburb": "Glenbrook NSW 2773",
    "state": "NSW",
    "rating": 4.8,
    "reviews": 90,
    "lat": -33.7671925,
    "lng": 150.6217598,
    "place_id": "ChIJlSpmPFqIEmsR4MFr3XDTgRs",
    "maps_url": "https://www.google.com/maps/place/?q=place_id:ChIJlSpmPFqIEmsR4MFr3XDTgRs"
  },
  {
    "name": "Megalong Books",
    "address": "183 Leura Mall, Leura NSW 2780, Australia",
    "suburb": "Leura NSW 2780",
    "state": "NSW",
    "rating": 4.8,
    "reviews": 167,
    "lat": -33.7135822,
    "lng": 150.3307819,
    "place_id": "ChIJxUczkO1uEmsRVC1C9hX2snc",
    "maps_url": "https://www.google.com/maps/place/?q=place_id:ChIJxUczkO1uEmsRVC1C9hX2snc"
  },
  {
    "name": "Mr Pickwick's Fine Old Books",
    "address": "84 Katoomba St, Katoomba NSW 2780, Australia",
    "suburb": "Katoomba NSW 2780",
    "state": "NSW",
    "rating": 4.4,
    "reviews": 288,
    "lat": -33.7138988,
    "lng": 150.3119193,
    "place_id": "ChIJ31PacZluEmsRaMGr2yJrp4M",
    "maps_url": "https://www.google.com/maps/place/?q=place_id:ChIJ31PacZluEmsRaMGr2yJrp4M"
  },
  {
    "name": "Captain Comics and Collectibles",
    "address": "37 Lawson St, Penrith NSW 2750, Australia",
    "suburb": "Penrith NSW 2750",
    "state": "NSW",
    "rating": 4.3,
    "reviews": 38,
    "lat": -33.753786,
    "lng": 150.6999104,
    "place_id": "ChIJ7X3U2pWFEmsRXaZc3f-xl-E",
    "maps_url": "https://www.google.com/maps/place/?q=place_id:ChIJ7X3U2pWFEmsRXaZc3f-xl-E"
  },
  {
    "name": "Henry Lawson Centre",
    "address": "61-79 Henry St, Penrith NSW 2750, Australia",
    "suburb": "Penrith NSW 2750",
    "state": "NSW",
    "rating": 4.5,
    "reviews": 11,
    "lat": -33.75288889999999,
    "lng": 150.7018106,
    "place_id": "ChIJgRWa7dSFEmsRRBspulxCtwM",
    "maps_url": "https://www.google.com/maps/place/?q=place_id:ChIJgRWa7dSFEmsRRBspulxCtwM"
  },
  {
    "name": "Penrith City Library",
    "address": "601 High St, Penrith NSW 2750, Australia",
    "suburb": "Penrith NSW 2750",
    "state": "NSW",
    "rating": 4.8,
    "reviews": 74,
    "lat": -33.7502699,
    "lng": 150.6892147,
    "place_id": "ChIJa1Y2TlmFEmsRKK4yAbbKmvk",
    "maps_url": "https://www.google.com/maps/place/?q=place_id:ChIJa1Y2TlmFEmsRKK4yAbbKmvk"
  },
  {
    "name": "Westfield Penrith",
    "address": "585 High St, Penrith NSW 2750, Australia",
    "suburb": "Penrith NSW 2750",
    "state": "NSW",
    "rating": 4.3,
    "reviews": 8978,
    "lat": -33.7514526,
    "lng": 150.693523,
    "place_id": "ChIJ2aEGHvSFEmsReJIZRzg7TJM",
    "maps_url": "https://www.google.com/maps/place/?q=place_id:ChIJ2aEGHvSFEmsReJIZRzg7TJM"
  },
  {
    "name": "Funtasia the Adult Shop",
    "address": "25 Woodriff St, Penrith NSW 2750, Australia",
    "suburb": "Penrith NSW 2750",
    "state": "NSW",
    "rating": 4.9,
    "reviews": 60,
    "lat": -33.7540691,
    "lng": 150.697041,
    "place_id": "ChIJ_aqpuPSFEmsRC7L6UjlOGfg",
    "maps_url": "https://www.google.com/maps/place/?q=place_id:ChIJ_aqpuPSFEmsRC7L6UjlOGfg"
  },
  {
    "name": "The Cauldron of Wellbeing",
    "address": "Inside the Parker Arcade, 7/476 High St, Penrith NSW 2750, Australia",
    "suburb": "7/476 High St",
    "state": "NSW",
    "rating": 4.9,
    "reviews": 39,
    "lat": -33.7538077,
    "lng": 150.6958416,
    "place_id": "ChIJiexz4253hWsREevp_lNwDkg",
    "maps_url": "https://www.google.com/maps/place/?q=place_id:ChIJiexz4253hWsREevp_lNwDkg"
  },
  {
    "name": "The Antique Bookshop",
    "address": "1/328 Pacific Hwy, Crows Nest NSW 2065, Australia",
    "suburb": "Crows Nest NSW 2065",
    "state": "NSW",
    "rating": 4.8,
    "reviews": 21,
    "lat": -33.827285,
    "lng": 151.19991,
    "place_id": "ChIJs65EaOiuEmsRI5r_WM6v88o",
    "maps_url": "https://www.google.com/maps/place/?q=place_id:ChIJs65EaOiuEmsRI5r_WM6v88o"
  },
  {
    "name": "Inner Forest",
    "address": "483 High St, Penrith NSW 2750, Australia",
    "suburb": "Penrith NSW 2750",
    "state": "NSW",
    "rating": 3.9,
    "reviews": 98,
    "lat": -33.7531967,
    "lng": 150.6961212,
    "place_id": "ChIJZ03HkfSFEmsRVmJuZ_oAOPA",
    "maps_url": "https://www.google.com/maps/place/?q=place_id:ChIJZ03HkfSFEmsRVmJuZ_oAOPA"
  },
  {
    "name": "QBD Books Blacktown",
    "address": "Shop 3072/17 Patrick St, Blacktown NSW 2148, Australia",
    "suburb": "Blacktown NSW 2148",
    "state": "NSW",
    "rating": 4.5,
    "reviews": 349,
    "lat": -33.7706851,
    "lng": 150.9068981,
    "place_id": "ChIJ_____9vOsGoRRES4FdcoJ_M",
    "maps_url": "https://www.google.com/maps/place/?q=place_id:ChIJ_____9vOsGoRRES4FdcoJ_M"
  },
  {
    "name": "QBD Books Liverpool",
    "address": "Shop 127/120 Macquarie St, Liverpool NSW 2170, Australia",
    "suburb": "Liverpool NSW 2170",
    "state": "NSW",
    "rating": 4.3,
    "reviews": 256,
    "lat": -33.9197765,
    "lng": 150.9246685,
    "place_id": "ChIJ0fK6tbiVEmsRTYfxRcYh5Ck",
    "maps_url": "https://www.google.com/maps/place/?q=place_id:ChIJ0fK6tbiVEmsRTYfxRcYh5Ck"
  },
  {
    "name": "The Comic Shop Liverpool",
    "address": "10a/170 George St, Liverpool NSW 2170, Australia",
    "suburb": "Liverpool NSW 2170",
    "state": "NSW",
    "rating": 4.7,
    "reviews": 303,
    "lat": -33.9217845,
    "lng": 150.9253153,
    "place_id": "ChIJB-YP0b6VEmsR5ap1Tb9fSso",
    "maps_url": "https://www.google.com/maps/place/?q=place_id:ChIJB-YP0b6VEmsR5ap1Tb9fSso"
  },
  {
    "name": "Waterstones",
    "address": "12 College Ln, Liverpool L1 3DL, UK",
    "suburb": "Liverpool L1 3DL",
    "state": "NSW",
    "rating": 4.6,
    "reviews": 4468,
    "lat": 53.4037704,
    "lng": -2.9853157,
    "place_id": "ChIJIUiKZS8he0gR24OUAxMDBJo",
    "maps_url": "https://www.google.com/maps/place/?q=place_id:ChIJIUiKZS8he0gR24OUAxMDBJo"
  },
  {
    "name": "News From Nowhere Radical & Community Bookshop",
    "address": "1st Floor, 96 Bold St, Liverpool L1 4HY, UK",
    "suburb": "96 Bold St",
    "state": "NSW",
    "rating": 4.8,
    "reviews": 468,
    "lat": 53.4025964,
    "lng": -2.977496,
    "place_id": "ChIJ5_lYByQhe0gRNicqoszxd28",
    "maps_url": "https://www.google.com/maps/place/?q=place_id:ChIJ5_lYByQhe0gRNicqoszxd28"
  },
  {
    "name": "Henry Bohn Books",
    "address": "London Rd, Liverpool L3 5NF, UK",
    "suburb": "Liverpool L3 5NF",
    "state": "NSW",
    "rating": 4.7,
    "reviews": 228,
    "lat": 53.4092151,
    "lng": -2.9781247,
    "place_id": "ChIJLaCytxche0gR6M-2sBudoOQ",
    "maps_url": "https://www.google.com/maps/place/?q=place_id:ChIJLaCytxche0gR6M-2sBudoOQ"
  },
  {
    "name": "Aldous Books",
    "address": "The Bluecoat, School Ln, Liverpool L1 3BX, UK",
    "suburb": "School Ln",
    "state": "NSW",
    "rating": 4.9,
    "reviews": 27,
    "lat": 53.4042673,
    "lng": -2.9841253,
    "place_id": "ChIJlVJ99wAhe0gRQSJdCfBLeRk",
    "maps_url": "https://www.google.com/maps/place/?q=place_id:ChIJlVJ99wAhe0gRQSJdCfBLeRk"
  },
  {
    "name": "Reid of Liverpool",
    "address": "105 Mt Pleasant, Liverpool L3 5TB, UK",
    "suburb": "Liverpool L3 5TB",
    "state": "NSW",
    "rating": 4.8,
    "reviews": 86,
    "lat": 53.403976,
    "lng": -2.9722011,
    "place_id": "ChIJ84GXayIhe0gRJKxK6mFM95k",
    "maps_url": "https://www.google.com/maps/place/?q=place_id:ChIJ84GXayIhe0gRJKxK6mFM95k"
  },
  {
    "name": "Golden Bee Bookshop",
    "address": "324 1st St, Liverpool, NY 13088, USA",
    "suburb": "Liverpool",
    "state": "NSW",
    "rating": 4.8,
    "reviews": 127,
    "lat": 43.1022135,
    "lng": -76.20822570000001,
    "place_id": "ChIJHwpG2lfx2YkR6Kv7jxICt_g",
    "maps_url": "https://www.google.com/maps/place/?q=place_id:ChIJHwpG2lfx2YkR6Kv7jxICt_g"
  },
  {
    "name": "Pritchards Bookshop",
    "address": "Unit 3, Glenn Buildings, 17 Moor Ln, Crosby, Liverpool L23 2SE, UK",
    "suburb": "Glenn Buildings",
    "state": "NSW",
    "rating": 4.8,
    "reviews": 73,
    "lat": 53.49269040000001,
    "lng": -3.0248766,
    "place_id": "ChIJswX6Jo4ke0gRW8azyx5gcbc",
    "maps_url": "https://www.google.com/maps/place/?q=place_id:ChIJswX6Jo4ke0gRW8azyx5gcbc"
  },
  {
    "name": "Liverpool City Library",
    "address": "52 Scott St, Liverpool NSW 2170, Australia",
    "suburb": "Liverpool NSW 2170",
    "state": "NSW",
    "rating": 4.5,
    "reviews": 383,
    "lat": -33.9251401,
    "lng": 150.9234195,
    "place_id": "ChIJZ9O6076VEmsRmyAKJ5fQbwM",
    "maps_url": "https://www.google.com/maps/place/?q=place_id:ChIJZ9O6076VEmsRmyAKJ5fQbwM"
  },
  {
    "name": "Westfield Liverpool",
    "address": "Macquarie St, Liverpool NSW 2170, Australia",
    "suburb": "Liverpool NSW 2170",
    "state": "NSW",
    "rating": 4.2,
    "reviews": 11802,
    "lat": -33.9180354,
    "lng": 150.9242222,
    "place_id": "ChIJD21XvriVEmsRuplosG1AHNY",
    "maps_url": "https://www.google.com/maps/place/?q=place_id:ChIJD21XvriVEmsRuplosG1AHNY"
  },
  {
    "name": "Modern Times Bookshop",
    "address": "1/199-201 King St, Newtown NSW 2042, Australia",
    "suburb": "Newtown NSW 2042",
    "state": "NSW",
    "rating": 4.7,
    "reviews": 68,
    "lat": -33.8947739,
    "lng": 151.1819826,
    "place_id": "ChIJ56f4MDKwEmsRnRxjpY3kfFE",
    "maps_url": "https://www.google.com/maps/place/?q=place_id:ChIJ56f4MDKwEmsRnRxjpY3kfFE"
  },
  {
    "name": "The Reader Bookshop",
    "address": "Mansion House, Calderstones Mansion House, Calderstones Rd, Liverpool L18 3JB, UK",
    "suburb": "Calderstones Mansion House",
    "state": "NSW",
    "rating": 4.1,
    "reviews": 27,
    "lat": 53.381768,
    "lng": -2.8940586,
    "place_id": "ChIJqc6bDkMhe0gRaINTaSjWcJ4",
    "maps_url": "https://www.google.com/maps/place/?q=place_id:ChIJqc6bDkMhe0gRaINTaSjWcJ4"
  },
  {
    "name": "QuikStop MiniMart & News - Liverpool Public Hospital",
    "address": "Public Hospital, Shop 3 Ground Floor Goulburn St, Liverpool NSW 2170, Australia",
    "suburb": "Shop 3 Ground Floor Goulburn St",
    "state": "NSW",
    "rating": 4.1,
    "reviews": 13,
    "lat": -33.9202788,
    "lng": 150.93015,
    "place_id": "ChIJu0zmdIuVEmsRQ43Czp3AlD4",
    "maps_url": "https://www.google.com/maps/place/?q=place_id:ChIJu0zmdIuVEmsRQ43Czp3AlD4"
  },
  {
    "name": "Plaza Book & Music Exchange",
    "address": "Spotlight plaza, 147-157 Queen St, Campbelltown NSW 2560, Australia",
    "suburb": "147-157 Queen St",
    "state": "NSW",
    "rating": 4.8,
    "reviews": 132,
    "lat": -34.0663032,
    "lng": 150.8141326,
    "place_id": "ChIJr1mBK1buEmsRPezHLY7frx0",
    "maps_url": "https://www.google.com/maps/place/?q=place_id:ChIJr1mBK1buEmsRPezHLY7frx0"
  },
  {
    "name": "QBD Books Macarthur Square",
    "address": "Macarthur Square Shopping Centre, Gilchrist Dr, Campbelltown NSW 2560, Australia",
    "suburb": "Gilchrist Dr",
    "state": "NSW",
    "rating": 4.5,
    "reviews": 254,
    "lat": -34.076562,
    "lng": 150.798182,
    "place_id": "ChIJgxj381TuEmsRQN0g3c30TB8",
    "maps_url": "https://www.google.com/maps/place/?q=place_id:ChIJgxj381TuEmsRQN0g3c30TB8"
  },
  {
    "name": "The Book Cellar",
    "address": "132/132 High St, Campbell Town TAS 7210, Australia",
    "suburb": "Campbell Town TAS 7210",
    "state": "NSW",
    "rating": 4.7,
    "reviews": 211,
    "lat": -41.9323783,
    "lng": 147.4925277,
    "place_id": "ChIJl8W7OR8AcaoRG32CZuqgarY",
    "maps_url": "https://www.google.com/maps/place/?q=place_id:ChIJl8W7OR8AcaoRG32CZuqgarY"
  },
  {
    "name": "Just Tassie Books",
    "address": "Cnr The Esplanade &, 132/132 High St, Campbell Town TAS 7210, Australia",
    "suburb": "132/132 High St",
    "state": "NSW",
    "rating": 5,
    "reviews": 3,
    "lat": -41.9323883,
    "lng": 147.4926077,
    "place_id": "ChIJOQ2ZNh8AcaoRQEsqHhVdC8k",
    "maps_url": "https://www.google.com/maps/place/?q=place_id:ChIJOQ2ZNh8AcaoRQEsqHhVdC8k"
  },
  {
    "name": "Shofar Christian Stores",
    "address": "Unit 8: 5/7 Lithgow St, Campbelltown NSW 2560, Australia",
    "suburb": "Campbelltown NSW 2560",
    "state": "NSW",
    "rating": 4.8,
    "reviews": 22,
    "lat": -34.06803,
    "lng": 150.814191,
    "place_id": "ChIJ204W_TfvEmsRZZ6r2HLcsAI",
    "maps_url": "https://www.google.com/maps/place/?q=place_id:ChIJ204W_TfvEmsRZZ6r2HLcsAI"
  },
  {
    "name": "BanksiaBooks AU Pty Ltd",
    "address": "48 Blaxland Rd, Campbelltown NSW 2560, Australia",
    "suburb": "Campbelltown NSW 2560",
    "state": "NSW",
    "rating": 1,
    "reviews": 1,
    "lat": -34.0612926,
    "lng": 150.8127865,
    "place_id": "ChIJ____QljuEmsR_kNdtPZkCp0",
    "maps_url": "https://www.google.com/maps/place/?q=place_id:ChIJ____QljuEmsR_kNdtPZkCp0"
  },
  {
    "name": "Yelnorin Books",
    "address": "10 Allman St, Campbelltown NSW 2560, Australia",
    "suburb": "Campbelltown NSW 2560",
    "state": "NSW",
    "rating": null,
    "reviews": 0,
    "lat": -34.0706964,
    "lng": 150.8142241,
    "place_id": "ChIJg5uWEKjvEmsRd80snNo9CAM",
    "maps_url": "https://www.google.com/maps/place/?q=place_id:ChIJg5uWEKjvEmsRd80snNo9CAM"
  },
  {
    "name": "Padstow Bookshop",
    "address": "43 Howard Rd, Padstow NSW 2211, Australia",
    "suburb": "Padstow NSW 2211",
    "state": "NSW",
    "rating": 4.8,
    "reviews": 80,
    "lat": -33.9523515,
    "lng": 151.0326317,
    "place_id": "ChIJC7KjzMW-EmsR78w1euBZ-xM",
    "maps_url": "https://www.google.com/maps/place/?q=place_id:ChIJC7KjzMW-EmsR78w1euBZ-xM"
  },
  {
    "name": "Bankstown Library and Knowledge Centre",
    "address": "80 Rickard Rd, Bankstown NSW 2200, Australia",
    "suburb": "Bankstown NSW 2200",
    "state": "NSW",
    "rating": 3.9,
    "reviews": 284,
    "lat": -33.9149462,
    "lng": 151.034732,
    "place_id": "ChIJgaRrqBq8EmsRkjZeMG4L8LI",
    "maps_url": "https://www.google.com/maps/place/?q=place_id:ChIJgaRrqBq8EmsRkjZeMG4L8LI"
  },
  {
    "name": "Everest Books",
    "address": "1 Roselands Dr, Roselands NSW 2196, Australia",
    "suburb": "Roselands NSW 2196",
    "state": "NSW",
    "rating": 4.6,
    "reviews": 28,
    "lat": -33.9351947,
    "lng": 151.0689791,
    "place_id": "ChIJQcgEoVy7EmsRnbn93HCSbSA",
    "maps_url": "https://www.google.com/maps/place/?q=place_id:ChIJQcgEoVy7EmsRnbn93HCSbSA"
  },
  {
    "name": "Light Bookstore Auburn",
    "address": "27 Queen St, Auburn NSW 2144, Australia",
    "suburb": "Auburn NSW 2144",
    "state": "NSW",
    "rating": 4.7,
    "reviews": 47,
    "lat": -33.8526248,
    "lng": 151.0337823,
    "place_id": "ChIJpYb7SLC8EmsRqCdssqc0qCc",
    "maps_url": "https://www.google.com/maps/place/?q=place_id:ChIJpYb7SLC8EmsRqCdssqc0qCc"
  },
  {
    "name": "Bukhari House",
    "address": "134 Waterloo Rd, Greenacre NSW 2190, Australia",
    "suburb": "Greenacre NSW 2190",
    "state": "NSW",
    "rating": 4.7,
    "reviews": 37,
    "lat": -33.9084884,
    "lng": 151.0567561,
    "place_id": "ChIJS1QEwWy7EmsRjuortvBhIEU",
    "maps_url": "https://www.google.com/maps/place/?q=place_id:ChIJS1QEwWy7EmsRjuortvBhIEU"
  },
  {
    "name": "OZSACH Kho Sách Truyện Việt tại Úc",
    "address": "30/47 Allingham St, Condell Park NSW 2200, Australia",
    "suburb": "Condell Park NSW 2200",
    "state": "NSW",
    "rating": 5,
    "reviews": 62,
    "lat": -33.9187745,
    "lng": 151.0013828,
    "place_id": "ChIJS6eMe_-_EmsRe5ePCUnkFT4",
    "maps_url": "https://www.google.com/maps/place/?q=place_id:ChIJS6eMe_-_EmsRe5ePCUnkFT4"
  },
  {
    "name": "Berkelouw Leichhardt",
    "address": "70 Norton St, Leichhardt NSW 2040, Australia",
    "suburb": "Leichhardt NSW 2040",
    "state": "NSW",
    "rating": 4.5,
    "reviews": 314,
    "lat": -33.8859058,
    "lng": 151.1572022,
    "place_id": "ChIJm5RMBBqwEmsRBl8-_wSvuQY",
    "maps_url": "https://www.google.com/maps/place/?q=place_id:ChIJm5RMBBqwEmsRBl8-_wSvuQY"
  },
  {
    "name": "Saigon Bookshop & Lottery",
    "address": "Shop 6/47 Park Rd, Cabramatta NSW 2166, Australia",
    "suburb": "Cabramatta NSW 2166",
    "state": "NSW",
    "rating": 4.1,
    "reviews": 8,
    "lat": -33.8938252,
    "lng": 150.9366538,
    "place_id": "ChIJBeBahw6WEmsRLyxNIMkUSDI",
    "maps_url": "https://www.google.com/maps/place/?q=place_id:ChIJBeBahw6WEmsRLyxNIMkUSDI"
  },
  {
    "name": "Jura Books",
    "address": "440 Parramatta Rd, Petersham NSW 2049, Australia",
    "suburb": "Petersham NSW 2049",
    "state": "NSW",
    "rating": 4.7,
    "reviews": 24,
    "lat": -33.8880794,
    "lng": 151.1596278,
    "place_id": "ChIJlX5GExewEmsRiXttB2WqX5g",
    "maps_url": "https://www.google.com/maps/place/?q=place_id:ChIJlX5GExewEmsRiXttB2WqX5g"
  },
  {
    "name": "Constant Reader Bookshop",
    "address": "27 Willoughby Rd, Crows Nest NSW 2065, Australia",
    "suburb": "Crows Nest NSW 2065",
    "state": "NSW",
    "rating": 4.7,
    "reviews": 149,
    "lat": -33.8269218,
    "lng": 151.2009604,
    "place_id": "ChIJkeD5NuiuEmsRGhpvHiGvr4E",
    "maps_url": "https://www.google.com/maps/place/?q=place_id:ChIJkeD5NuiuEmsRGhpvHiGvr4E"
  },
  {
    "name": "Phú-Thānh",
    "address": "18 Restwell St, Bankstown NSW 2200, Australia",
    "suburb": "Bankstown NSW 2200",
    "state": "NSW",
    "rating": null,
    "reviews": 0,
    "lat": -33.9189285,
    "lng": 151.0351708,
    "place_id": "ChIJ8VoEKhu8EmsRi-ci58bgiOk",
    "maps_url": "https://www.google.com/maps/place/?q=place_id:ChIJ8VoEKhu8EmsRi-ci58bgiOk"
  },
  {
    "name": "Books Kinokuniya Chatswood",
    "address": "Westfield Chatswood, Level 5/1 Anderson St, Chatswood NSW 2067, Australia",
    "suburb": "Level 5/1 Anderson St",
    "state": "NSW",
    "rating": 4.7,
    "reviews": 13,
    "lat": -33.7970958,
    "lng": 151.1831197,
    "place_id": "ChIJWeLSeACpEmsR2tJqhRbEuho",
    "maps_url": "https://www.google.com/maps/place/?q=place_id:ChIJWeLSeACpEmsR2tJqhRbEuho"
  },
  {
    "name": "Dymocks Chatswood",
    "address": "Westfield Chatswood, Shop 301, Level 3/1 Anderson St, Chatswood NSW 2067, Australia",
    "suburb": "Shop 301",
    "state": "NSW",
    "rating": 4.3,
    "reviews": 381,
    "lat": -33.7972285,
    "lng": 151.1846385,
    "place_id": "ChIJW1oU29WoEmsRqZGEjupKy20",
    "maps_url": "https://www.google.com/maps/place/?q=place_id:ChIJW1oU29WoEmsRqZGEjupKy20"
  },
  {
    "name": "QBD Books Chatswood",
    "address": "Shop 260/1 Anderson St, Chatswood NSW 2067, Australia",
    "suburb": "Chatswood NSW 2067",
    "state": "NSW",
    "rating": 4.4,
    "reviews": 164,
    "lat": -33.7968647,
    "lng": 151.1834131,
    "place_id": "ChIJy7dDNtSoEmsRmUp38RgC6Zg",
    "maps_url": "https://www.google.com/maps/place/?q=place_id:ChIJy7dDNtSoEmsRmUp38RgC6Zg"
  },
  {
    "name": "North Shore Shop",
    "address": "65 Archer St, Chatswood NSW 2067, Australia",
    "suburb": "Chatswood NSW 2067",
    "state": "NSW",
    "rating": 5,
    "reviews": 1,
    "lat": -33.7963236,
    "lng": 151.1861209,
    "place_id": "ChIJHWlZnHWpEmsRJr_LkEAx1UM",
    "maps_url": "https://www.google.com/maps/place/?q=place_id:ChIJHWlZnHWpEmsRJr_LkEAx1UM"
  },
  {
    "name": "Berkelouw Hornsby",
    "address": "Shop B30/33/236 Pacific Hwy, Hornsby NSW 2077, Australia",
    "suburb": "Hornsby NSW 2077",
    "state": "NSW",
    "rating": 4.2,
    "reviews": 301,
    "lat": -33.704234,
    "lng": 151.1007139,
    "place_id": "ChIJVVhAgIOnEmsR95K2yBJmci0",
    "maps_url": "https://www.google.com/maps/place/?q=place_id:ChIJVVhAgIOnEmsR95K2yBJmci0"
  },
  {
    "name": "QBD Books Hornsby",
    "address": "Westfield Hornsby Cnr Florence St &, Hunter St, Hornsby NSW 2077, Australia",
    "suburb": "Hunter St",
    "state": "NSW",
    "rating": 4.4,
    "reviews": 280,
    "lat": -33.7034961,
    "lng": 151.1014155,
    "place_id": "ChIJyQvpoIanEmsRHnF63Vzzrxk",
    "maps_url": "https://www.google.com/maps/place/?q=place_id:ChIJyQvpoIanEmsRHnF63Vzzrxk"
  },
  {
    "name": "Lifeline Book Shop",
    "address": "20 George St, Hornsby NSW 2077, Australia",
    "suburb": "Hornsby NSW 2077",
    "state": "NSW",
    "rating": 4.6,
    "reviews": 38,
    "lat": -33.7034432,
    "lng": 151.099207,
    "place_id": "ChIJlR5N1yanEmsRtQFaAuluLLk",
    "maps_url": "https://www.google.com/maps/place/?q=place_id:ChIJlR5N1yanEmsRtQFaAuluLLk"
  },
  {
    "name": "Viking Books",
    "address": "45-47 Leighton Pl, Hornsby NSW 2077, Australia",
    "suburb": "Hornsby NSW 2077",
    "state": "NSW",
    "rating": 4,
    "reviews": 1,
    "lat": -33.695123,
    "lng": 151.1156987,
    "place_id": "ChIJD_mxKXNYDWsRgnWg_Opq3CY",
    "maps_url": "https://www.google.com/maps/place/?q=place_id:ChIJD_mxKXNYDWsRgnWg_Opq3CY"
  },
  {
    "name": "Desire Books & Records",
    "address": "3/3 Whistler St, Manly NSW 2095, Australia",
    "suburb": "Manly NSW 2095",
    "state": "NSW",
    "rating": 4.7,
    "reviews": 82,
    "lat": -33.7974914,
    "lng": 151.2853438,
    "place_id": "ChIJvTWo2girEmsRUnUt01SJzV8",
    "maps_url": "https://www.google.com/maps/place/?q=place_id:ChIJvTWo2girEmsRUnUt01SJzV8"
  },
  {
    "name": "Humphreys Manly",
    "address": "60-62 The Corso, Manly NSW 2095, Australia",
    "suburb": "Manly NSW 2095",
    "state": "NSW",
    "rating": 4.5,
    "reviews": 201,
    "lat": -33.7980785,
    "lng": 151.2867989,
    "place_id": "ChIJGV7ZOg-rEmsRVHmpvvZaZNk",
    "maps_url": "https://www.google.com/maps/place/?q=place_id:ChIJGV7ZOg-rEmsRVHmpvvZaZNk"
  },
  {
    "name": "The Mad Hatters Bookshop",
    "address": "Shop 3, Manly 7 Day Markets, 50 Cambridge Parade, Manly QLD 4179, Australia",
    "suburb": "Manly 7 Day Markets",
    "state": "NSW",
    "rating": 4.9,
    "reviews": 59,
    "lat": -27.4543334,
    "lng": 153.1858906,
    "place_id": "ChIJ525HWDNekWsRzOl5ytzjtu0",
    "maps_url": "https://www.google.com/maps/place/?q=place_id:ChIJ525HWDNekWsRzOl5ytzjtu0"
  },
  {
    "name": "Berkelouw Balgowlah",
    "address": "24/215 Condamine St, Balgowlah NSW 2093, Australia",
    "suburb": "Balgowlah NSW 2093",
    "state": "NSW",
    "rating": 4.4,
    "reviews": 56,
    "lat": -33.7930304,
    "lng": 151.264917,
    "place_id": "ChIJmamJrburEmsRWgL8uw9JMYU",
    "maps_url": "https://www.google.com/maps/place/?q=place_id:ChIJmamJrburEmsRWgL8uw9JMYU"
  },
  {
    "name": "SUR Bookstore",
    "address": "66 Darley Rd, Manly NSW 2095, Australia",
    "suburb": "Manly NSW 2095",
    "state": "NSW",
    "rating": null,
    "reviews": 0,
    "lat": -33.8018086,
    "lng": 151.2885114,
    "place_id": "ChIJd6McliOrEmsR3rJ8FiXFSUg",
    "maps_url": "https://www.google.com/maps/place/?q=place_id:ChIJd6McliOrEmsR3rJ8FiXFSUg"
  },
  {
    "name": "Gertrude & Alice Cafe Bookstore",
    "address": "1/46 Hall St, Bondi Beach NSW 2026, Australia",
    "suburb": "Bondi Beach NSW 2026",
    "state": "NSW",
    "rating": 4.4,
    "reviews": 771,
    "lat": -33.8900805,
    "lng": 151.2719154,
    "place_id": "ChIJm9Tz1putEmsRtSl6a8-_Ff0",
    "maps_url": "https://www.google.com/maps/place/?q=place_id:ChIJm9Tz1putEmsRtSl6a8-_Ff0"
  },
  {
    "name": "Harry Hartog Bondi Junction",
    "address": "5036/500 Oxford St, Bondi Junction NSW 2022, Australia",
    "suburb": "Bondi Junction NSW 2022",
    "state": "NSW",
    "rating": 4.6,
    "reviews": 372,
    "lat": -33.8918293,
    "lng": 151.2500293,
    "place_id": "ChIJSwlYm_GtEmsRK44BpY5YR0o",
    "maps_url": "https://www.google.com/maps/place/?q=place_id:ChIJSwlYm_GtEmsRK44BpY5YR0o"
  },
  {
    "name": "QBD Books Bondi",
    "address": "Shop 1009A/Westfield 500 Oxford St, Bondi Junction NSW 2022, Australia",
    "suburb": "Bondi Junction NSW 2022",
    "state": "NSW",
    "rating": 4.4,
    "reviews": 75,
    "lat": -33.8927444,
    "lng": 151.2501648,
    "place_id": "ChIJa4uKXmWtEmsRnFSms2sp2eM",
    "maps_url": "https://www.google.com/maps/place/?q=place_id:ChIJa4uKXmWtEmsRnFSms2sp2eM"
  },
  {
    "name": "Dymocks Eastgate Bondi",
    "address": "Shop 35-37, Mezzanine Level, Eastgate Shopping Centre, 71/91 Spring St, Bondi Junction NSW 2022, Australia",
    "suburb": "Mezzanine Level",
    "state": "NSW",
    "rating": 4.8,
    "reviews": 23,
    "lat": -33.8929728,
    "lng": 151.2480084,
    "place_id": "ChIJjZ5Gd6OtEmsRAMkmDf4GyiI",
    "maps_url": "https://www.google.com/maps/place/?q=place_id:ChIJjZ5Gd6OtEmsRAMkmDf4GyiI"
  },
  {
    "name": "Woollahra Bookshop",
    "address": "Spicer St, Woollahra NSW 2025, Australia",
    "suburb": "Woollahra NSW 2025",
    "state": "NSW",
    "rating": 4.9,
    "reviews": 27,
    "lat": -33.8880298,
    "lng": 151.2377543,
    "place_id": "ChIJMay68PytEmsRUciDUrea2cs",
    "maps_url": "https://www.google.com/maps/place/?q=place_id:ChIJMay68PytEmsRUciDUrea2cs"
  },
  {
    "name": "Ma Petite Librairie - French Books for Kids",
    "address": "71 Oakley Rd, North Bondi NSW 2026, Australia",
    "suburb": "North Bondi NSW 2026",
    "state": "NSW",
    "rating": 5,
    "reviews": 9,
    "lat": -33.8844072,
    "lng": 151.2765177,
    "place_id": "ChIJEdnSVzezEmsRsuTCHh2QXks",
    "maps_url": "https://www.google.com/maps/place/?q=place_id:ChIJEdnSVzezEmsRsuTCHh2QXks"
  },
  {
    "name": "Golds Sydney - Jewish Books and Judaica",
    "address": "9/11 O'Brien St, Bondi Beach NSW 2026, Australia",
    "suburb": "Bondi Beach NSW 2026",
    "state": "NSW",
    "rating": 4.6,
    "reviews": 74,
    "lat": -33.889007,
    "lng": 151.271315,
    "place_id": "ChIJd93hgpmtEmsRqpcx7HL7u9Q",
    "maps_url": "https://www.google.com/maps/place/?q=place_id:ChIJd93hgpmtEmsRqpcx7HL7u9Q"
  },
  {
    "name": "ML books",
    "address": "500 Oxford St, Bondi Junction NSW 2022, Australia",
    "suburb": "Bondi Junction NSW 2022",
    "state": "NSW",
    "rating": null,
    "reviews": 0,
    "lat": -33.8915695,
    "lng": 151.2505012,
    "place_id": "ChIJD5dR2nGtEmsRusMuYHA02RQ",
    "maps_url": "https://www.google.com/maps/place/?q=place_id:ChIJD5dR2nGtEmsRusMuYHA02RQ"
  },
  {
    "name": "BTWNLNS",
    "address": "105 Wilson St, Newtown NSW 2042, Australia",
    "suburb": "Newtown NSW 2042",
    "state": "NSW",
    "rating": 4.4,
    "reviews": 19,
    "lat": -33.8958779,
    "lng": 151.1837684,
    "place_id": "ChIJKVJmi5KxEmsRwPJjti95VV0",
    "maps_url": "https://www.google.com/maps/place/?q=place_id:ChIJKVJmi5KxEmsRwPJjti95VV0"
  },
  {
    "name": "Windhorse Books",
    "address": "375 King St, Newtown NSW 2042, Australia",
    "suburb": "Newtown NSW 2042",
    "state": "NSW",
    "rating": 2.8,
    "reviews": 6,
    "lat": -33.89912899999999,
    "lng": 151.177572,
    "place_id": "ChIJy1h7BzewEmsRpGC8t02ASa8",
    "maps_url": "https://www.google.com/maps/place/?q=place_id:ChIJy1h7BzewEmsRpGC8t02ASa8"
  },
  {
    "name": "Cafe Bookstore",
    "address": "632 King St, Newtown NSW 2042, Australia",
    "suburb": "Newtown NSW 2042",
    "state": "NSW",
    "rating": 4.9,
    "reviews": 39,
    "lat": -33.9051283,
    "lng": 151.18112,
    "place_id": "ChIJF3mxf0mwEmsRq1GXY0aHgsQ",
    "maps_url": "https://www.google.com/maps/place/?q=place_id:ChIJF3mxf0mwEmsRq1GXY0aHgsQ"
  },
  {
    "name": "By The Book. Good As New Books",
    "address": "3/326 Griffith Rd, Lavington NSW 2641, Australia",
    "suburb": "Lavington NSW 2641",
    "state": "NSW",
    "rating": 4.7,
    "reviews": 91,
    "lat": -36.050777,
    "lng": 146.933492,
    "place_id": "ChIJe-keQT3gI2sR7pi6ldeoIwk",
    "maps_url": "https://www.google.com/maps/place/?q=place_id:ChIJe-keQT3gI2sR7pi6ldeoIwk"
  },
  {
    "name": "Booktique Albury",
    "address": "7 AMP Ln, Albury NSW 2640, Australia",
    "suburb": "Albury NSW 2640",
    "state": "NSW",
    "rating": 4.7,
    "reviews": 18,
    "lat": -36.0815549,
    "lng": 146.9162741,
    "place_id": "ChIJBbLAFgBfIWsRK7HeXKoAiLQ",
    "maps_url": "https://www.google.com/maps/place/?q=place_id:ChIJBbLAFgBfIWsRK7HeXKoAiLQ"
  },
  {
    "name": "QBD Books Albury",
    "address": "Shop 15/ 351 Griffith Rd Lavington, Square Shopping Centre, Albury NSW 2641, Australia",
    "suburb": "Square Shopping Centre",
    "state": "NSW",
    "rating": 4.6,
    "reviews": 51,
    "lat": -36.0484624,
    "lng": 146.9350179,
    "place_id": "ChIJyUM2canhI2sREICtebg3WD0",
    "maps_url": "https://www.google.com/maps/place/?q=place_id:ChIJyUM2canhI2sREICtebg3WD0"
  },
  {
    "name": "Books on Dean",
    "address": "3/444 Dean St, Albury NSW 2640, Australia",
    "suburb": "Albury NSW 2640",
    "state": "NSW",
    "rating": 4.1,
    "reviews": 18,
    "lat": -36.0812421,
    "lng": 146.9220216,
    "place_id": "ChIJdYxGjtjhI2sRhM2Vy-20G8s",
    "maps_url": "https://www.google.com/maps/place/?q=place_id:ChIJdYxGjtjhI2sRhM2Vy-20G8s"
  },
  {
    "name": "Eldoradobooks",
    "address": "Mount St, East Albury NSW 2640, Australia",
    "suburb": "East Albury NSW 2640",
    "state": "NSW",
    "rating": null,
    "reviews": 0,
    "lat": -36.083352,
    "lng": 146.9329048,
    "place_id": "ChIJhdSwMcXhI2sRxPEqeyZ7ZPw",
    "maps_url": "https://www.google.com/maps/place/?q=place_id:ChIJhdSwMcXhI2sRxPEqeyZ7ZPw"
  },
  {
    "name": "That Good Book",
    "address": "445 David St, Albury NSW 2640, Australia",
    "suburb": "Albury NSW 2640",
    "state": "NSW",
    "rating": null,
    "reviews": 0,
    "lat": -36.0840613,
    "lng": 146.9194714,
    "place_id": "ChIJuVe41rFfIWsROAvnTPGzDpA",
    "maps_url": "https://www.google.com/maps/place/?q=place_id:ChIJuVe41rFfIWsROAvnTPGzDpA"
  },
  {
    "name": "Lady Gails Bookshop & Curios",
    "address": "79 Albury St, Holbrook NSW 2644, Australia",
    "suburb": "Holbrook NSW 2644",
    "state": "NSW",
    "rating": 4.6,
    "reviews": 133,
    "lat": -35.7274091,
    "lng": 147.3109893,
    "place_id": "ChIJq-xeN7FJImsRr7rcUFw83Ro",
    "maps_url": "https://www.google.com/maps/place/?q=place_id:ChIJq-xeN7FJImsRr7rcUFw83Ro"
  },
  {
    "name": "Collins Booksellers Wagga Wagga",
    "address": "75 Baylis St, Wagga Wagga NSW 2650, Australia",
    "suburb": "Wagga Wagga NSW 2650",
    "state": "NSW",
    "rating": 4.6,
    "reviews": 182,
    "lat": -35.1158879,
    "lng": 147.3695951,
    "place_id": "ChIJHaW9fX6ZGGsRfDFRqmGclnU",
    "maps_url": "https://www.google.com/maps/place/?q=place_id:ChIJHaW9fX6ZGGsRfDFRqmGclnU"
  },
  {
    "name": "QBD Books Wagga Wagga",
    "address": "135 Baylis St, Shop/33 Sturt Mall, Wagga Wagga NSW 2650, Australia",
    "suburb": "Shop/33 Sturt Mall",
    "state": "NSW",
    "rating": 4.7,
    "reviews": 32,
    "lat": -35.1138748,
    "lng": 147.371261,
    "place_id": "ChIJPVVFkWCZGGsR7MSPYf95p1A",
    "maps_url": "https://www.google.com/maps/place/?q=place_id:ChIJPVVFkWCZGGsR7MSPYf95p1A"
  },
  {
    "name": "Gateway Bookshop",
    "address": "Shop 2/46 Baylis St, Wagga Wagga NSW 2650, Australia",
    "suburb": "Wagga Wagga NSW 2650",
    "state": "NSW",
    "rating": 4.5,
    "reviews": 57,
    "lat": -35.1169528,
    "lng": 147.3690869,
    "place_id": "ChIJUWkwNnyZGGsRK2JBHeJbGaY",
    "maps_url": "https://www.google.com/maps/place/?q=place_id:ChIJUWkwNnyZGGsRK2JBHeJbGaY"
  },
  {
    "name": "Collins Booksellers Tamworth",
    "address": "368 Peel St, Tamworth NSW 2340, Australia",
    "suburb": "Tamworth NSW 2340",
    "state": "NSW",
    "rating": 4.6,
    "reviews": 61,
    "lat": -31.0908191,
    "lng": 150.9301556,
    "place_id": "ChIJlfVv-smYCmsRd2_Kuo0ErpM",
    "maps_url": "https://www.google.com/maps/place/?q=place_id:ChIJlfVv-smYCmsRd2_Kuo0ErpM"
  },
  {
    "name": "Collins Booksellers Orange",
    "address": "230 Summer St, Orange NSW 2800, Australia",
    "suburb": "Orange NSW 2800",
    "state": "NSW",
    "rating": 4.8,
    "reviews": 91,
    "lat": -33.2839128,
    "lng": 149.1004095,
    "place_id": "ChIJP0jFtdMsEGsRLzj4Ny7HGw4",
    "maps_url": "https://www.google.com/maps/place/?q=place_id:ChIJP0jFtdMsEGsRLzj4Ny7HGw4"
  },
  {
    "name": "The Book Connection",
    "address": "178 Macquarie St, Dubbo NSW 2830, Australia",
    "suburb": "Dubbo NSW 2830",
    "state": "NSW",
    "rating": 4.9,
    "reviews": 71,
    "lat": -32.2485219,
    "lng": 148.6012406,
    "place_id": "ChIJpTm4QK1xD2sRxdzZdR7F6eU",
    "maps_url": "https://www.google.com/maps/place/?q=place_id:ChIJpTm4QK1xD2sRxdzZdR7F6eU"
  },
  {
    "name": "QBD Books Dubbo",
    "address": "T30, Orana Mall Shopping Centre East, Dubbo NSW 2830, Australia",
    "suburb": "Orana Mall Shopping Centre East",
    "state": "NSW",
    "rating": 4.3,
    "reviews": 11,
    "lat": -32.2556215,
    "lng": 148.6315143,
    "place_id": "ChIJl2Iz5wxxD2sRWWFHjFRJ4xE",
    "maps_url": "https://www.google.com/maps/place/?q=place_id:ChIJl2Iz5wxxD2sRWWFHjFRJ4xE"
  },
  {
    "name": "Christian Book Centre Dubbo",
    "address": "151 Talbragar St, Dubbo NSW 2830, Australia",
    "suburb": "Dubbo NSW 2830",
    "state": "NSW",
    "rating": 4.8,
    "reviews": 12,
    "lat": -32.245629,
    "lng": 148.6060401,
    "place_id": "ChIJD5ppfLFxD2sR3tMCXD1j-1o",
    "maps_url": "https://www.google.com/maps/place/?q=place_id:ChIJD5ppfLFxD2sR3tMCXD1j-1o"
  },
  {
    "name": "Orana Mall Shopping Centre",
    "address": "56 Windsor Parade, Dubbo NSW 2830, Australia",
    "suburb": "Dubbo NSW 2830",
    "state": "NSW",
    "rating": 4.3,
    "reviews": 1787,
    "lat": -32.2556215,
    "lng": 148.6315143,
    "place_id": "ChIJv8adXZBxD2sRsFr_c7UJBg8",
    "maps_url": "https://www.google.com/maps/place/?q=place_id:ChIJv8adXZBxD2sRsFr_c7UJBg8"
  },
  {
    "name": "News at the Mall",
    "address": "Shop 35 Orana Mall, 56 Windsor Parade, Dubbo NSW 2830, Australia",
    "suburb": "56 Windsor Parade",
    "state": "NSW",
    "rating": 4.1,
    "reviews": 15,
    "lat": -32.2555509,
    "lng": 148.6314672,
    "place_id": "ChIJWcH6ZJpxD2sRQrefQvMeUQw",
    "maps_url": "https://www.google.com/maps/place/?q=place_id:ChIJWcH6ZJpxD2sRQrefQvMeUQw"
  },
  {
    "name": "Dubbo Library",
    "address": "Macquarie St &, Talbragar St, Dubbo NSW 2830, Australia",
    "suburb": "Talbragar St",
    "state": "NSW",
    "rating": 4.7,
    "reviews": 66,
    "lat": -32.244701,
    "lng": 148.601557,
    "place_id": "ChIJv5SLlAFxD2sRyzjfMZd9Kdw",
    "maps_url": "https://www.google.com/maps/place/?q=place_id:ChIJv5SLlAFxD2sRyzjfMZd9Kdw"
  },
  {
    "name": "Total Tabletop",
    "address": "244 Macquarie St, Dubbo NSW 2830, Australia",
    "suburb": "Dubbo NSW 2830",
    "state": "NSW",
    "rating": 4.9,
    "reviews": 49,
    "lat": -32.2505362,
    "lng": 148.6008845,
    "place_id": "ChIJhzxnPHNxD2sRQ7S2BdDEWh0",
    "maps_url": "https://www.google.com/maps/place/?q=place_id:ChIJhzxnPHNxD2sRQ7S2BdDEWh0"
  },
  {
    "name": "News Extra On Macquarie - Newsagency, Gifts & Collectables",
    "address": "117 Macquarie St, Dubbo NSW 2830, Australia",
    "suburb": "Dubbo NSW 2830",
    "state": "NSW",
    "rating": 4.3,
    "reviews": 9,
    "lat": -32.2478005,
    "lng": 148.6007842,
    "place_id": "ChIJnXr6T61xD2sR2iAwO-PFkpI",
    "maps_url": "https://www.google.com/maps/place/?q=place_id:ChIJnXr6T61xD2sR2iAwO-PFkpI"
  },
  {
    "name": "Ozzy World Learning",
    "address": "36 Catherine Dr, Dubbo NSW 2830, Australia",
    "suburb": "Dubbo NSW 2830",
    "state": "NSW",
    "rating": null,
    "reviews": 0,
    "lat": -32.2378992,
    "lng": 148.5865288,
    "place_id": "ChIJHTPWkGZxD2sRUM5V2Hc2_7U",
    "maps_url": "https://www.google.com/maps/place/?q=place_id:ChIJHTPWkGZxD2sRUM5V2Hc2_7U"
  },
  {
    "name": "The Book Warehouse Coffs Harbour",
    "address": "26 Harbour Dr, Coffs Harbour NSW 2450, Australia",
    "suburb": "Coffs Harbour NSW 2450",
    "state": "NSW",
    "rating": 4.7,
    "reviews": 176,
    "lat": -30.2968777,
    "lng": 153.1145193,
    "place_id": "ChIJ823CftkNnGsRFgBcJM7soqY",
    "maps_url": "https://www.google.com/maps/place/?q=place_id:ChIJ823CftkNnGsRFgBcJM7soqY"
  },
  {
    "name": "QBD Books Coffs Harbour",
    "address": "253 Pacific Highway Park Beach Plaza, Coffs Harbour NSW 2450, Australia",
    "suburb": "Coffs Harbour NSW 2450",
    "state": "NSW",
    "rating": 4.5,
    "reviews": 24,
    "lat": -30.2837401,
    "lng": 153.1311606,
    "place_id": "ChIJ5ZNpjCENnGsRLRpTFei5j_U",
    "maps_url": "https://www.google.com/maps/place/?q=place_id:ChIJ5ZNpjCENnGsRLRpTFei5j_U"
  },
  {
    "name": "BOOK FACE",
    "address": "40/42 Horton St, Port Macquarie NSW 2444, Australia",
    "suburb": "Port Macquarie NSW 2444",
    "state": "NSW",
    "rating": 4.5,
    "reviews": 292,
    "lat": -31.4301631,
    "lng": 152.9097567,
    "place_id": "ChIJvXhqKyb_nWsR9a0IV-aCCSk",
    "maps_url": "https://www.google.com/maps/place/?q=place_id:ChIJvXhqKyb_nWsR9a0IV-aCCSk"
  },
  {
    "name": "Collins Booksellers Port Macquarie",
    "address": "64 Clarence St, Port Macquarie NSW 2444, Australia",
    "suburb": "Port Macquarie NSW 2444",
    "state": "NSW",
    "rating": 4.3,
    "reviews": 20,
    "lat": -31.4294584,
    "lng": 152.9074644,
    "place_id": "ChIJFRaZIYz_nWsRisuc0oiE58E",
    "maps_url": "https://www.google.com/maps/place/?q=place_id:ChIJFRaZIYz_nWsRisuc0oiE58E"
  },
  {
    "name": "The Enchanted Chapter",
    "address": "2/23-41 Short St, Port Macquarie NSW 2444, Australia",
    "suburb": "Port Macquarie NSW 2444",
    "state": "NSW",
    "rating": 5,
    "reviews": 3,
    "lat": -31.4327898,
    "lng": 152.906886,
    "place_id": "ChIJtf-6FQD_nWsRVqpzf_WBIoE",
    "maps_url": "https://www.google.com/maps/place/?q=place_id:ChIJtf-6FQD_nWsRVqpzf_WBIoE"
  },
  {
    "name": "Flynns Book and Record Cafe",
    "address": "1/4 Flynn St, Port Macquarie NSW 2444, Australia",
    "suburb": "Port Macquarie NSW 2444",
    "state": "NSW",
    "rating": 4.7,
    "reviews": 93,
    "lat": -31.4435288,
    "lng": 152.9251207,
    "place_id": "ChIJM-vFx834nWsRIj5QtjylWW4",
    "maps_url": "https://www.google.com/maps/place/?q=place_id:ChIJM-vFx834nWsRIj5QtjylWW4"
  },
  {
    "name": "Rotary Book Store",
    "address": "Hamilton Green, 2/198 Hastings River Dr, Port Macquarie NSW 2444, Australia",
    "suburb": "2/198 Hastings River Dr",
    "state": "NSW",
    "rating": 4.7,
    "reviews": 10,
    "lat": -31.4254111,
    "lng": 152.8752941,
    "place_id": "ChIJ2zSc-E__nWsRa5LvBk9j1mw",
    "maps_url": "https://www.google.com/maps/place/?q=place_id:ChIJ2zSc-E__nWsRa5LvBk9j1mw"
  },
  {
    "name": "BookBliss",
    "address": "Wyandra Cres, Port Macquarie NSW 2444, Australia",
    "suburb": "Port Macquarie NSW 2444",
    "state": "NSW",
    "rating": null,
    "reviews": 0,
    "lat": -31.4423239,
    "lng": 152.9064056,
    "place_id": "ChIJcUFMUm__nWsR4s5NUHSbkA0",
    "maps_url": "https://www.google.com/maps/place/?q=place_id:ChIJcUFMUm__nWsR4s5NUHSbkA0"
  },
  {
    "name": "The Book Warehouse Lismore",
    "address": "109 Keen St, Lismore NSW 2480, Australia",
    "suburb": "Lismore NSW 2480",
    "state": "NSW",
    "rating": 4.7,
    "reviews": 260,
    "lat": -28.8087291,
    "lng": 153.2783164,
    "place_id": "ChIJy_VJahmekGsRlxSykS5nlM4",
    "maps_url": "https://www.google.com/maps/place/?q=place_id:ChIJy_VJahmekGsRlxSykS5nlM4"
  },
  {
    "name": "Uncle Peter's Books",
    "address": "29 Main St, Clunes NSW 2480, Australia",
    "suburb": "Clunes NSW 2480",
    "state": "NSW",
    "rating": 4.8,
    "reviews": 49,
    "lat": -28.7314798,
    "lng": 153.4056805,
    "place_id": "ChIJ49IqT8aEkGsRHUOWBmBnu5c",
    "maps_url": "https://www.google.com/maps/place/?q=place_id:ChIJ49IqT8aEkGsRHUOWBmBnu5c"
  },
  {
    "name": "Hemlocks Books and Coffee",
    "address": "107 River St, Woodburn NSW 2472, Australia",
    "suburb": "Woodburn NSW 2472",
    "state": "NSW",
    "rating": 4.9,
    "reviews": 108,
    "lat": -29.071816,
    "lng": 153.3427185,
    "place_id": "ChIJqUyqYS1vmmsRJ4Dt0R537QY",
    "maps_url": "https://www.google.com/maps/place/?q=place_id:ChIJqUyqYS1vmmsRJ4Dt0R537QY"
  },
  {
    "name": "Miles & Henry Bookstore Cafe",
    "address": "5/80 Main St, Alstonville NSW 2477, Australia",
    "suburb": "Alstonville NSW 2477",
    "state": "NSW",
    "rating": 4.6,
    "reviews": 51,
    "lat": -28.8410816,
    "lng": 153.4397457,
    "place_id": "ChIJLUgPiyuDkGsRC8Nbsui_WAg",
    "maps_url": "https://www.google.com/maps/place/?q=place_id:ChIJLUgPiyuDkGsRC8Nbsui_WAg"
  },
  {
    "name": "The Book Warehouse Ballina",
    "address": "85 River St, Ballina NSW 2478, Australia",
    "suburb": "Ballina NSW 2478",
    "state": "NSW",
    "rating": 4.7,
    "reviews": 59,
    "lat": -28.8709575,
    "lng": 153.5619786,
    "place_id": "ChIJBbNEuh6AkGsRYCPSEJQfjPM",
    "maps_url": "https://www.google.com/maps/place/?q=place_id:ChIJBbNEuh6AkGsRYCPSEJQfjPM"
  },
  {
    "name": "Ulmarra Books",
    "address": "4 Coldstream St, Ulmarra NSW 2462, Australia",
    "suburb": "Ulmarra NSW 2462",
    "state": "NSW",
    "rating": 4.6,
    "reviews": 74,
    "lat": -29.6309874,
    "lng": 153.0281092,
    "place_id": "ChIJxxzb7VrFm2sRTPrKvmoLvkA",
    "maps_url": "https://www.google.com/maps/place/?q=place_id:ChIJxxzb7VrFm2sRTPrKvmoLvkA"
  },
  {
    "name": "The Book Room At Byron",
    "address": "27 Fletcher St, Byron Bay NSW 2481, Australia",
    "suburb": "Byron Bay NSW 2481",
    "state": "NSW",
    "rating": 4.6,
    "reviews": 285,
    "lat": -28.6439878,
    "lng": 153.6137225,
    "place_id": "ChIJ79UyiTlikGsRicOh-Jnw5B8",
    "maps_url": "https://www.google.com/maps/place/?q=place_id:ChIJ79UyiTlikGsRicOh-Jnw5B8"
  },
  {
    "name": "Boardwalk Books",
    "address": "88 Marine Parade, Kingscliff NSW 2487, Australia",
    "suburb": "Kingscliff NSW 2487",
    "state": "NSW",
    "rating": 4.6,
    "reviews": 60,
    "lat": -28.2561046,
    "lng": 153.5772038,
    "place_id": "ChIJ2Qvp017_kGsR-JILFB1obCg",
    "maps_url": "https://www.google.com/maps/place/?q=place_id:ChIJ2Qvp017_kGsR-JILFB1obCg"
  },
  {
    "name": "THE Bookshop Mullumbimby",
    "address": "39 Burringbar St, Mullumbimby NSW 2482, Australia",
    "suburb": "Mullumbimby NSW 2482",
    "state": "NSW",
    "rating": 4.7,
    "reviews": 12,
    "lat": -28.5534026,
    "lng": 153.5004333,
    "place_id": "ChIJwzSc23CLkGsRl-RVwT6W74E",
    "maps_url": "https://www.google.com/maps/place/?q=place_id:ChIJwzSc23CLkGsRl-RVwT6W74E"
  },
  {
    "name": "Magpie Books",
    "address": "Unit 1/44 Beach St, Woolgoolga NSW 2456, Australia",
    "suburb": "Woolgoolga NSW 2456",
    "state": "NSW",
    "rating": 4.1,
    "reviews": 41,
    "lat": -30.1111304,
    "lng": 153.1991008,
    "place_id": "ChIJr6jX4NsNnGsRnumFZbRmR8A",
    "maps_url": "https://www.google.com/maps/place/?q=place_id:ChIJr6jX4NsNnGsRnumFZbRmR8A"
  },
  {
    "name": "The Nook Yamba",
    "address": "5/18 Coldstream St, Yamba NSW 2464, Australia",
    "suburb": "Yamba NSW 2464",
    "state": "NSW",
    "rating": 4.7,
    "reviews": 43,
    "lat": -29.43705,
    "lng": 153.360678,
    "place_id": "ChIJET1hvdhNmmsRuS544Pzsrao",
    "maps_url": "https://www.google.com/maps/place/?q=place_id:ChIJET1hvdhNmmsRuS544Pzsrao"
  },
  {
    "name": "The Book Warehouse Grafton",
    "address": "89 Prince St, Grafton NSW 2460, Australia",
    "suburb": "Grafton NSW 2460",
    "state": "NSW",
    "rating": 4.6,
    "reviews": 18,
    "lat": -29.6895996,
    "lng": 152.9341389,
    "place_id": "ChIJ1_7Z-5_dm2sR_BP6L8WwMyo",
    "maps_url": "https://www.google.com/maps/place/?q=place_id:ChIJ1_7Z-5_dm2sR_BP6L8WwMyo"
  },
  {
    "name": "Pulp Fiction Murwillumbah",
    "address": "309 Tweed Valley Way, Murwillumbah NSW 2484, Australia",
    "suburb": "Murwillumbah NSW 2484",
    "state": "NSW",
    "rating": 4.6,
    "reviews": 69,
    "lat": -28.3311143,
    "lng": 153.4014393,
    "place_id": "ChIJu0wZBgXwkGsRWnrjnExB3GE",
    "maps_url": "https://www.google.com/maps/place/?q=place_id:ChIJu0wZBgXwkGsRWnrjnExB3GE"
  },
  {
    "name": "TIMBRÉ LISMORE",
    "address": "53 Dawson St, Lismore NSW 2480, Australia",
    "suburb": "Lismore NSW 2480",
    "state": "NSW",
    "rating": 4.7,
    "reviews": 56,
    "lat": -28.8074678,
    "lng": 153.2820571,
    "place_id": "ChIJd3hlQ0WfkGsRerjorXEk6hg",
    "maps_url": "https://www.google.com/maps/place/?q=place_id:ChIJd3hlQ0WfkGsRerjorXEk6hg"
  },
  {
    "name": "The Old Curiosity Shop",
    "address": "81 Tamar St, Ballina NSW 2478, Australia",
    "suburb": "Ballina NSW 2478",
    "state": "NSW",
    "rating": 4.7,
    "reviews": 6,
    "lat": -28.86882649999999,
    "lng": 153.5601877,
    "place_id": "ChIJb1NRIRmAkGsRniaJFqauKIw",
    "maps_url": "https://www.google.com/maps/place/?q=place_id:ChIJb1NRIRmAkGsRniaJFqauKIw"
  },
  {
    "name": "Farrelly House",
    "address": "73 Magellan St, Lismore NSW 2480, Australia",
    "suburb": "Lismore NSW 2480",
    "state": "NSW",
    "rating": null,
    "reviews": 0,
    "lat": -28.8096535,
    "lng": 153.2771938,
    "place_id": "ChIJQ9viKxmekGsRS21Qhr7EHYY",
    "maps_url": "https://www.google.com/maps/place/?q=place_id:ChIJQ9viKxmekGsRS21Qhr7EHYY"
  },
  {
    "name": "Music Bizarre",
    "address": "60 Magellan St, Lismore NSW 2480, Australia",
    "suburb": "Lismore NSW 2480",
    "state": "NSW",
    "rating": 4.3,
    "reviews": 32,
    "lat": -28.8090068,
    "lng": 153.2766148,
    "place_id": "ChIJ7zXFMRmekGsRko0yc8Ebg-U",
    "maps_url": "https://www.google.com/maps/place/?q=place_id:ChIJ7zXFMRmekGsRko0yc8Ebg-U"
  },
  {
    "name": "Lismore Library",
    "address": "110 Magellan St, Lismore NSW 2480, Australia",
    "suburb": "Lismore NSW 2480",
    "state": "NSW",
    "rating": 4.5,
    "reviews": 61,
    "lat": -28.8100652,
    "lng": 153.2787941,
    "place_id": "ChIJOV2Pjx-ekGsRee1auG4x0Hw",
    "maps_url": "https://www.google.com/maps/place/?q=place_id:ChIJOV2Pjx-ekGsRee1auG4x0Hw"
  },
  {
    "name": "The Catholic Book & Gift Shop",
    "address": "73 Magellan St, Lismore NSW 2480, Australia",
    "suburb": "Lismore NSW 2480",
    "state": "NSW",
    "rating": null,
    "reviews": 0,
    "lat": -28.8096757,
    "lng": 153.2772021,
    "place_id": "ChIJXTv7KxmekGsRNkZzVPG5Iew",
    "maps_url": "https://www.google.com/maps/place/?q=place_id:ChIJXTv7KxmekGsRNkZzVPG5Iew"
  },
  {
    "name": "QBD Books Tweed Heads South",
    "address": "Shop 248/54 Minjungbal Dr, Tweed Heads South NSW 2486, Australia",
    "suburb": "Tweed Heads South NSW 2486",
    "state": "NSW",
    "rating": 4.4,
    "reviews": 117,
    "lat": -28.2007696,
    "lng": 153.5461686,
    "place_id": "ChIJ_QqPEMj_kGsRjTpcDBW3IzY",
    "maps_url": "https://www.google.com/maps/place/?q=place_id:ChIJ_QqPEMj_kGsRjTpcDBW3IzY"
  },
  {
    "name": "Dymocks Melbourne",
    "address": "Lower Ground Floor, 234 Collins St, Melbourne VIC 3000, Australia",
    "suburb": "234 Collins St",
    "state": "VIC",
    "rating": 4.6,
    "reviews": 3062,
    "lat": -37.8155476,
    "lng": 144.9657485,
    "place_id": "ChIJLYDbyLVC1moRmMqEcrDyw34",
    "maps_url": "https://www.google.com/maps/place/?q=place_id:ChIJLYDbyLVC1moRmMqEcrDyw34"
  },
  {
    "name": "The Paperback Bookshop",
    "address": "60 Bourke St, Melbourne VIC 3000, Australia",
    "suburb": "Melbourne VIC 3000",
    "state": "VIC",
    "rating": 4.8,
    "reviews": 485,
    "lat": -37.811586,
    "lng": 144.971261,
    "place_id": "ChIJ3wtzvMhC1moR7jIhJ2oKAjw",
    "maps_url": "https://www.google.com/maps/place/?q=place_id:ChIJ3wtzvMhC1moR7jIhJ2oKAjw"
  },
  {
    "name": "QBD Books Melbourne Emporium",
    "address": "Shop 3 - 001/287 Lonsdale St, Melbourne VIC 3000, Australia",
    "suburb": "Melbourne VIC 3000",
    "state": "VIC",
    "rating": 4.4,
    "reviews": 183,
    "lat": -37.8123779,
    "lng": 144.9643345,
    "place_id": "ChIJ-1zC1fVD1moRBnjvfKVxkBI",
    "maps_url": "https://www.google.com/maps/place/?q=place_id:ChIJ-1zC1fVD1moRBnjvfKVxkBI"
  },
  {
    "name": "Hill of Content Bookshop",
    "address": "Shop 1/32 Bourke St, Melbourne VIC 3000, Australia",
    "suburb": "Melbourne VIC 3000",
    "state": "VIC",
    "rating": 4.7,
    "reviews": 391,
    "lat": -37.8114288,
    "lng": 144.9720186,
    "place_id": "ChIJLczh6shC1moRkg_7IjdgiTA",
    "maps_url": "https://www.google.com/maps/place/?q=place_id:ChIJLczh6shC1moRkg_7IjdgiTA"
  },
  {
    "name": "Metropolis Bookshop",
    "address": "Curtin, House Level 3/252 Swanston St, Melbourne VIC 3000, Australia",
    "suburb": "House Level 3/252 Swanston St",
    "state": "VIC",
    "rating": 4.7,
    "reviews": 167,
    "lat": -37.8119942,
    "lng": 144.9652513,
    "place_id": "ChIJA9SLQMpC1moRigFZtNlV7ig",
    "maps_url": "https://www.google.com/maps/place/?q=place_id:ChIJA9SLQMpC1moRigFZtNlV7ig"
  },
  {
    "name": "City Basement Books",
    "address": "342 Flinders St, Melbourne VIC 3000, Australia",
    "suburb": "Melbourne VIC 3000",
    "state": "VIC",
    "rating": 4.7,
    "reviews": 383,
    "lat": -37.8184462,
    "lng": 144.9631472,
    "place_id": "ChIJRYtTErNC1moR-WpM2j0PWVA",
    "maps_url": "https://www.google.com/maps/place/?q=place_id:ChIJRYtTErNC1moR-WpM2j0PWVA"
  },
  {
    "name": "Readings Emporium",
    "address": "Shop 1 - 016/287 Lonsdale St, Melbourne VIC 3000, Australia",
    "suburb": "Melbourne VIC 3000",
    "state": "VIC",
    "rating": 4.7,
    "reviews": 404,
    "lat": -37.8129199,
    "lng": 144.9634254,
    "place_id": "ChIJQ7cYxjtD1moRDqQHJaCrEUc",
    "maps_url": "https://www.google.com/maps/place/?q=place_id:ChIJQ7cYxjtD1moRDqQHJaCrEUc"
  },
  {
    "name": "Book Grocer",
    "address": "455 Bourke St, Melbourne VIC 3000, Australia",
    "suburb": "Melbourne VIC 3000",
    "state": "VIC",
    "rating": 4.6,
    "reviews": 260,
    "lat": -37.8152363,
    "lng": 144.9603675,
    "place_id": "ChIJ70Z4OEtd1moRF2wCmQeiKBI",
    "maps_url": "https://www.google.com/maps/place/?q=place_id:ChIJ70Z4OEtd1moRF2wCmQeiKBI"
  },
  {
    "name": "Mary Martin Bookshop",
    "address": "G17/3 Southgate Ave, Southbank VIC 3006, Australia",
    "suburb": "Southbank VIC 3006",
    "state": "VIC",
    "rating": 4.6,
    "reviews": 148,
    "lat": -37.8203893,
    "lng": 144.9656038,
    "place_id": "ChIJY8py17NC1moRC2oH7FawHH0",
    "maps_url": "https://www.google.com/maps/place/?q=place_id:ChIJY8py17NC1moRC2oH7FawHH0"
  },
  {
    "name": "Readings Carlton",
    "address": "309 Lygon St, Carlton VIC 3053, Australia",
    "suburb": "Carlton VIC 3053",
    "state": "VIC",
    "rating": 4.7,
    "reviews": 1760,
    "lat": -37.79799939999999,
    "lng": 144.96711,
    "place_id": "ChIJZWdchNZC1moROf5x8ga3fhU",
    "maps_url": "https://www.google.com/maps/place/?q=place_id:ChIJZWdchNZC1moROf5x8ga3fhU"
  },
  {
    "name": "Coventry Bookstore",
    "address": "Level 1/265 Coventry St, South Melbourne VIC 3205, Australia",
    "suburb": "South Melbourne VIC 3205",
    "state": "VIC",
    "rating": 4.7,
    "reviews": 129,
    "lat": -37.8323676,
    "lng": 144.9589304,
    "place_id": "ChIJyWTMU_5n1moRJZuHm2ZHFg0",
    "maps_url": "https://www.google.com/maps/place/?q=place_id:ChIJyWTMU_5n1moRJZuHm2ZHFg0"
  },
  {
    "name": "Theosophical Society Bookshop",
    "address": "234 Flinders Ln, Melbourne VIC 3000, Australia",
    "suburb": "Melbourne VIC 3000",
    "state": "VIC",
    "rating": 4.5,
    "reviews": 133,
    "lat": -37.816564,
    "lng": 144.966261,
    "place_id": "ChIJ1X8vx8lC1moRmHw4ICGVqnQ",
    "maps_url": "https://www.google.com/maps/place/?q=place_id:ChIJ1X8vx8lC1moRmHw4ICGVqnQ"
  },
  {
    "name": "Amplify Bookstore",
    "address": "55 Peel St, West Melbourne VIC 3003, Australia",
    "suburb": "West Melbourne VIC 3003",
    "state": "VIC",
    "rating": 4.8,
    "reviews": 102,
    "lat": -37.8069,
    "lng": 144.95548,
    "place_id": "ChIJ45RViz5d1moRI7J2D_6hsh4",
    "maps_url": "https://www.google.com/maps/place/?q=place_id:ChIJ45RViz5d1moRI7J2D_6hsh4"
  },
  {
    "name": "Asphalt Books",
    "address": "Nicholas Building, Level 4, Room 23/37 Swanston St, Melbourne VIC 3000, Australia",
    "suburb": "Level 4",
    "state": "VIC",
    "rating": 4.8,
    "reviews": 45,
    "lat": -37.8167028,
    "lng": 144.9666895,
    "place_id": "ChIJQ91OqNhD1moRgb_g90uxKmY",
    "maps_url": "https://www.google.com/maps/place/?q=place_id:ChIJQ91OqNhD1moRgb_g90uxKmY"
  },
  {
    "name": "Readings State Library",
    "address": "285 Russell St, Melbourne VIC 3000, Australia",
    "suburb": "Melbourne VIC 3000",
    "state": "VIC",
    "rating": 4.6,
    "reviews": 137,
    "lat": -37.8095758,
    "lng": 144.9663563,
    "place_id": "ChIJc6A8v8tC1moR3QNAYa4SBDg",
    "maps_url": "https://www.google.com/maps/place/?q=place_id:ChIJc6A8v8tC1moR3QNAYa4SBDg"
  },
  {
    "name": "Books for Cooks",
    "address": "Queen Victoria Market, 115-121 Victoria St, Melbourne VIC 3000, Australia",
    "suburb": "115-121 Victoria St",
    "state": "VIC",
    "rating": 4.8,
    "reviews": 145,
    "lat": -37.80622109999999,
    "lng": 144.9574802,
    "place_id": "ChIJ1Sis7d1C1moR2BjVdok0YIo",
    "maps_url": "https://www.google.com/maps/place/?q=place_id:ChIJ1Sis7d1C1moR2BjVdok0YIo"
  },
  {
    "name": "North Melbourne Books",
    "address": "546 Queensberry St, North Melbourne VIC 3051, Australia",
    "suburb": "North Melbourne VIC 3051",
    "state": "VIC",
    "rating": 4.5,
    "reviews": 59,
    "lat": -37.802781,
    "lng": 144.949113,
    "place_id": "ChIJUadmGTpd1moR094BR-iogmE",
    "maps_url": "https://www.google.com/maps/place/?q=place_id:ChIJUadmGTpd1moR094BR-iogmE"
  },
  {
    "name": "Elsewhere Books 別處書社",
    "address": "3rd Floor/139 Franklin St, Melbourne VIC 3000, Australia",
    "suburb": "Melbourne VIC 3000",
    "state": "VIC",
    "rating": 5,
    "reviews": 6,
    "lat": -37.808538,
    "lng": 144.959926,
    "place_id": "ChIJBdh9m75d1moRWfiy0DhJb7k",
    "maps_url": "https://www.google.com/maps/place/?q=place_id:ChIJBdh9m75d1moRWfiy0DhJb7k"
  },
  {
    "name": "Central Catholic Bookshop",
    "address": "322 Lonsdale St, Melbourne VIC 3000, Australia",
    "suburb": "Melbourne VIC 3000",
    "state": "VIC",
    "rating": 4.7,
    "reviews": 204,
    "lat": -37.8118768,
    "lng": 144.9629118,
    "place_id": "ChIJ8apIkcpC1moR4I4BH5qr68M",
    "maps_url": "https://www.google.com/maps/place/?q=place_id:ChIJ8apIkcpC1moR4I4BH5qr68M"
  },
  {
    "name": "World Food Books",
    "address": "The Nicholas Building Room 5, Level 6/37 Swanston St, Melbourne VIC 3000, Australia",
    "suburb": "Level 6/37 Swanston St",
    "state": "VIC",
    "rating": 4.8,
    "reviews": 18,
    "lat": -37.8167323,
    "lng": 144.9667418,
    "place_id": "ChIJYdwMhLZC1moRf6xEclEDyRA",
    "maps_url": "https://www.google.com/maps/place/?q=place_id:ChIJYdwMhLZC1moRf6xEclEDyRA"
  },
  {
    "name": "Readings St Kilda",
    "address": "112 Acland St, St Kilda VIC 3182, Australia",
    "suburb": "St Kilda VIC 3182",
    "state": "VIC",
    "rating": 4.6,
    "reviews": 461,
    "lat": -37.8683321,
    "lng": 144.9797755,
    "place_id": "ChIJO_1B5mZo1moRyhopFFyXwlY",
    "maps_url": "https://www.google.com/maps/place/?q=place_id:ChIJO_1B5mZo1moRyhopFFyXwlY"
  },
  {
    "name": "Avenue Bookstore",
    "address": "91 Swan St, Richmond VIC 3121, Australia",
    "suburb": "Richmond VIC 3121",
    "state": "VIC",
    "rating": 4.8,
    "reviews": 155,
    "lat": -37.8251537,
    "lng": 144.9940772,
    "place_id": "ChIJnSk2gpJC1moR6C1wZi_EDl0",
    "maps_url": "https://www.google.com/maps/place/?q=place_id:ChIJnSk2gpJC1moR6C1wZi_EDl0"
  },
  {
    "name": "Dymocks Victoria Gardens",
    "address": "Victoria Gardens Shopping Centre, Store SP013/620 Victoria St, Richmond VIC 3121, Australia",
    "suburb": "Store SP013/620 Victoria St",
    "state": "VIC",
    "rating": 4.4,
    "reviews": 108,
    "lat": -37.813387,
    "lng": 145.0106943,
    "place_id": "ChIJv-n5dVRC1moRcFKoOoiyFNE",
    "maps_url": "https://www.google.com/maps/place/?q=place_id:ChIJv-n5dVRC1moRcFKoOoiyFNE"
  },
  {
    "name": "The Brunswick Street Bookstore",
    "address": "305 Brunswick St, Fitzroy VIC 3065, Australia",
    "suburb": "Fitzroy VIC 3065",
    "state": "VIC",
    "rating": 4.6,
    "reviews": 120,
    "lat": -37.7979179,
    "lng": 144.978433,
    "place_id": "ChIJFUk5wSBD1moRP3NIFnr4DCY",
    "maps_url": "https://www.google.com/maps/place/?q=place_id:ChIJFUk5wSBD1moRP3NIFnr4DCY"
  },
  {
    "name": "Through the Looking Glass Fitzroy",
    "address": "341 Brunswick St, Fitzroy VIC 3065, Australia",
    "suburb": "Fitzroy VIC 3065",
    "state": "VIC",
    "rating": 4.7,
    "reviews": 29,
    "lat": -37.797008,
    "lng": 144.978494,
    "place_id": "ChIJnwwJOXRD1moRd8bAVWnI2K4",
    "maps_url": "https://www.google.com/maps/place/?q=place_id:ChIJnwwJOXRD1moRd8bAVWnI2K4"
  },
  {
    "name": "Already Read Bookshop",
    "address": "98 Scotchmer St, Fitzroy North VIC 3068, Australia",
    "suburb": "Fitzroy North VIC 3068",
    "state": "VIC",
    "rating": 4.7,
    "reviews": 93,
    "lat": -37.7832703,
    "lng": 144.9820731,
    "place_id": "ChIJUztBxj9D1moRNfyejHWyI1o",
    "maps_url": "https://www.google.com/maps/place/?q=place_id:ChIJUztBxj9D1moRNfyejHWyI1o"
  },
  {
    "name": "TERRAIN",
    "address": "101-103 Brunswick St, Fitzroy VIC 3065, Australia",
    "suburb": "Fitzroy VIC 3065",
    "state": "VIC",
    "rating": 4.9,
    "reviews": 28,
    "lat": -37.804457,
    "lng": 144.977212,
    "place_id": "ChIJHWM8GwBD1moRxU0_twQ5NzE",
    "maps_url": "https://www.google.com/maps/place/?q=place_id:ChIJHWM8GwBD1moRxU0_twQ5NzE"
  },
  {
    "name": "New International Bookshop",
    "address": "54 Victoria St, Carlton VIC 3053, Australia",
    "suburb": "Carlton VIC 3053",
    "state": "VIC",
    "rating": 4.8,
    "reviews": 52,
    "lat": -37.806369,
    "lng": 144.9662806,
    "place_id": "ChIJr4AZ1M1C1moR2frmpMsRXhk",
    "maps_url": "https://www.google.com/maps/place/?q=place_id:ChIJr4AZ1M1C1moR2frmpMsRXhk"
  },
  {
    "name": "The Little Bookroom",
    "address": "8 Village Ave, Brunswick East VIC 3057, Australia",
    "suburb": "Brunswick East VIC 3057",
    "state": "VIC",
    "rating": 4.8,
    "reviews": 195,
    "lat": -37.7718843,
    "lng": 144.978512,
    "place_id": "ChIJ-w_NND9D1moRdU96_CMthrQ",
    "maps_url": "https://www.google.com/maps/place/?q=place_id:ChIJ-w_NND9D1moRdU96_CMthrQ"
  },
  {
    "name": "Bookshop by Uro",
    "address": "Unit 5/30 Perry St, Collingwood VIC 3066, Australia",
    "suburb": "Collingwood VIC 3066",
    "state": "VIC",
    "rating": 4.5,
    "reviews": 27,
    "lat": -37.799823,
    "lng": 144.985617,
    "place_id": "ChIJe1PdNCFD1moRvklgnmDbRvc",
    "maps_url": "https://www.google.com/maps/place/?q=place_id:ChIJe1PdNCFD1moRvklgnmDbRvc"
  },
  {
    "name": "Perimeter Books",
    "address": "734 High St, Thornbury VIC 3071, Australia",
    "suburb": "Thornbury VIC 3071",
    "state": "VIC",
    "rating": 4.8,
    "reviews": 54,
    "lat": -37.756238,
    "lng": 145.001194,
    "place_id": "ChIJ7UmSZolE1moRd-zs-x54qLU",
    "maps_url": "https://www.google.com/maps/place/?q=place_id:ChIJ7UmSZolE1moRd-zs-x54qLU"
  },
  {
    "name": "Brunswick Bound",
    "address": "361 Sydney Rd, Brunswick VIC 3056, Australia",
    "suburb": "Brunswick VIC 3056",
    "state": "VIC",
    "rating": 4.7,
    "reviews": 293,
    "lat": -37.76914,
    "lng": 144.961479,
    "place_id": "ChIJlYcxsUxD1moRChxLNsS-A30",
    "maps_url": "https://www.google.com/maps/place/?q=place_id:ChIJlYcxsUxD1moRChxLNsS-A30"
  },
  {
    "name": "Book Grocer",
    "address": "263 High St, Northcote VIC 3070, Australia",
    "suburb": "Northcote VIC 3070",
    "state": "VIC",
    "rating": 4.5,
    "reviews": 114,
    "lat": -37.7726308,
    "lng": 144.9982045,
    "place_id": "ChIJeTiqc3xD1moRjrLTjdH5ugY",
    "maps_url": "https://www.google.com/maps/place/?q=place_id:ChIJeTiqc3xD1moRjrLTjdH5ugY"
  },
  {
    "name": "Bookery",
    "address": "9 Victoria St, Fitzroy VIC 3065, Australia",
    "suburb": "Fitzroy VIC 3065",
    "state": "VIC",
    "rating": 3.9,
    "reviews": 42,
    "lat": -37.798606,
    "lng": 144.975634,
    "place_id": "ChIJnaSlNbRC1moRzn8Ywfgoh90",
    "maps_url": "https://www.google.com/maps/place/?q=place_id:ChIJnaSlNbRC1moRzn8Ywfgoh90"
  },
  {
    "name": "Zetta Florence",
    "address": "197B Brunswick St, Fitzroy VIC 3065, Australia",
    "suburb": "Fitzroy VIC 3065",
    "state": "VIC",
    "rating": 4.7,
    "reviews": 323,
    "lat": -37.8014891,
    "lng": 144.9776918,
    "place_id": "ChIJnypxutoT1moRwQiLszE_ULk",
    "maps_url": "https://www.google.com/maps/place/?q=place_id:ChIJnypxutoT1moRwQiLszE_ULk"
  },
  {
    "name": "Happy Valley Shop",
    "address": "294 Smith St, Collingwood VIC 3066, Australia",
    "suburb": "Collingwood VIC 3066",
    "state": "VIC",
    "rating": 4.9,
    "reviews": 1452,
    "lat": -37.8003876,
    "lng": 144.984227,
    "place_id": "ChIJU1Q37x9D1moRC7kbBdPs4K8",
    "maps_url": "https://www.google.com/maps/place/?q=place_id:ChIJU1Q37x9D1moRC7kbBdPs4K8"
  },
  {
    "name": "The Chestnut Tree Bookshop",
    "address": "542 Barkly St, West Footscray VIC 3012, Australia",
    "suburb": "West Footscray VIC 3012",
    "state": "VIC",
    "rating": 4.9,
    "reviews": 240,
    "lat": -37.797438,
    "lng": 144.878974,
    "place_id": "ChIJ1fYmd6Nd1moRoCI6Hvab4H8",
    "maps_url": "https://www.google.com/maps/place/?q=place_id:ChIJ1fYmd6Nd1moRoCI6Hvab4H8"
  },
  {
    "name": "The Sun Bookshop",
    "address": "10 Ballarat St, Yarraville VIC 3013, Australia",
    "suburb": "Yarraville VIC 3013",
    "state": "VIC",
    "rating": 4.7,
    "reviews": 133,
    "lat": -37.8160442,
    "lng": 144.8909529,
    "place_id": "ChIJs1A0tVxn1moRHIyCNBi4eOw",
    "maps_url": "https://www.google.com/maps/place/?q=place_id:ChIJs1A0tVxn1moRHIyCNBi4eOw"
  },
  {
    "name": "Seddon Book Alley",
    "address": "107 Victoria St, Seddon VIC 3011, Australia",
    "suburb": "Seddon VIC 3011",
    "state": "VIC",
    "rating": 4.8,
    "reviews": 32,
    "lat": -37.8061776,
    "lng": 144.8921097,
    "place_id": "ChIJR4RSmfVd1moRgBRz7GpVHZk",
    "maps_url": "https://www.google.com/maps/place/?q=place_id:ChIJR4RSmfVd1moRgBRz7GpVHZk"
  },
  {
    "name": "Khai Tri Music & Bookshop",
    "address": "32 Droop St, Footscray VIC 3011, Australia",
    "suburb": "Footscray VIC 3011",
    "state": "VIC",
    "rating": 4,
    "reviews": 2,
    "lat": -37.7978759,
    "lng": 144.8984517,
    "place_id": "ChIJ3wxEQJJd1moRclRS_DXqYe8",
    "maps_url": "https://www.google.com/maps/place/?q=place_id:ChIJ3wxEQJJd1moRclRS_DXqYe8"
  },
  {
    "name": "Through the Looking Glass Sassafras",
    "address": "3/383 Mount Dandenong Tourist Rd, Sassafras VIC 3787, Australia",
    "suburb": "Sassafras VIC 3787",
    "state": "VIC",
    "rating": 4.9,
    "reviews": 40,
    "lat": -37.8624586,
    "lng": 145.3538377,
    "place_id": "ChIJSUn7Ozsl1moRJYRzZhIxcng",
    "maps_url": "https://www.google.com/maps/place/?q=place_id:ChIJSUn7Ozsl1moRJYRzZhIxcng"
  },
  {
    "name": "Tidosa",
    "address": "Unit 1/1 McNab Ct, Dandenong VIC 3175, Australia",
    "suburb": "Dandenong VIC 3175",
    "state": "VIC",
    "rating": 5,
    "reviews": 5,
    "lat": -37.9702465,
    "lng": 145.2054201,
    "place_id": "ChIJd9mc7Cxr1moRrgDD_L7cgzo",
    "maps_url": "https://www.google.com/maps/place/?q=place_id:ChIJd9mc7Cxr1moRrgDD_L7cgzo"
  },
  {
    "name": "Can Do Books",
    "address": "39 Clifford St, Huntingdale VIC 3166, Australia",
    "suburb": "Huntingdale VIC 3166",
    "state": "VIC",
    "rating": 5,
    "reviews": 31,
    "lat": -37.90973,
    "lng": 145.1098285,
    "place_id": "ChIJT1de79to1moReFDlv-Cizco",
    "maps_url": "https://www.google.com/maps/place/?q=place_id:ChIJT1de79to1moReFDlv-Cizco"
  },
  {
    "name": "Belgrave Book Barn",
    "address": "1630 Burwood Hwy, Belgrave VIC 3160, Australia",
    "suburb": "Belgrave VIC 3160",
    "state": "VIC",
    "rating": 4.7,
    "reviews": 109,
    "lat": -37.9097109,
    "lng": 145.3522845,
    "place_id": "ChIJ13MMcgwj1moRWLgjULart7s",
    "maps_url": "https://www.google.com/maps/place/?q=place_id:ChIJ13MMcgwj1moRWLgjULart7s"
  },
  {
    "name": "Dandenong Library",
    "address": "225 Lonsdale St, Dandenong VIC 3175, Australia",
    "suburb": "Dandenong VIC 3175",
    "state": "VIC",
    "rating": 4.3,
    "reviews": 288,
    "lat": -37.9886875,
    "lng": 145.2135006,
    "place_id": "ChIJRXlSmP0T1moRpYwjtZqUass",
    "maps_url": "https://www.google.com/maps/place/?q=place_id:ChIJRXlSmP0T1moRpYwjtZqUass"
  },
  {
    "name": "QBD Books Fountain Gate",
    "address": "Shop 1081/352 Princes Hwy, Narre Warren VIC 3805, Australia",
    "suburb": "Narre Warren VIC 3805",
    "state": "VIC",
    "rating": 4.2,
    "reviews": 354,
    "lat": -38.0179806,
    "lng": 145.3033122,
    "place_id": "ChIJ_____68Q1moRMj9Wr9gk5bk",
    "maps_url": "https://www.google.com/maps/place/?q=place_id:ChIJ_____68Q1moRMj9Wr9gk5bk"
  },
  {
    "name": "Andisha cultural centre & Farsi Book store",
    "address": "200 Thomas St, Dandenong VIC 3175, Australia",
    "suburb": "Dandenong VIC 3175",
    "state": "VIC",
    "rating": 4.6,
    "reviews": 9,
    "lat": -37.9878005,
    "lng": 145.2130181,
    "place_id": "ChIJF3Pg-wEV1moRXDD4ke5eG-8",
    "maps_url": "https://www.google.com/maps/place/?q=place_id:ChIJF3Pg-wEV1moRXDD4ke5eG-8"
  },
  {
    "name": "Robinsons Bookshop Frankston",
    "address": "3/11 Station Street Mall, Frankston VIC 3199, Australia",
    "suburb": "Frankston VIC 3199",
    "state": "VIC",
    "rating": 4.5,
    "reviews": 440,
    "lat": -38.1428377,
    "lng": 145.124164,
    "place_id": "ChIJk0UGhdl01moRK5MzMMP8TUE",
    "maps_url": "https://www.google.com/maps/place/?q=place_id:ChIJk0UGhdl01moRK5MzMMP8TUE"
  },
  {
    "name": "QBD Books Bayside",
    "address": "28 Beach St, Frankston VIC 3199, Australia",
    "suburb": "Frankston VIC 3199",
    "state": "VIC",
    "rating": 5,
    "reviews": 10,
    "lat": -38.140261,
    "lng": 145.1248606,
    "place_id": "ChIJEYlLXOV11moRn5OgO3wZVdY",
    "maps_url": "https://www.google.com/maps/place/?q=place_id:ChIJEYlLXOV11moRn5OgO3wZVdY"
  },