[
  {
    "name": "Strike Bowling Darling Harbour",
    "address": "22 The Promenade, Sydney NSW 2000, Australia",
    "suburb": "Sydney NSW 2000",
    "state": "NSW",
    "rating": 4.2,
    "reviews": 1841,
    "lat": -33.8672213,
    "lng": 151.201675,
    "place_id": "ChIJOQSDf_VC1moR4ynBZdTtHXA",
    "maps_url": "https://www.google.com/maps/place/?q=place_id:ChIJOQSDf_VC1moR4ynBZdTtHXA"
  },
  {
    "name": "Manhattan Superbowl",
    "address": "549 Gardeners Rd, Mascot NSW 2020, Australia",
    "suburb": "Mascot NSW 2020",
    "state": "NSW",
    "rating": 4.6,
    "reviews": 1098,
    "lat": -33.9217033,
    "lng": 151.1970978,
    "place_id": "ChIJLaBKKqmxEmsRaK34aieDcrY",
    "maps_url": "https://www.google.com/maps/place/?q=place_id:ChIJLaBKKqmxEmsRaK34aieDcrY"
  },
  {
    "name": "Strike Bowling Entertainment Quarter",
    "address": "207/122 Lang Rd, Sydney NSW 2021, Australia",
    "suburb": "Sydney NSW 2021",
    "state": "NSW",
    "rating": 4.2,
    "reviews": 757,
    "lat": -33.8945911,
    "lng": 151.2272053,
    "place_id": "ChIJB3XF7v2xEmsR6fRyg4tHeeA",
    "maps_url": "https://www.google.com/maps/place/?q=place_id:ChIJB3XF7v2xEmsR6fRyg4tHeeA"
  },
  {
    "name": "Kingpin North Strathfield",
    "address": "3/5 George St, North Strathfield NSW 2137, Australia",
    "suburb": "North Strathfield NSW 2137",
    "state": "NSW",
    "rating": 4.6,
    "reviews": 4866,
    "lat": -33.8636807,
    "lng": 151.0892616,
    "place_id": "ChIJWftGVim7EmsRHbnS054ik1c",
    "maps_url": "https://www.google.com/maps/place/?q=place_id:ChIJWftGVim7EmsRHbnS054ik1c"
  },
  {
    "name": "Strike Bowling Chatswood",
    "address": "Level 4/65 Albert Ave, Chatswood NSW 2067, Australia",
    "suburb": "Chatswood NSW 2067",
    "state": "NSW",
    "rating": 4.4,
    "reviews": 1143,
    "lat": -33.7980889,
    "lng": 151.182479,
    "place_id": "ChIJi7yA3RxakWsRGkvslAMkKZM",
    "maps_url": "https://www.google.com/maps/place/?q=place_id:ChIJi7yA3RxakWsRGkvslAMkKZM"
  },
  {
    "name": "Strike Bowling Alexandria",
    "address": "Sydney Corporate Park, 75 O'Riordan St, Alexandria NSW 2015, Australia",
    "suburb": "75 O'Riordan St",
    "state": "NSW",
    "rating": 4.4,
    "reviews": 50,
    "lat": -33.9166172,
    "lng": 151.1927525,
    "place_id": "ChIJ1RkHL0CxEmsRLOJ1eYZ9Tuk",
    "maps_url": "https://www.google.com/maps/place/?q=place_id:ChIJ1RkHL0CxEmsRLOJ1eYZ9Tuk"
  },
  {
    "name": "Dullboy's Social Co",
    "address": "326 Hillsborough Rd, Warners Bay NSW 2282, Australia",
    "suburb": "Warners Bay NSW 2282",
    "state": "NSW",
    "rating": 4.3,
    "reviews": 1033,
    "lat": -32.9667029,
    "lng": 151.655913,
    "place_id": "ChIJS9ozy0k9c2sRnRxPytmYN68",
    "maps_url": "https://www.google.com/maps/place/?q=place_id:ChIJS9ozy0k9c2sRnRxPytmYN68"
  },
  {
    "name": "Strike Bowling Charlestown",
    "address": "201/30 Pearson St, Charlestown NSW 2290, Australia",
    "suburb": "Charlestown NSW 2290",
    "state": "NSW",
    "rating": 4.4,
    "reviews": 525,
    "lat": -32.965215,
    "lng": 151.694543,
    "place_id": "ChIJ02jGZIw9c2sRqVyHol8CRr0",
    "maps_url": "https://www.google.com/maps/place/?q=place_id:ChIJ02jGZIw9c2sRqVyHol8CRr0"
  },
  {
    "name": "Lane7 The Gate (Newcastle)",
    "address": "Newgate St, Newcastle upon Tyne NE1 5TG, UK",
    "suburb": "Newcastle upon Tyne NE1 5TG",
    "state": "NSW",
    "rating": 5,
    "reviews": 1664,
    "lat": 54.9722415,
    "lng": -1.6174159,
    "place_id": "ChIJxUOfBsdxfkgRXH45fizxJXg",
    "maps_url": "https://www.google.com/maps/place/?q=place_id:ChIJxUOfBsdxfkgRXH45fizxJXg"
  },
  {
    "name": "Lane7 Newcastle",
    "address": "80-90 St James' Blvd, Newcastle upon Tyne NE1 4BN, UK",
    "suburb": "Newcastle upon Tyne NE1 4BN",
    "state": "NSW",
    "rating": 4.6,
    "reviews": 3433,
    "lat": 54.96776329999999,
    "lng": -1.6236571,
    "place_id": "ChIJ-2b5g0t3fkgRtRgFfrxtGLs",
    "maps_url": "https://www.google.com/maps/place/?q=place_id:ChIJ-2b5g0t3fkgRtRgFfrxtGLs"
  },
  {
    "name": "Tenpin Bowling",
    "address": "326 Hillsborough Rd, Warners Bay NSW 2282, Australia",
    "suburb": "Warners Bay NSW 2282",
    "state": "NSW",
    "rating": 4.1,
    "reviews": 17,
    "lat": -32.9666918,
    "lng": 151.6560124,
    "place_id": "ChIJhbCqYqs9c2sRM2pjttD95Qs",
    "maps_url": "https://www.google.com/maps/place/?q=place_id:ChIJhbCqYqs9c2sRM2pjttD95Qs"
  },
  {
    "name": "Terrace Strike Zone",
    "address": "1 Leisure Way, Raymond Terrace NSW 2324, Australia",
    "suburb": "Raymond Terrace NSW 2324",
    "state": "NSW",
    "rating": 4.3,
    "reviews": 250,
    "lat": -32.7594444,
    "lng": 151.7838889,
    "place_id": "ChIJ8Y-BGiZpc2sRFU9giRI68ho",
    "maps_url": "https://www.google.com/maps/place/?q=place_id:ChIJ8Y-BGiZpc2sRFU9giRI68ho"
  },
  {
    "name": "Salamander Super Strike",
    "address": "Shop 2/270 Sandy Point Rd, Salamander Bay NSW 2317, Australia",
    "suburb": "Salamander Bay NSW 2317",
    "state": "NSW",
    "rating": 4.4,
    "reviews": 172,
    "lat": -32.7337997,
    "lng": 152.1089427,
    "place_id": "ChIJW9_gEEaCc2sRolFHZ7SWrec",
    "maps_url": "https://www.google.com/maps/place/?q=place_id:ChIJW9_gEEaCc2sRolFHZ7SWrec"
  },
  {
    "name": "Timezone Kotara",
    "address": "Park Ave, Kotara NSW 2289, Australia",
    "suburb": "Kotara NSW 2289",
    "state": "NSW",
    "rating": 4.7,
    "reviews": 1049,
    "lat": -32.9414761,
    "lng": 151.7115057,
    "place_id": "ChIJnbTi5xMVc2sRq6kexqMRoJg",
    "maps_url": "https://www.google.com/maps/place/?q=place_id:ChIJnbTi5xMVc2sRq6kexqMRoJg"
  },
  {
    "name": "Dullboys Rutherford",
    "address": "57 Shipley Dr, Rutherford NSW 2320, Australia",
    "suburb": "Rutherford NSW 2320",
    "state": "NSW",
    "rating": 4.3,
    "reviews": 501,
    "lat": -32.7110122,
    "lng": 151.5095128,
    "place_id": "ChIJ4_RI5V5Pc2sRukhFlJNLC6Q",
    "maps_url": "https://www.google.com/maps/place/?q=place_id:ChIJ4_RI5V5Pc2sRukhFlJNLC6Q"
  },
  {
    "name": "Lowlands Bowling Club",
    "address": "98A Dawson St, Cooks Hill NSW 2300, Australia",
    "suburb": "Cooks Hill NSW 2300",
    "state": "NSW",
    "rating": 4.3,
    "reviews": 278,
    "lat": -32.9340064,
    "lng": 151.7672602,
    "place_id": "ChIJAAAAAEQUc2sRWB2kFfK9VOQ",
    "maps_url": "https://www.google.com/maps/place/?q=place_id:ChIJAAAAAEQUc2sRWB2kFfK9VOQ"
  },
  {
    "name": "Adamstown Bowling Club",
    "address": "504 Glebe Rd, Adamstown NSW 2289, Australia",
    "suburb": "Adamstown NSW 2289",
    "state": "NSW",
    "rating": 3.9,
    "reviews": 358,
    "lat": -32.9348344,
    "lng": 151.7311833,
    "place_id": "ChIJC3-8usMVc2sRCrYaTs-P0i0",
    "maps_url": "https://www.google.com/maps/place/?q=place_id:ChIJC3-8usMVc2sRCrYaTs-P0i0"
  },
  {
    "name": "Club Lambton",
    "address": "51 Karoola Rd, Lambton NSW 2299, Australia",
    "suburb": "Lambton NSW 2299",
    "state": "NSW",
    "rating": 4.2,
    "reviews": 124,
    "lat": -32.9142261,
    "lng": 151.7122415,
    "place_id": "ChIJjacjPpAVc2sRSzZlAvGBNbI",
    "maps_url": "https://www.google.com/maps/place/?q=place_id:ChIJjacjPpAVc2sRSzZlAvGBNbI"
  },
  {
    "name": "ML7",
    "address": "15 Northumberland St, Newcastle upon Tyne NE1 7AL, UK",
    "suburb": "Newcastle upon Tyne NE1 7AL",
    "state": "NSW",
    "rating": 4.9,
    "reviews": 110,
    "lat": 54.9746616,
    "lng": -1.6123494,
    "place_id": "ChIJreG4Ye5xfkgRe4uRoAX8P58",
    "maps_url": "https://www.google.com/maps/place/?q=place_id:ChIJreG4Ye5xfkgRe4uRoAX8P58"
  },
  {
    "name": "Timezone Charlestown",
    "address": "30 Pearson St, Charlestown NSW 2290, Australia",
    "suburb": "Charlestown NSW 2290",
    "state": "NSW",
    "rating": 4.6,
    "reviews": 731,
    "lat": -32.9651656,
    "lng": 151.693665,
    "place_id": "ChIJNSV2cIw9c2sR--rmYPTCEgI",
    "maps_url": "https://www.google.com/maps/place/?q=place_id:ChIJNSV2cIw9c2sR--rmYPTCEgI"
  },
  {
    "name": "Carrington Bowling Club",
    "address": "1C Cowper St N, Carrington NSW 2294, Australia",
    "suburb": "Carrington NSW 2294",
    "state": "NSW",
    "rating": 4.4,
    "reviews": 475,
    "lat": -32.9157621,
    "lng": 151.7644437,
    "place_id": "ChIJAQAApFgUc2sRvdhuFE2yMlU",
    "maps_url": "https://www.google.com/maps/place/?q=place_id:ChIJAQAApFgUc2sRvdhuFE2yMlU"
  },
  {
    "name": "Newcastle Entertainment Centre",
    "address": "Showground, Brown Rd, Broadmeadow NSW 2292, Australia",
    "suburb": "Brown Rd",
    "state": "NSW",
    "rating": 4,
    "reviews": 779,
    "lat": -32.9204513,
    "lng": 151.7368029,
    "place_id": "ChIJ79nBerAVc2sRhGvYSYkBVig",
    "maps_url": "https://www.google.com/maps/place/?q=place_id:ChIJ79nBerAVc2sRhGvYSYkBVig"
  },
  {
    "name": "Bar Beach Bowling & Sporting Club‎",
    "address": "29 Kilgour Ave, Merewether NSW 2291, Australia",
    "suburb": "Merewether NSW 2291",
    "state": "NSW",
    "rating": 4.1,
    "reviews": 216,
    "lat": -32.9423079,
    "lng": 151.763952,
    "place_id": "ChIJ8a1P4TsUc2sRmWRAXTISZvM",
    "maps_url": "https://www.google.com/maps/place/?q=place_id:ChIJ8a1P4TsUc2sRmWRAXTISZvM"
  },
  {
    "name": "Wests City",
    "address": "King St &, Union St, Newcastle West NSW 2302, Australia",
    "suburb": "Union St",
    "state": "NSW",
    "rating": 4.1,
    "reviews": 491,
    "lat": -32.9285049,
    "lng": 151.7665557,
    "place_id": "ChIJT0yzDUMUc2sRJeiUmdl3VAA",
    "maps_url": "https://www.google.com/maps/place/?q=place_id:ChIJT0yzDUMUc2sRJeiUmdl3VAA"
  },
  {
    "name": "Zone Bowling Castle Hill",
    "address": "3 Salisbury Rd, Castle Hill NSW 2154, Australia",
    "suburb": "Castle Hill NSW 2154",
    "state": "NSW",
    "rating": 4.4,
    "reviews": 1899,
    "lat": -33.7305277,
    "lng": 150.9739764,
    "place_id": "ChIJS9ZKpBU81moRtCCzzU2_fcA",
    "maps_url": "https://www.google.com/maps/place/?q=place_id:ChIJS9ZKpBU81moRtCCzzU2_fcA"
  },
  {
    "name": "Mayfield Bowling Club",
    "address": "Dangar Park, 2a Ingall St, Mayfield NSW 2304, Australia",
    "suburb": "2a Ingall St",
    "state": "NSW",
    "rating": 4.2,
    "reviews": 236,
    "lat": -32.90088679999999,
    "lng": 151.7462045,
    "place_id": "ChIJ____6wIVc2sRoZUzc283Xbg",
    "maps_url": "https://www.google.com/maps/place/?q=place_id:ChIJ____6wIVc2sRoZUzc283Xbg"
  },
  {
    "name": "Strike Bowling Wollongong",
    "address": "200 Crown St, Wollongong NSW 2500, Australia",
    "suburb": "Wollongong NSW 2500",
    "state": "NSW",
    "rating": 4.5,
    "reviews": 116,
    "lat": -34.4256786,
    "lng": 150.893627,
    "place_id": "ChIJRfjJ2EcZE2sRsn-RIzZTspw",
    "maps_url": "https://www.google.com/maps/place/?q=place_id:ChIJRfjJ2EcZE2sRsn-RIzZTspw"
  },
  {
    "name": "Gosford City Ten Pin Bowling",
    "address": "10 Brooks Ave, Wyoming NSW 2250, Australia",
    "suburb": "Wyoming NSW 2250",
    "state": "NSW",
    "rating": 4.3,
    "reviews": 341,
    "lat": -33.4010795,
    "lng": 151.3481177,
    "place_id": "ChIJiRe1K8PKcmsRobYjnwMUF-0",
    "maps_url": "https://www.google.com/maps/place/?q=place_id:ChIJiRe1K8PKcmsRobYjnwMUF-0"
  },
  {
    "name": "Bateau Bay Ten Pin Bowl",
    "address": "470 The Entrance Rd, Bateau Bay NSW 2261, Australia",
    "suburb": "Bateau Bay NSW 2261",
    "state": "NSW",
    "rating": 4.2,
    "reviews": 403,
    "lat": -33.3818231,
    "lng": 151.4745521,
    "place_id": "ChIJ77v_T9PIcmsRe8HuM45zsXY",
    "maps_url": "https://www.google.com/maps/place/?q=place_id:ChIJ77v_T9PIcmsRe8HuM45zsXY"
  },
  {
    "name": "Bateau Bay Bowling Club",
    "address": "5 Bias Ave, Bateau Bay NSW 2261, Australia",
    "suburb": "Bateau Bay NSW 2261",
    "state": "NSW",
    "rating": 4.3,
    "reviews": 1113,
    "lat": -33.375457,
    "lng": 151.48146,
    "place_id": "ChIJG2OHqjHPcmsRNzHh5XaAH3Q",
    "maps_url": "https://www.google.com/maps/place/?q=place_id:ChIJG2OHqjHPcmsRNzHh5XaAH3Q"
  },
  {
    "name": "Central Coast Leagues Club",
    "address": "1 Dane Dr, Gosford NSW 2250, Australia",
    "suburb": "Gosford NSW 2250",
    "state": "NSW",
    "rating": 4.1,
    "reviews": 2792,
    "lat": -33.4280162,
    "lng": 151.3399634,
    "place_id": "ChIJSQYjxafKcmsR-rFs694YvN4",
    "maps_url": "https://www.google.com/maps/place/?q=place_id:ChIJSQYjxafKcmsR-rFs694YvN4"
  },
  {
    "name": "Avoca Beach Bowling Club",
    "address": "362-364 Avoca Dr, Kincumber NSW 2251, Australia",
    "suburb": "Kincumber NSW 2251",
    "state": "NSW",
    "rating": 4.3,
    "reviews": 720,
    "lat": -33.4663061,
    "lng": 151.413184,
    "place_id": "ChIJKyPh3ua1cmsRTGKNRD4OuBg",
    "maps_url": "https://www.google.com/maps/place/?q=place_id:ChIJKyPh3ua1cmsRTGKNRD4OuBg"
  },
  {
    "name": "Ettalong Bowling Club",
    "address": "103 Springwood St, Ettalong Beach NSW 2257, Australia",
    "suburb": "Ettalong Beach NSW 2257",
    "state": "NSW",
    "rating": 4.3,
    "reviews": 974,
    "lat": -33.5137787,
    "lng": 151.3256495,
    "place_id": "ChIJiS_hKlWzcmsRp54Od6OMuyA",
    "maps_url": "https://www.google.com/maps/place/?q=place_id:ChIJiS_hKlWzcmsRp54Od6OMuyA"
  },
  {
    "name": "Halekulani Bowling Club",
    "address": "50 Natuna Ave, Budgewoi NSW 2262, Australia",
    "suburb": "Budgewoi NSW 2262",
    "state": "NSW",
    "rating": 4.2,
    "reviews": 554,
    "lat": -33.2319986,
    "lng": 151.5569839,
    "place_id": "ChIJoeNzcIHZcmsRQDLx-Wh9AQ8",
    "maps_url": "https://www.google.com/maps/place/?q=place_id:ChIJoeNzcIHZcmsRQDLx-Wh9AQ8"
  },
  {
    "name": "iPlay Tuggerah",
    "address": "Shop E08, Westfield Tuggerah, level 1/50 Wyong Rd, Tuggerah NSW 2259, Australia",
    "suburb": "Westfield Tuggerah",
    "state": "NSW",
    "rating": 3.7,
    "reviews": 56,
    "lat": -33.3077449,
    "lng": 151.4119118,
    "place_id": "ChIJT8PCfPDNcmsRidnAE_cdF8k",
    "maps_url": "https://www.google.com/maps/place/?q=place_id:ChIJT8PCfPDNcmsRidnAE_cdF8k"
  },
  {
    "name": "Terrigal Bowling Club",
    "address": "4 Wilson Rd, Terrigal NSW 2260, Australia",
    "suburb": "Terrigal NSW 2260",
    "state": "NSW",
    "rating": 4.2,
    "reviews": 262,
    "lat": -33.4498949,
    "lng": 151.445123,
    "place_id": "ChIJeU28v93JcmsRSIn5zat1WEA",
    "maps_url": "https://www.google.com/maps/place/?q=place_id:ChIJeU28v93JcmsRSIn5zat1WEA"
  },
  {
    "name": "The Greens The Entrance",
    "address": "10 Warrigal St, The Entrance NSW 2261, Australia",
    "suburb": "The Entrance NSW 2261",
    "state": "NSW",
    "rating": 4.4,
    "reviews": 370,
    "lat": -33.3477134,
    "lng": 151.49696,
    "place_id": "ChIJldymW3bPcmsRwnf_6Wn8OOM",
    "maps_url": "https://www.google.com/maps/place/?q=place_id:ChIJldymW3bPcmsRwnf_6Wn8OOM"
  },
  {
    "name": "Wyong Bowling Club",
    "address": "3 Panonia Rd, Wyong NSW 2259, Australia",
    "suburb": "Wyong NSW 2259",
    "state": "NSW",
    "rating": 4.1,
    "reviews": 339,
    "lat": -33.2914303,
    "lng": 151.4275808,
    "place_id": "ChIJCViekwPOcmsRHLx1Pf5AA74",
    "maps_url": "https://www.google.com/maps/place/?q=place_id:ChIJCViekwPOcmsRHLx1Pf5AA74"
  },
  {
    "name": "Kicks Tenpin & Arcade",
    "address": "level 3/1 Eels Pl, Parramatta NSW 2150, Australia",
    "suburb": "Parramatta NSW 2150",
    "state": "NSW",
    "rating": 4.4,
    "reviews": 161,
    "lat": -33.806523,
    "lng": 151.0017613,
    "place_id": "ChIJGbr_tzmjEmsRj3cxuNVByI4",
    "maps_url": "https://www.google.com/maps/place/?q=place_id:ChIJGbr_tzmjEmsRj3cxuNVByI4"
  },
  {
    "name": "Kingpin Melbourne Collins St",
    "address": "260 Collins St, Melbourne VIC 3000, Australia",
    "suburb": "Melbourne VIC 3000",
    "state": "VIC",
    "rating": 4.8,
    "reviews": 465,
    "lat": -37.8152725,
    "lng": 144.9650986,
    "place_id": "ChIJCVtJJHZD1moRQ2UoywO9k5I",
    "maps_url": "https://www.google.com/maps/place/?q=place_id:ChIJCVtJJHZD1moRQ2UoywO9k5I"
  },
  {
    "name": "Kingpin Crown",
    "address": "8 Whiteman St, Southbank VIC 3006, Australia",
    "suburb": "Southbank VIC 3006",
    "state": "VIC",
    "rating": 4.7,
    "reviews": 5151,
    "lat": -37.8249651,
    "lng": 144.9579819,
    "place_id": "ChIJ7RxppzCuEmsRolItnoEuFhQ",
    "maps_url": "https://www.google.com/maps/place/?q=place_id:ChIJ7RxppzCuEmsRolItnoEuFhQ"
  },
  {
    "name": "Strike Bowling Melbourne Central",
    "address": "Shop 305, Level 3 Melbourne Central/211 La Trobe St, Melbourne VIC 3000, Australia",
    "suburb": "Level 3 Melbourne Central/211 La Trobe St",
    "state": "VIC",
    "rating": 4.3,
    "reviews": 1507,
    "lat": -37.8105556,
    "lng": 144.9630556,
    "place_id": "ChIJd2qjU8c_1moRbpClQ_iqZSI",
    "maps_url": "https://www.google.com/maps/place/?q=place_id:ChIJd2qjU8c_1moRbpClQ_iqZSI"
  },
  {
    "name": "Strike Bowling QV",
    "address": "245 Little Lonsdale St, Melbourne VIC 3000, Australia",
    "suburb": "Melbourne VIC 3000",
    "state": "VIC",
    "rating": 4.4,
    "reviews": 1525,
    "lat": -37.810533,
    "lng": 144.9646288,
    "place_id": "ChIJ2TfysctC1moRFGufXaaY0Eo",
    "maps_url": "https://www.google.com/maps/place/?q=place_id:ChIJ2TfysctC1moRFGufXaaY0Eo"
  },
  {
    "name": "The Keys",
    "address": "Unit 1/188 Plenty Rd, Preston VIC 3072, Australia",
    "suburb": "Preston VIC 3072",
    "state": "VIC",
    "rating": 4.4,
    "reviews": 683,
    "lat": -37.7466315,
    "lng": 145.0060757,
    "place_id": "ChIJGZBsJYtE1moRV_BEfstXId0",
    "maps_url": "https://www.google.com/maps/place/?q=place_id:ChIJGZBsJYtE1moRV_BEfstXId0"
  },
  {
    "name": "Strike Bowling Docklands",
    "address": "440 Docklands Dr, Docklands VIC 3008, Australia",
    "suburb": "Docklands VIC 3008",
    "state": "VIC",
    "rating": 4.8,
    "reviews": 13,
    "lat": -37.8121361,
    "lng": 144.9365878,
    "place_id": "ChIJE16gRUZd1moR6MMq0bOKjWE",
    "maps_url": "https://www.google.com/maps/place/?q=place_id:ChIJE16gRUZd1moR6MMq0bOKjWE"
  },
  {
    "name": "Strike Bowling Highpoint",
    "address": "120-200 Rosamond Rd, Maribyrnong VIC 3032, Australia",
    "suburb": "Maribyrnong VIC 3032",
    "state": "VIC",
    "rating": 4.6,
    "reviews": 1829,
    "lat": -37.7738402,
    "lng": 144.8888541,
    "place_id": "ChIJV9eXps5d1moR5e0cmzriWfY",
    "maps_url": "https://www.google.com/maps/place/?q=place_id:ChIJV9eXps5d1moR5e0cmzriWfY"
  },
  {
    "name": "Strike",
    "address": "Shop 2-006/1341 Dandenong Rd Service Rd, Malvern East VIC 3148, Australia",
    "suburb": "Malvern East VIC 3148",
    "state": "VIC",
    "rating": 4.3,
    "reviews": 132,
    "lat": -37.8843901,
    "lng": 145.0825181,
    "place_id": "ChIJlWvigztr1moRs5dkZjv0PvE",
    "maps_url": "https://www.google.com/maps/place/?q=place_id:ChIJlWvigztr1moRs5dkZjv0PvE"
  },
  {
    "name": "Strike Bowling Point Cook",
    "address": "36 Wallace Ave, Point Cook VIC 3030, Australia",
    "suburb": "Point Cook VIC 3030",
    "state": "VIC",
    "rating": 4.4,
    "reviews": 1903,
    "lat": -37.8723016,
    "lng": 144.7477256,
    "place_id": "ChIJuR-TPJCJ1moR-ZF9HeI6f5s",
    "maps_url": "https://www.google.com/maps/place/?q=place_id:ChIJuR-TPJCJ1moR-ZF9HeI6f5s"
  },
  {
    "name": "Timezone & Zone Bowling Watergardens",
    "address": "Watergardens Town Centre, 399 Melton Hwy, Taylors Lakes VIC 3038, Australia",
    "suburb": "399 Melton Hwy",
    "state": "VIC",
    "rating": 4.6,
    "reviews": 1674,
    "lat": -37.7002105,
    "lng": 144.7752075,
    "place_id": "ChIJc9Z75_r11moRH2awdw5m6b8",
    "maps_url": "https://www.google.com/maps/place/?q=place_id:ChIJc9Z75_r11moRH2awdw5m6b8"
  },
  {
    "name": "Archie Brothers Melbourne Docklands",
    "address": "440 Docklands Dr, Docklands VIC 3008, Australia",
    "suburb": "Docklands VIC 3008",
    "state": "VIC",
    "rating": 4.6,
    "reviews": 2346,
    "lat": -37.8121338,
    "lng": 144.9365876,
    "place_id": "ChIJE-ghDWhd1moR-XadzRmUjTA",
    "maps_url": "https://www.google.com/maps/place/?q=place_id:ChIJE-ghDWhd1moR-XadzRmUjTA"
  },
  {
    "name": "Timezone & Zone Bowling Forest Hill",
    "address": "270 Canterbury Rd, Forest Hill VIC 3131, Australia",
    "suburb": "Forest Hill VIC 3131",
    "state": "VIC",
    "rating": 4.5,
    "reviews": 1554,
    "lat": -37.8358182,
    "lng": 145.1653742,
    "place_id": "ChIJcaJfADo_1moR8jfc67coHE0",
    "maps_url": "https://www.google.com/maps/place/?q=place_id:ChIJcaJfADo_1moR8jfc67coHE0"
  },
  {
    "name": "Strike Bowling Glen Waverley",
    "address": "285 Springvale Rd, Glen Waverley VIC 3150, Australia",
    "suburb": "Glen Waverley VIC 3150",
    "state": "VIC",
    "rating": 4.3,
    "reviews": 882,
    "lat": -37.881179,
    "lng": 145.1644248,
    "place_id": "ChIJ2TfysctC1moRU7I6hDFGpos",
    "maps_url": "https://www.google.com/maps/place/?q=place_id:ChIJ2TfysctC1moRU7I6hDFGpos"
  },
  {
    "name": "Oz Tenpin Greensborough Lanes",
    "address": "445 Grimshaw St, Bundoora VIC 3083, Australia",
    "suburb": "Bundoora VIC 3083",
    "state": "VIC",
    "rating": 4.1,
    "reviews": 483,
    "lat": -37.7022222,
    "lng": 145.0713889,
    "place_id": "ChIJL715gJVI1moRjbrsfz3okiw",
    "maps_url": "https://www.google.com/maps/place/?q=place_id:ChIJL715gJVI1moRjbrsfz3okiw"
  },
  {
    "name": "Xplosions Bar & Bowl",
    "address": "1/25 Bakery Square, Melton VIC 3337, Australia",
    "suburb": "Melton VIC 3337",
    "state": "VIC",
    "rating": 4.3,
    "reviews": 363,
    "lat": -37.6839675,
    "lng": 144.5848846,
    "place_id": "ChIJyd_iOo7t1moR0IilO2tQQJU",
    "maps_url": "https://www.google.com/maps/place/?q=place_id:ChIJyd_iOo7t1moR0IilO2tQQJU"
  },
  {
    "name": "Strike Bowling Eastland",
    "address": "171-175 Maroondah Hwy, Ringwood VIC 3134, Australia",
    "suburb": "Ringwood VIC 3134",
    "state": "VIC",
    "rating": 4.4,
    "reviews": 287,
    "lat": -37.814659,
    "lng": 145.2291862,
    "place_id": "ChIJeVP-0J871moRNk-eInwlEo4",
    "maps_url": "https://www.google.com/maps/place/?q=place_id:ChIJeVP-0J871moRNk-eInwlEo4"
  },
  {
    "name": "Oz Tenpin Epping",
    "address": "Unit 41/53 Miller St, Epping VIC 3076, Australia",
    "suburb": "Epping VIC 3076",
    "state": "VIC",
    "rating": 4.1,
    "reviews": 653,
    "lat": -37.6476564,
    "lng": 145.0164185,
    "place_id": "ChIJPXCW-e1O1moRmX27PKWLrwM",
    "maps_url": "https://www.google.com/maps/place/?q=place_id:ChIJPXCW-e1O1moRmX27PKWLrwM"
  },
  {
    "name": "Oz Tenpin Chirnside Park",
    "address": "25 Fletcher Rd, Chirnside Park VIC 3116, Australia",
    "suburb": "Chirnside Park VIC 3116",
    "state": "VIC",
    "rating": 4.3,
    "reviews": 508,
    "lat": -37.7610359,
    "lng": 145.3135528,
    "place_id": "ChIJvVIfN9Ux1moR4gJIkpa1eNw",
    "maps_url": "https://www.google.com/maps/place/?q=place_id:ChIJvVIfN9Ux1moR4gJIkpa1eNw"
  },
  {
    "name": "Zone Bowling Frankston",
    "address": "228 Cranbourne Rd, Frankston VIC 3199, Australia",
    "suburb": "Frankston VIC 3199",
    "state": "VIC",
    "rating": 4.4,
    "reviews": 728,
    "lat": -38.1508798,
    "lng": 145.1547434,
    "place_id": "ChIJNVsV_0AL1moR8IcyBXZWBA8",
    "maps_url": "https://www.google.com/maps/place/?q=place_id:ChIJNVsV_0AL1moR8IcyBXZWBA8"
  },
  {
    "name": "Strike Escape Rooms Melbourne Central",
    "address": "Melbourne Central, shop 305 level 3/211 La Trobe St, Melbourne VIC 3000, Australia",
    "suburb": "shop 305 level 3/211 La Trobe St",
    "state": "VIC",
    "rating": 4.2,
    "reviews": 205,
    "lat": -37.8103909,
    "lng": 144.9630428,
    "place_id": "ChIJMYh_BstC1moRmBI8wLiCqOM",
    "maps_url": "https://www.google.com/maps/place/?q=place_id:ChIJMYh_BstC1moRmBI8wLiCqOM"
  },
  {
    "name": "Oz Tenpin Geelong",
    "address": "19 Reynolds Rd, Belmont VIC 3216, Australia",
    "suburb": "Belmont VIC 3216",
    "state": "VIC",
    "rating": 4,
    "reviews": 581,
    "lat": -38.1885203,
    "lng": 144.3245502,
    "place_id": "ChIJ6WlpKGsT1GoRlzFAKW2GHgI",
    "maps_url": "https://www.google.com/maps/place/?q=place_id:ChIJ6WlpKGsT1GoRlzFAKW2GHgI"
  },
  {
    "name": "General Public Corio",
    "address": "83a Purnell Rd, Corio VIC 3214, Australia",
    "suburb": "Corio VIC 3214",
    "state": "VIC",
    "rating": 4.7,
    "reviews": 436,
    "lat": -38.07469469999999,
    "lng": 144.3560557,
    "place_id": "ChIJG8ST8lAX1GoRrrolYIwMN78",
    "maps_url": "https://www.google.com/maps/place/?q=place_id:ChIJG8ST8lAX1GoRrrolYIwMN78"
  },
  {
    "name": "Laserquest",
    "address": "89 Malop St, Geelong VIC 3220, Australia",
    "suburb": "Geelong VIC 3220",
    "state": "VIC",
    "rating": 4.4,
    "reviews": 576,
    "lat": -38.1472799,
    "lng": 144.3617383,
    "place_id": "ChIJg1KrShwU1GoRTNyL6FqoIck",
    "maps_url": "https://www.google.com/maps/place/?q=place_id:ChIJg1KrShwU1GoRTNyL6FqoIck"
  },
  {
    "name": "Oz Tenpin & Entertainment Centre Ballarat",
    "address": "810 Norman St, Invermay Park VIC 3350, Australia",
    "suburb": "Invermay Park VIC 3350",
    "state": "VIC",
    "rating": 4.4,
    "reviews": 465,
    "lat": -37.5350934,
    "lng": 143.8504091,
    "place_id": "ChIJD-H7LkhE0WoRDyaoY2Fshb8",
    "maps_url": "https://www.google.com/maps/place/?q=place_id:ChIJD-H7LkhE0WoRDyaoY2Fshb8"
  },
  {
    "name": "Bendigo Bowl",
    "address": "159 Hargreaves St, Bendigo VIC 3550, Australia",
    "suburb": "Bendigo VIC 3550",
    "state": "VIC",
    "rating": 4.3,
    "reviews": 413,
    "lat": -36.756903,
    "lng": 144.284771,
    "place_id": "ChIJVS6utJVZ12oRdflerM72BPM",
    "maps_url": "https://www.google.com/maps/place/?q=place_id:ChIJVS6utJVZ12oRdflerM72BPM"
  },
  {
    "name": "Strike Bowling Brisbane City",
    "address": "Level 1 Wintergarden, Queen St, Brisbane City QLD 4000, Australia",
    "suburb": "Queen St",
    "state": "QLD",
    "rating": 4.3,
    "reviews": 1474,
    "lat": -27.469321,
    "lng": 153.0264395,
    "place_id": "ChIJN_F3ZwRakWsRxfdteiyW1_0",
    "maps_url": "https://www.google.com/maps/place/?q=place_id:ChIJN_F3ZwRakWsRxfdteiyW1_0"
  },
  {
    "name": "Kingpin Chermside",
    "address": "MM33, 949 Gympie Rd, Chermside QLD 4032, Australia",
    "suburb": "949 Gympie Rd",
    "state": "QLD",
    "rating": 4.8,
    "reviews": 7683,
    "lat": -27.3834826,
    "lng": 153.0319587,
    "place_id": "ChIJq6o6NwlYkWsRIdjjG5iCcxM",
    "maps_url": "https://www.google.com/maps/place/?q=place_id:ChIJq6o6NwlYkWsRIdjjG5iCcxM"
  },
  {
    "name": "Strike Bowling Bowen Hills",
    "address": "Shop 3/30 King St, Bowen Hills QLD 4006, Australia",
    "suburb": "Bowen Hills QLD 4006",
    "state": "QLD",
    "rating": 4.3,
    "reviews": 47,
    "lat": -27.4520489,
    "lng": 153.0330284,
    "place_id": "ChIJC7os-jZZkWsRgKwqvudPUls",
    "maps_url": "https://www.google.com/maps/place/?q=place_id:ChIJC7os-jZZkWsRgKwqvudPUls"
  },
  {
    "name": "Zone Bowling Surfers Paradise",
    "address": "8/10 Cavill Ave, Surfers Paradise QLD 4217, Australia",
    "suburb": "Surfers Paradise QLD 4217",
    "state": "QLD",
    "rating": 4.7,
    "reviews": 441,
    "lat": -28.0023111,
    "lng": 153.4302308,
    "place_id": "ChIJcWOT2LAFkWsRT6b15R8lC4I",
    "maps_url": "https://www.google.com/maps/place/?q=place_id:ChIJcWOT2LAFkWsRT6b15R8lC4I"
  },
  {
    "name": "Strike Bowling Cavill",
    "address": "Surfers Paradise Blvd, Surfers Paradise QLD 4217, Australia",
    "suburb": "Surfers Paradise QLD 4217",
    "state": "QLD",
    "rating": 4.5,
    "reviews": 772,
    "lat": -28.0011681,
    "lng": 153.4277787,
    "place_id": "ChIJBUs1g3IFkWsRsSNicpqoguI",
    "maps_url": "https://www.google.com/maps/place/?q=place_id:ChIJBUs1g3IFkWsRsSNicpqoguI"
  },
  {
    "name": "Timezone & Zone Bowling Robina",
    "address": "1 Robina Town Centre Dr, Robina QLD 4226, Australia",
    "suburb": "Robina QLD 4226",
    "state": "QLD",
    "rating": 4.7,
    "reviews": 1108,
    "lat": -28.0752544,
    "lng": 153.3840049,
    "place_id": "ChIJf-8xBrIckWsRVx4lI6lCLl4",
    "maps_url": "https://www.google.com/maps/place/?q=place_id:ChIJf-8xBrIckWsRVx4lI6lCLl4"
  },
  {
    "name": "Strike Bowling Surfers Paradise",
    "address": "3197 Surfers Paradise Blvd, Cnr of, Level 1 Elkhorn Ave, Surfers Paradise QLD 4217, Australia",
    "suburb": "Cnr of",
    "state": "QLD",
    "rating": 3.7,
    "reviews": 3,
    "lat": -27.9987626,
    "lng": 153.4287469,
    "place_id": "ChIJRVMB2OAFkWsRtE0N8RoFOww",
    "maps_url": "https://www.google.com/maps/place/?q=place_id:ChIJRVMB2OAFkWsRtE0N8RoFOww"
  },
  {
    "name": "Go Bowling Ashmore",
    "address": "137 Currumburra Rd, Ashmore QLD 4214, Australia",
    "suburb": "Ashmore QLD 4214",
    "state": "QLD",
    "rating": 4.2,
    "reviews": 745,
    "lat": -27.9827778,
    "lng": 153.3830556,
    "place_id": "ChIJ39ORKq4akWsRA0R29MHWJKg",
    "maps_url": "https://www.google.com/maps/place/?q=place_id:ChIJ39ORKq4akWsRA0R29MHWJKg"
  },
  {
    "name": "Timezone Surfers Paradise",
    "address": "Cavill Mall, Cavill Ave, Surfers Paradise QLD 4217, Australia",
    "suburb": "Cavill Ave",
    "state": "QLD",
    "rating": 4.5,
    "reviews": 5517,
    "lat": -28.0023002,
    "lng": 153.429783,
    "place_id": "ChIJpyVzIHMFkWsR3SYpoguQKkk",
    "maps_url": "https://www.google.com/maps/place/?q=place_id:ChIJpyVzIHMFkWsR3SYpoguQKkk"
  },
  {
    "name": "Coolangatta-Tweed Tenpin",
    "address": "55 Wharf St, Tweed Heads NSW 2485, Australia",
    "suburb": "Tweed Heads NSW 2485",
    "state": "QLD",
    "rating": 4.3,
    "reviews": 303,
    "lat": -28.1719527,
    "lng": 153.5429692,
    "place_id": "ChIJ00JZPS8AkWsRadsWtwuv7NA",
    "maps_url": "https://www.google.com/maps/place/?q=place_id:ChIJ00JZPS8AkWsRadsWtwuv7NA"
  },
  {
    "name": "Archie Brothers Surfers Paradise",
    "address": "Cnr of, 3197 Surfers Paradise Blvd, Level 1 Elkhorn Ave, Surfers Paradise QLD 4217, Australia",
    "suburb": "3197 Surfers Paradise Blvd",
    "state": "QLD",
    "rating": 4.9,
    "reviews": 200,
    "lat": -27.9987945,
    "lng": 153.4291839,
    "place_id": "ChIJY2pr0YYFkWsRUD3cTz7QbTU",
    "maps_url": "https://www.google.com/maps/place/?q=place_id:ChIJY2pr0YYFkWsRUD3cTz7QbTU"
  },
  {
    "name": "Hijinx Hotel Surfers Paradise",
    "address": "Cnr of, 3197 Surfers Paradise Blvd, Level 1 Elkhorn Ave, Surfers Paradise QLD 4217, Australia",
    "suburb": "3197 Surfers Paradise Blvd",
    "state": "QLD",
    "rating": 4.7,
    "reviews": 585,
    "lat": -27.9987565,
    "lng": 153.4287494,
    "place_id": "ChIJXQbQouUFkWsRYOu53F8XHt0",
    "maps_url": "https://www.google.com/maps/place/?q=place_id:ChIJXQbQouUFkWsRYOu53F8XHt0"
  },
  {
    "name": "The Park Coomera",
    "address": "Shop MM7, Westfield Coomera, Level 2/103 Foxwell Rd, Coomera QLD 4209, Australia",
    "suburb": "Westfield Coomera",
    "state": "QLD",
    "rating": 3.9,
    "reviews": 581,
    "lat": -27.8527529,
    "lng": 153.3144519,
    "place_id": "ChIJLwXesS0TkWsRmpVgOGXUUtM",
    "maps_url": "https://www.google.com/maps/place/?q=place_id:ChIJLwXesS0TkWsRmpVgOGXUUtM"
  },
  {
    "name": "Bella's Wonderland",
    "address": "unit 48 3/15 Jackman St, Southport QLD 4215, Australia",
    "suburb": "Southport QLD 4215",
    "state": "QLD",
    "rating": 4.5,
    "reviews": 666,
    "lat": -27.9673586,
    "lng": 153.403947,
    "place_id": "ChIJSeHCRhAPkWsRttqw-as1Vd0",
    "maps_url": "https://www.google.com/maps/place/?q=place_id:ChIJSeHCRhAPkWsRttqw-as1Vd0"
  },
  {
    "name": "Zone Bowling Mt Gravatt",
    "address": "533 Kessels Rd, MacGregor QLD 4109, Australia",
    "suburb": "MacGregor QLD 4109",
    "state": "QLD",
    "rating": 4.5,
    "reviews": 1839,
    "lat": -27.5620268,
    "lng": 153.0682713,
    "place_id": "ChIJRWFeidNEkWsRWQIdra7lIsM",
    "maps_url": "https://www.google.com/maps/place/?q=place_id:ChIJRWFeidNEkWsRWQIdra7lIsM"
  },
  {
    "name": "Timezone & Zone Bowling Garden City",
    "address": "Level 2 Kessels Rd, Upper Mount Gravatt QLD 4122, Australia",
    "suburb": "Upper Mount Gravatt QLD 4122",
    "state": "QLD",
    "rating": 4.6,
    "reviews": 2862,
    "lat": -27.5625793,
    "lng": 153.0799418,
    "place_id": "ChIJ2ST6oK1FkWsR1Ok5Unx7NFs",
    "maps_url": "https://www.google.com/maps/place/?q=place_id:ChIJ2ST6oK1FkWsR1Ok5Unx7NFs"
  },
  {
    "name": "Club Broadbeach",
    "address": "169 Surf Parade, Broadbeach QLD 4218, Australia",
    "suburb": "Broadbeach QLD 4218",
    "state": "QLD",
    "rating": 4.3,
    "reviews": 859,
    "lat": -28.0211709,
    "lng": 153.431654,
    "place_id": "ChIJYYBT6wMFkWsRTabONlSNlCY",
    "maps_url": "https://www.google.com/maps/place/?q=place_id:ChIJYYBT6wMFkWsRTabONlSNlCY"
  },
  {
    "name": "Mt Warren Lanes",
    "address": "148-156 Mount Warren Blvd, Mount Warren Park QLD 4207, Australia",
    "suburb": "Mount Warren Park QLD 4207",
    "state": "QLD",
    "rating": 4.7,
    "reviews": 595,
    "lat": -27.7295926,
    "lng": 153.2086085,
    "place_id": "ChIJiascTYNqkWsRD3FiatGMhh4",
    "maps_url": "https://www.google.com/maps/place/?q=place_id:ChIJiascTYNqkWsRD3FiatGMhh4"
  },
  {
    "name": "Suncity Tenpin",
    "address": "8 Mari St, Alexandra Headland QLD 4572, Australia",
    "suburb": "Alexandra Headland QLD 4572",
    "state": "QLD",
    "rating": 4.3,
    "reviews": 424,
    "lat": -26.6678218,
    "lng": 153.10466,
    "place_id": "ChIJ3dMT6XZ2k2sRCx49p6-oNi0",
    "maps_url": "https://www.google.com/maps/place/?q=place_id:ChIJ3dMT6XZ2k2sRCx49p6-oNi0"
  },
  {
    "name": "Strike Bowling Sunshine Coast",
    "address": "12, 20 Ocean St, Maroochydore QLD 4558, Australia",
    "suburb": "20 Ocean St",
    "state": "QLD",
    "rating": 4.4,
    "reviews": 539,
    "lat": -26.6526799,
    "lng": 153.0914827,
    "place_id": "ChIJsUCCIWJ2k2sRn15svgYYrfM",
    "maps_url": "https://www.google.com/maps/place/?q=place_id:ChIJsUCCIWJ2k2sRn15svgYYrfM"
  },
  {
    "name": "Spinners Bar & Bowl Maroochydore",
    "address": "37 Duporth Ave, Maroochydore QLD 4558, Australia",
    "suburb": "Maroochydore QLD 4558",
    "state": "QLD",
    "rating": 4.5,
    "reviews": 278,
    "lat": -26.6513889,
    "lng": 153.0913889,
    "place_id": "ChIJv4G4-GF2k2sRpC0jgi9QByo",
    "maps_url": "https://www.google.com/maps/place/?q=place_id:ChIJv4G4-GF2k2sRpC0jgi9QByo"
  },
  {
    "name": "Timezone Sunshine Plaza",
    "address": "Sunshine Plaza Shopping Centre, 154 154/164 Horton Parade, Maroochydore QLD 4558, Australia",
    "suburb": "154 154/164 Horton Parade",
    "state": "QLD",
    "rating": 4.5,
    "reviews": 597,
    "lat": -26.654331,
    "lng": 153.0900407,
    "place_id": "ChIJ14AiOnx3k2sRu-bZVzN6ZPE",
    "maps_url": "https://www.google.com/maps/place/?q=place_id:ChIJ14AiOnx3k2sRu-bZVzN6ZPE"
  },
  {
    "name": "Goldpin Tenpin Bowling Centres",
    "address": "6/8 Mari St, Alexandra Headland QLD 4572, Australia",
    "suburb": "Alexandra Headland QLD 4572",
    "state": "QLD",
    "rating": 4,
    "reviews": 2,
    "lat": -26.6679666,
    "lng": 153.1045564,
    "place_id": "ChIJJ7YT6XZ2k2sRMWvJ1jqofxU",
    "maps_url": "https://www.google.com/maps/place/?q=place_id:ChIJJ7YT6XZ2k2sRMWvJ1jqofxU"
  },
  {
    "name": "Archie Brothers Sunshine Coast",
    "address": "16/20 Ocean St, Maroochydore QLD 4558, Australia",
    "suburb": "Maroochydore QLD 4558",
    "state": "QLD",
    "rating": 4.8,
    "reviews": 73,
    "lat": -26.652731,
    "lng": 153.09147,
    "place_id": "ChIJ0cuFRZt3k2sRXh5dgdxuIvc",
    "maps_url": "https://www.google.com/maps/place/?q=place_id:ChIJ0cuFRZt3k2sRXh5dgdxuIvc"
  },
  {
    "name": "Spinners Bar and Bowl",
    "address": "97 Bulcock St, Caloundra QLD 4551, Australia",
    "suburb": "Caloundra QLD 4551",
    "state": "QLD",
    "rating": 4.4,
    "reviews": 203,
    "lat": -26.804493,
    "lng": 153.129192,
    "place_id": "ChIJV59aURTJJ2sR0j20lTGWArs",
    "maps_url": "https://www.google.com/maps/place/?q=place_id:ChIJV59aURTJJ2sR0j20lTGWArs"
  },
  {
    "name": "Kingpin Townsville",
    "address": "16 High Range Dr, Thuringowa Central QLD 4817, Australia",
    "suburb": "Thuringowa Central QLD 4817",
    "state": "QLD",
    "rating": 4.6,
    "reviews": 2028,
    "lat": -19.3202785,
    "lng": 146.7254999,
    "place_id": "ChIJS79jwpHw1WsRHZS6Di7BKcY",
    "maps_url": "https://www.google.com/maps/place/?q=place_id:ChIJS79jwpHw1WsRHZS6Di7BKcY"
  },
  {
    "name": "Townsville Tenpin & Fun Centre",
    "address": "101 Bamford Ln, Kirwan QLD 4817, Australia",
    "suburb": "Kirwan QLD 4817",
    "state": "QLD",
    "rating": 4.3,
    "reviews": 376,
    "lat": -19.302392,
    "lng": 146.740448,
    "place_id": "ChIJCd3sD6jw1WsRBYIAa4TMyDA",
    "maps_url": "https://www.google.com/maps/place/?q=place_id:ChIJCd3sD6jw1WsRBYIAa4TMyDA"
  },
  {
    "name": "Go Bowling",
    "address": "93 Pease St, Manoora QLD 4870, Australia",
    "suburb": "Manoora QLD 4870",
    "state": "QLD",
    "rating": 4,
    "reviews": 414,
    "lat": -16.9146305,
    "lng": 145.7405145,
    "place_id": "ChIJ0TIN-jlkeGkRxszr2AuMbaU",
    "maps_url": "https://www.google.com/maps/place/?q=place_id:ChIJ0TIN-jlkeGkRxszr2AuMbaU"
  },
  {
    "name": "Strike Bowling Perth",
    "address": "401 Wellington St Level 1, Forrest Chase, Shop 26, Perth WA 6000, Australia",
    "suburb": "Forrest Chase",
    "state": "WA",
    "rating": 4.7,
    "reviews": 576,
    "lat": -31.9523312,
    "lng": 115.8607067,
    "place_id": "ChIJp4Mk87S7MioRiZBJnZ6-SA0",
    "maps_url": "https://www.google.com/maps/place/?q=place_id:ChIJp4Mk87S7MioRiZBJnZ6-SA0"
  },
  {
    "name": "Timezone & Zone Bowling Joondalup",
    "address": "1/23 Franklin Ln, Joondalup WA 6027, Australia",
    "suburb": "Joondalup WA 6027",
    "state": "WA",
    "rating": 4.5,
    "reviews": 1675,
    "lat": -31.7423658,
    "lng": 115.7607212,
    "place_id": "ChIJj2eAjGBTzSsRDf8_yp-6Obg",
    "maps_url": "https://www.google.com/maps/place/?q=place_id:ChIJj2eAjGBTzSsRDf8_yp-6Obg"
  },
  {
    "name": "Breakwater Bowl",
    "address": "203/58 Southside Dr, Hillarys WA 6025, Australia",
    "suburb": "Hillarys WA 6025",
    "state": "WA",
    "rating": 4.4,
    "reviews": 20,
    "lat": -31.8237992,
    "lng": 115.7393343,
    "place_id": "ChIJhQ3bbgCrMioRtRIl_I3eaZE",
    "maps_url": "https://www.google.com/maps/place/?q=place_id:ChIJhQ3bbgCrMioRtRIl_I3eaZE"
  },
  {
    "name": "Rosemount Bowl",
    "address": "464 Fitzgerald St, North Perth WA 6006, Australia",
    "suburb": "North Perth WA 6006",
    "state": "WA",
    "rating": 4.5,
    "reviews": 469,
    "lat": -31.930703,
    "lng": 115.8593758,
    "place_id": "ChIJARR1lLa6MioRi2yCgmJerc4",
    "maps_url": "https://www.google.com/maps/place/?q=place_id:ChIJARR1lLa6MioRi2yCgmJerc4"
  },
  {
    "name": "Strike Bowling Karrinyup",
    "address": "200 Karrinyup Rd, Karrinyup WA 6018, Australia",
    "suburb": "Karrinyup WA 6018",
    "state": "WA",
    "rating": 4.5,
    "reviews": 405,
    "lat": -31.8773259,
    "lng": 115.7765872,
    "place_id": "ChIJr2hwcIuvMioR3rvxvGPoqFA",
    "maps_url": "https://www.google.com/maps/place/?q=place_id:ChIJr2hwcIuvMioR3rvxvGPoqFA"
  },
  {
    "name": "The Lookout Bar Bowling Bites",
    "address": "1-2/148 The Esplanade, Scarborough WA 6019, Australia",
    "suburb": "Scarborough WA 6019",
    "state": "WA",
    "rating": 4,
    "reviews": 1864,
    "lat": -31.89294599999999,
    "lng": 115.7564887,
    "place_id": "ChIJNY8KiHepMioR65wmZEO77yc",
    "maps_url": "https://www.google.com/maps/place/?q=place_id:ChIJNY8KiHepMioR65wmZEO77yc"
  },
  {
    "name": "Zone Bowling Cannington",
    "address": "Manning Rd &, Burton St, Cannington WA 6107, Australia",
    "suburb": "Burton St",
    "state": "WA",
    "rating": 4.5,
    "reviews": 2550,
    "lat": -32.012276,
    "lng": 115.923324,
    "place_id": "ChIJFWDiEke8MioRczfPuXrN3yA",
    "maps_url": "https://www.google.com/maps/place/?q=place_id:ChIJFWDiEke8MioRczfPuXrN3yA"
  },
  {
    "name": "Strike Bowling Carousel",
    "address": "Shop MM204, 1382 Albany Hwy, Cannington WA 6107, Australia",
    "suburb": "1382 Albany Hwy",
    "state": "WA",
    "rating": 4,
    "reviews": 509,
    "lat": -32.0184226,
    "lng": 115.9386694,
    "place_id": "ChIJu4sQhYG9MioRrLsOkHCkAQ8",
    "maps_url": "https://www.google.com/maps/place/?q=place_id:ChIJu4sQhYG9MioRrLsOkHCkAQ8"
  },
  {
    "name": "Zone Bowling Morley",
    "address": "176 Walter Rd W, Morley WA 6062, Australia",
    "suburb": "Morley WA 6062",
    "state": "WA",
    "rating": 4.3,
    "reviews": 1317,
    "lat": -31.8996399,
    "lng": 115.8899744,
    "place_id": "ChIJC4a1SHqwMioRCnjcg6tHB-k",
    "maps_url": "https://www.google.com/maps/place/?q=place_id:ChIJC4a1SHqwMioRCnjcg6tHB-k"
  },
  {
    "name": "iPlay Whitfords",
    "address": "Shop 1mm-5, Westfield Whitford City (Basement Cnr Marmion Ave &, Whitfords Ave, Hillarys WA 6025, Australia",
    "suburb": "Westfield Whitford City (Basement Cnr Marmion Ave &",
    "state": "WA",
    "rating": 3.9,
    "reviews": 366,
    "lat": -31.7965982,
    "lng": 115.7480212,
    "place_id": "ChIJ2e2tBbmrMioR1ipNFEHwOwA",
    "maps_url": "https://www.google.com/maps/place/?q=place_id:ChIJ2e2tBbmrMioR1ipNFEHwOwA"
  },
  {
    "name": "Super Bowl Warwick",
    "address": "12 Dugdale St, Warwick WA 6023, Australia",
    "suburb": "Warwick WA 6023",
    "state": "WA",
    "rating": 4.2,
    "reviews": 611,
    "lat": -31.8429856,
    "lng": 115.809422,
    "place_id": "ChIJTdSA6n6uMioRdKVodwYSdUg",
    "maps_url": "https://www.google.com/maps/place/?q=place_id:ChIJTdSA6n6uMioRdKVodwYSdUg"
  },
  {
    "name": "Archie Brothers Perth",
    "address": "Shop 26/401 Wellington St, Perth WA 6000, Australia",
    "suburb": "Perth WA 6000",
    "state": "WA",
    "rating": 4.7,
    "reviews": 342,
    "lat": -31.9522897,
    "lng": 115.8605534,
    "place_id": "ChIJT-RDXxO7MioRdAs5Zk-lcQM",
    "maps_url": "https://www.google.com/maps/place/?q=place_id:ChIJT-RDXxO7MioRdAs5Zk-lcQM"
  },
  {
    "name": "Strike Bowling Fremantle",
    "address": "LG04/15 Newman Ct, Fremantle WA 6160, Australia",
    "suburb": "Fremantle WA 6160",
    "state": "WA",
    "rating": 4.5,
    "reviews": 218,
    "lat": -32.0541824,
    "lng": 115.7494881,
    "place_id": "ChIJ7ZOARTKhMioRuYCHCrogKSs",
    "maps_url": "https://www.google.com/maps/place/?q=place_id:ChIJ7ZOARTKhMioRuYCHCrogKSs"
  },
  {
    "name": "Zone Bowling Rockingham",
    "address": "38 Patterson Rd, Rockingham WA 6168, Australia",
    "suburb": "Rockingham WA 6168",
    "state": "WA",
    "rating": 4.3,
    "reviews": 972,
    "lat": -32.2786103,
    "lng": 115.7340411,
    "place_id": "ChIJd-ZKWLWcMioRYHT6baSAMJA",
    "maps_url": "https://www.google.com/maps/place/?q=place_id:ChIJd-ZKWLWcMioRYHT6baSAMJA"
  },
  {
    "name": "Super Bowl Melville",
    "address": "248 Stock Rd, Melville WA 6156, Australia",
    "suburb": "Melville WA 6156",
    "state": "WA",
    "rating": 3.9,
    "reviews": 490,
    "lat": -32.04765750000001,
    "lng": 115.7943334,
    "place_id": "ChIJ4SCYQa6jMioRMX6G7un5Nqs",
    "maps_url": "https://www.google.com/maps/place/?q=place_id:ChIJ4SCYQa6jMioRMX6G7un5Nqs"
  },
  {
    "name": "Timezone Mandurah",
    "address": "330 Pinjarra Rd, Mandurah WA 6210, Australia",
    "suburb": "Mandurah WA 6210",
    "state": "WA",
    "rating": 4.9,
    "reviews": 595,
    "lat": -32.5359443,
    "lng": 115.7408064,
    "place_id": "ChIJteRkeVB5MioRU6B0yNZ5mhc",
    "maps_url": "https://www.google.com/maps/place/?q=place_id:ChIJteRkeVB5MioRU6B0yNZ5mhc"
  },
  {
    "name": "Mandurah Bowling & Recreation Club",
    "address": "89 Allnutt St, Mandurah WA 6210, Australia",
    "suburb": "Mandurah WA 6210",
    "state": "WA",
    "rating": 4.5,
    "reviews": 105,
    "lat": -32.5277624,
    "lng": 115.741444,
    "place_id": "ChIJ6YZYlcR4MioRi2ZrynzXcBA",
    "maps_url": "https://www.google.com/maps/place/?q=place_id:ChIJ6YZYlcR4MioRi2ZrynzXcBA"
  },
  {
    "name": "Mandurah Forum",
    "address": "330 Pinjarra Rd, Mandurah WA 6210, Australia",
    "suburb": "Mandurah WA 6210",
    "state": "WA",
    "rating": 4.3,
    "reviews": 5425,
    "lat": -32.5354734,
    "lng": 115.7423226,
    "place_id": "ChIJ2d8lOUx5MioRwHfyGLbwBA8",
    "maps_url": "https://www.google.com/maps/place/?q=place_id:ChIJ2d8lOUx5MioRwHfyGLbwBA8"
  },
  {
    "name": "Mandurah Community And Bowling Facility",
    "address": "89 Allnutt St, Mandurah WA 6210, Australia",
    "suburb": "Mandurah WA 6210",
    "state": "WA",
    "rating": 4.5,
    "reviews": 40,
    "lat": -32.5277627,
    "lng": 115.7414458,
    "place_id": "ChIJ8XqUMLZ_MioRKPwl4c53tiw",
    "maps_url": "https://www.google.com/maps/place/?q=place_id:ChIJ8XqUMLZ_MioRKPwl4c53tiw"
  },
  {
    "name": "Halls Head Bowling & Recreation Club (Inc)",
    "address": "3 Sticks Blvd, Erskine WA 6210, Australia",
    "suburb": "Erskine WA 6210",
    "state": "WA",
    "rating": 4.4,
    "reviews": 96,
    "lat": -32.5558849,
    "lng": 115.6970819,
    "place_id": "ChIJl4ZzHdx4MioRu942ZYCLFBA",
    "maps_url": "https://www.google.com/maps/place/?q=place_id:ChIJl4ZzHdx4MioRu942ZYCLFBA"
  },
  {
    "name": "Rebound Arena Mandurah",
    "address": "3/65 Reserve Dr, Mandurah WA 6210, Australia",
    "suburb": "Mandurah WA 6210",
    "state": "WA",
    "rating": 4.5,
    "reviews": 710,
    "lat": -32.5127296,
    "lng": 115.7424621,
    "place_id": "ChIJna0vO8x_MioRXyRbQQ5Grvg",
    "maps_url": "https://www.google.com/maps/place/?q=place_id:ChIJna0vO8x_MioRXyRbQQ5Grvg"
  },
  {
    "name": "Bunbury Tenpin Bowl",
    "address": "136 Strickland St, East Bunbury WA 6230, Australia",
    "suburb": "East Bunbury WA 6230",
    "state": "WA",
    "rating": 4,
    "reviews": 329,
    "lat": -33.335799,
    "lng": 115.661515,
    "place_id": "ChIJJakHlWIdLioRmp57KSA8ZGA",
    "maps_url": "https://www.google.com/maps/place/?q=place_id:ChIJJakHlWIdLioRmp57KSA8ZGA"
  },
  {
    "name": "Strike Bowling Rundle Place",
    "address": "Rundle Place, Level 1, 77/91 Rundle Mall, Adelaide SA 5000, Australia",
    "suburb": "Level 1",
    "state": "SA",
    "rating": 4.3,
    "reviews": 85,
    "lat": -34.923431,
    "lng": 138.6026577,
    "place_id": "ChIJFdtESLjPsGoR5RETebpDLZk",
    "maps_url": "https://www.google.com/maps/place/?q=place_id:ChIJFdtESLjPsGoR5RETebpDLZk"
  },
  {
    "name": "Kingpin Norwood",
    "address": "11 Osmond Terrace, Norwood SA 5067, Australia",
    "suburb": "Norwood SA 5067",
    "state": "SA",
    "rating": 4.7,
    "reviews": 2491,
    "lat": -34.9165758,
    "lng": 138.6311503,
    "place_id": "ChIJ9USrgVzJsGoRzYfUQ3xZlhE",
    "maps_url": "https://www.google.com/maps/place/?q=place_id:ChIJ9USrgVzJsGoRzYfUQ3xZlhE"
  },
  {
    "name": "Zone Bowling Cross Road",
    "address": "Cnr Goodwood &, Cross Rd, Westbourne Park SA 5041, Australia",
    "suburb": "Cross Rd",
    "state": "SA",
    "rating": 4.4,
    "reviews": 1767,
    "lat": -34.9666979,
    "lng": 138.5913498,
    "place_id": "ChIJTQttrbfPsGoRZgw6HdyXkTI",
    "maps_url": "https://www.google.com/maps/place/?q=place_id:ChIJTQttrbfPsGoRZgw6HdyXkTI"
  },
  {
    "name": "Timezone & Zone Bowling Woodville",
    "address": "819 Port Rd, Woodville SA 5011, Australia",
    "suburb": "Woodville SA 5011",
    "state": "SA",
    "rating": 4.4,
    "reviews": 1810,
    "lat": -34.8782855,
    "lng": 138.5327638,
    "place_id": "ChIJR62QXW7GsGoRDX9WVJmcirY",
    "maps_url": "https://www.google.com/maps/place/?q=place_id:ChIJR62QXW7GsGoRDX9WVJmcirY"
  },
  {
    "name": "Bowland Salisbury",
    "address": "4-8 Clayson Rd, Salisbury East SA 5109, Australia",
    "suburb": "Salisbury East SA 5109",
    "state": "SA",
    "rating": 4.4,
    "reviews": 747,
    "lat": -34.7830891,
    "lng": 138.65581,
    "place_id": "ChIJ8eX1r-2zsGoRcCB4TJ-M13c",
    "maps_url": "https://www.google.com/maps/place/?q=place_id:ChIJ8eX1r-2zsGoRcCB4TJ-M13c"
  },
  {
    "name": "Timezone & Zone Bowling Tea Tree Plaza",
    "address": "Tea Tree Plaza, 976 North East Road, Modbury SA 5092, Australia",
    "suburb": "976 North East Road",
    "state": "SA",
    "rating": 4.4,
    "reviews": 988,
    "lat": -34.8320205,
    "lng": 138.6897793,
    "place_id": "ChIJfwb2TPO1sGoRGaK9BA16IPs",
    "maps_url": "https://www.google.com/maps/place/?q=place_id:ChIJfwb2TPO1sGoRGaK9BA16IPs"
  },
  {
    "name": "Archie Brothers Rundle Place",
    "address": "Level 1, Rundle Place, 77/91 Rundle Mall, Adelaide SA 5000, Australia",
    "suburb": "Rundle Place",
    "state": "SA",
    "rating": 4.6,
    "reviews": 599,
    "lat": -34.92343110000001,
    "lng": 138.6027306,
    "place_id": "ChIJ654DUXfPsGoRh5zhWk4ocOY",
    "maps_url": "https://www.google.com/maps/place/?q=place_id:ChIJ654DUXfPsGoRh5zhWk4ocOY"
  },
  {
    "name": "P1 Entertainment Complex",
    "address": "41/55 Holden St, Hindmarsh SA 5007, Australia",
    "suburb": "Hindmarsh SA 5007",
    "state": "SA",
    "rating": 3.8,
    "reviews": 254,
    "lat": -34.9095236,
    "lng": 138.567317,
    "place_id": "ChIJCVhL8pPPsGoRox7rF2KASi8",
    "maps_url": "https://www.google.com/maps/place/?q=place_id:ChIJCVhL8pPPsGoRox7rF2KASi8"
  },
  {
    "name": "Paradigm Zone",
    "address": "58 Gawler Pl, Adelaide SA 5000, Australia",
    "suburb": "Adelaide SA 5000",
    "state": "SA",
    "rating": 4.6,
    "reviews": 276,
    "lat": -34.9234301,
    "lng": 138.6021462,
    "place_id": "ChIJ_WHbIB3PsGoRkIwkrOvKUiA",
    "maps_url": "https://www.google.com/maps/place/?q=place_id:ChIJ_WHbIB3PsGoRkIwkrOvKUiA"
  },
  {
    "name": "Hijinx Hotel Rundle Place",
    "address": "Level 1, Rundle Place, 77/91 Rundle Mall, Adelaide SA 5000, Australia",
    "suburb": "Rundle Place",
    "state": "SA",
    "rating": 4.7,
    "reviews": 924,
    "lat": -34.92343110000001,
    "lng": 138.6027306,
    "place_id": "ChIJVcIbqITPsGoR8Qu6DC-KmMA",
    "maps_url": "https://www.google.com/maps/place/?q=place_id:ChIJVcIbqITPsGoR8Qu6DC-KmMA"
  },
  {
    "name": "Elizabeth Bowland",
    "address": "11 Winterslow Rd, Edinburgh North SA 5113, Australia",
    "suburb": "Edinburgh North SA 5113",
    "state": "SA",
    "rating": 4.1,
    "reviews": 623,
    "lat": -34.7116584,
    "lng": 138.6627499,
    "place_id": "ChIJpxLjfJGtsGoRqZFVa76ROpg",
    "maps_url": "https://www.google.com/maps/place/?q=place_id:ChIJpxLjfJGtsGoRqZFVa76ROpg"
  },
  {
    "name": "Zone Bowling Noarlunga",
    "address": "David Witton Dr, Noarlunga Centre SA 5168, Australia",
    "suburb": "Noarlunga Centre SA 5168",
    "state": "SA",
    "rating": 4.2,
    "reviews": 675,
    "lat": -35.139943,
    "lng": 138.4897197,
    "place_id": "ChIJ95ZHicUmsWoReTjorryP364",
    "maps_url": "https://www.google.com/maps/place/?q=place_id:ChIJ95ZHicUmsWoReTjorryP364"
  },
  {
    "name": "Kaboom Family Entertainment",
    "address": "4 Elizabeth St, Mount Gambier SA 5290, Australia",
    "suburb": "Mount Gambier SA 5290",
    "state": "SA",
    "rating": 4.7,
    "reviews": 205,
    "lat": -37.8275108,
    "lng": 140.7764282,
    "place_id": "ChIJiz6WLMMpnqoRiksBNz17vX8",
    "maps_url": "https://www.google.com/maps/place/?q=place_id:ChIJiz6WLMMpnqoRiksBNz17vX8"
  },
  {
    "name": "Kaboom! Ten Pin Bowling",
    "address": "103 Commercial St W, Mount Gambier SA 5290, Australia",
    "suburb": "Mount Gambier SA 5290",
    "state": "SA",
    "rating": 4.5,
    "reviews": 8,
    "lat": -37.8276993,
    "lng": 140.7765839,
    "place_id": "ChIJcVUvAKYonqoRR_yACGHec_Q",
    "maps_url": "https://www.google.com/maps/place/?q=place_id:ChIJcVUvAKYonqoRR_yACGHec_Q"
  },
  {
    "name": "Bowland Whyalla",
    "address": "103 Essington Lewis Ave, Whyalla SA 5600, Australia",
    "suburb": "Whyalla SA 5600",
    "state": "SA",
    "rating": 4.1,
    "reviews": 111,
    "lat": -33.037778,
    "lng": 137.571938,
    "place_id": "ChIJD6OtNedQu2oRnkMBYay2swE",
    "maps_url": "https://www.google.com/maps/place/?q=place_id:ChIJD6OtNedQu2oRnkMBYay2swE"
  },
  {
    "name": "Ten Pin Bowling",
    "address": "103 Essington Lewis Ave, Whyalla SA 5600, Australia",
    "suburb": "Whyalla SA 5600",
    "state": "SA",
    "rating": null,
    "reviews": 0,
    "lat": -33.037778,
    "lng": 137.571938,
    "place_id": "ChIJD6OtNedQu2oRYT0wMG677nQ",
    "maps_url": "https://www.google.com/maps/place/?q=place_id:ChIJD6OtNedQu2oRYT0wMG677nQ"
  },
  {
    "name": "Zone Bowling Moonah",
    "address": "162 Main Rd, Moonah TAS 7009, Australia",
    "suburb": "Moonah TAS 7009",
    "state": "TAS",
    "rating": 4.3,
    "reviews": 891,
    "lat": -42.84337379999999,
    "lng": 147.2916283,
    "place_id": "ChIJP0Xbp-p0bqoREE2zfZf7ZWw",
    "maps_url": "https://www.google.com/maps/place/?q=place_id:ChIJP0Xbp-p0bqoREE2zfZf7ZWw"
  },
  {
    "name": "Launceston Lanes Tenpin Bowling",
    "address": "20 Innocent St, Kings Meadows TAS 7249, Australia",
    "suburb": "Kings Meadows TAS 7249",
    "state": "TAS",
    "rating": 4.4,
    "reviews": 393,
    "lat": -41.46389380000001,
    "lng": 147.1602783,
    "place_id": "ChIJS-FvpVWhcKoRZb4BZo1ZoNQ",
    "maps_url": "https://www.google.com/maps/place/?q=place_id:ChIJS-FvpVWhcKoRZb4BZo1ZoNQ"
  },
  {
    "name": "The Alley Entertainment Centre",
    "address": "103/105 William St, Devonport TAS 7310, Australia",
    "suburb": "Devonport TAS 7310",
    "state": "TAS",
    "rating": 4.3,
    "reviews": 274,
    "lat": -41.1806449,
    "lng": 146.3497619,
    "place_id": "ChIJI8RbfkkzeqoRshjVWXNX2us",
    "maps_url": "https://www.google.com/maps/place/?q=place_id:ChIJI8RbfkkzeqoRshjVWXNX2us"
  },
  {
    "name": "Kingpin Canberra",
    "address": "148 Bunda St, Canberra ACT 2601, Australia",
    "suburb": "Canberra ACT 2601",
    "state": "ACT",
    "rating": 4.8,
    "reviews": 4271,
    "lat": -35.2777072,
    "lng": 149.1329881,
    "place_id": "ChIJ6XomjtNNFmsRNAqq3Jye1RY",
    "maps_url": "https://www.google.com/maps/place/?q=place_id:ChIJ6XomjtNNFmsRNAqq3Jye1RY"
  },
  {
    "name": "Timezone & Zone Bowling Belconnen",
    "address": "1 Emu Bank, Belconnen ACT 2617, Australia",
    "suburb": "Belconnen ACT 2617",
    "state": "ACT",
    "rating": 4.2,
    "reviews": 1191,
    "lat": -35.2400209,
    "lng": 149.0748405,
    "place_id": "ChIJV5oaNWmtF2sRVvmW_El1Rek",
    "maps_url": "https://www.google.com/maps/place/?q=place_id:ChIJV5oaNWmtF2sRVvmW_El1Rek"
  },
  {
    "name": "Kingpin Darwin",
    "address": "1 Neale St, Darwin City NT 0820, Australia",
    "suburb": "Darwin City NT 0820",
    "state": "NT",
    "rating": 4.7,
    "reviews": 4168,
    "lat": -12.3971066,
    "lng": 130.8614226,
    "place_id": "ChIJSxrHLp6TwCwRY2NhHCjiFaY",
    "maps_url": "https://www.google.com/maps/place/?q=place_id:ChIJSxrHLp6TwCwRY2NhHCjiFaY"
  },
  {
    "name": "The Dust Bowl",
    "address": "29 Gap Rd, Alice Springs NT 0870, Australia",
    "suburb": "Alice Springs NT 0870",
    "state": "NT",
    "rating": 3.8,
    "reviews": 82,
    "lat": -23.7118778,
    "lng": 133.8766174,
    "place_id": "ChIJqbUUUP0bMisRsA1TqmNp2rI",
    "maps_url": "https://www.google.com/maps/place/?q=place_id:ChIJqbUUUP0bMisRsA1TqmNp2rI"
  }
]