[
  {
    "name": "Jones’ Carpentry Creations.",
    "address": "Unit 5/7 Moira Cres, Coogee NSW 2034, Australia",
    "suburb": "Coogee NSW 2034",
    "state": "NSW",
    "rating": 5,
    "reviews": 79,
    "lat": -33.9125058,
    "lng": 151.2524055,
    "place_id": "ChIJd0CPY8SzEmsR39tMVP2S0Qs",
    "maps_url": "https://www.google.com/maps/place/?q=place_id:ChIJd0CPY8SzEmsR39tMVP2S0Qs"
  },
  {
    "name": "A2Z Carpentry & Maintenance",
    "address": "118 Glebe St, Glebe NSW 2037, Australia",
    "suburb": "Glebe NSW 2037",
    "state": "NSW",
    "rating": 4.8,
    "reviews": 23,
    "lat": -33.8807974,
    "lng": 151.1902718,
    "place_id": "ChIJZw7kSOqvEmsRxpujl8xxZ1Q",
    "maps_url": "https://www.google.com/maps/place/?q=place_id:ChIJZw7kSOqvEmsRxpujl8xxZ1Q"
  },
  {
    "name": "North Shore Carpentry & Renovations",
    "address": "5 Grace St, Lane Cove NSW 2066, Australia",
    "suburb": "Lane Cove NSW 2066",
    "state": "NSW",
    "rating": 5,
    "reviews": 209,
    "lat": -33.81425979999999,
    "lng": 151.1612801,
    "place_id": "ChIJpZ409LKrhQwR2GIEvtl-K9g",
    "maps_url": "https://www.google.com/maps/place/?q=place_id:ChIJpZ409LKrhQwR2GIEvtl-K9g"
  },
  {
    "name": "A Grade Carpentry Group",
    "address": "529 Military Rd, Mosman NSW 2088, Australia",
    "suburb": "Mosman NSW 2088",
    "state": "NSW",
    "rating": 4.9,
    "reviews": 131,
    "lat": -33.82452749999999,
    "lng": 151.2394336,
    "place_id": "ChIJq6qqqh6sEmsRvDKSMVoZX3A",
    "maps_url": "https://www.google.com/maps/place/?q=place_id:ChIJq6qqqh6sEmsRvDKSMVoZX3A"
  },
  {
    "name": "Handyman Sydney",
    "address": "161 Clarence St, Sydney NSW 2000, Australia",
    "suburb": "Sydney NSW 2000",
    "state": "NSW",
    "rating": 5,
    "reviews": 7,
    "lat": -33.8681912,
    "lng": 151.2049461,
    "place_id": "ChIJv1QD3v2vEmsRiMSsOvnuLP8",
    "maps_url": "https://www.google.com/maps/place/?q=place_id:ChIJv1QD3v2vEmsRiMSsOvnuLP8"
  },
  {
    "name": "Bondi Carpentry",
    "address": "Sydney NSW 2000, Australia",
    "suburb": "Australia",
    "state": "NSW",
    "rating": 5,
    "reviews": 1,
    "lat": -33.8674759,
    "lng": 151.2069559,
    "place_id": "ChIJzWLKiECuEmsRib1HVNVoP14",
    "maps_url": "https://www.google.com/maps/place/?q=place_id:ChIJzWLKiECuEmsRib1HVNVoP14"
  },
  {
    "name": "Alan Daniel Carpentry & Joinery",
    "address": "6-8 Church St, Randwick NSW 2031, Australia",
    "suburb": "Randwick NSW 2031",
    "state": "NSW",
    "rating": 5,
    "reviews": 1,
    "lat": -33.9097572,
    "lng": 151.2378313,
    "place_id": "ChIJRaOhXRyyEmsRu0tzdi1HUTw",
    "maps_url": "https://www.google.com/maps/place/?q=place_id:ChIJRaOhXRyyEmsRu0tzdi1HUTw"
  },
  {
    "name": "DeKing Carpentry",
    "address": "93 Kurraba Rd, Kurraba Point NSW 2089, Australia",
    "suburb": "Kurraba Point NSW 2089",
    "state": "NSW",
    "rating": 5,
    "reviews": 68,
    "lat": -33.8419827,
    "lng": 151.2220698,
    "place_id": "ChIJK93qWmWvEmsRlx4njypsBI8",
    "maps_url": "https://www.google.com/maps/place/?q=place_id:ChIJK93qWmWvEmsRlx4njypsBI8"
  },
  {
    "name": "Space J Joinery",
    "address": "21 Daking St, North Parramatta NSW 2151, Australia",
    "suburb": "North Parramatta NSW 2151",
    "state": "NSW",
    "rating": 5,
    "reviews": 4,
    "lat": -33.7934539,
    "lng": 151.0018024,
    "place_id": "ChIJdaA2E-ujEmsRiQ3ATWYdooA",
    "maps_url": "https://www.google.com/maps/place/?q=place_id:ChIJdaA2E-ujEmsRiQ3ATWYdooA"
  },
  {
    "name": "Bloom Carpentry and Property Repairs",
    "address": "Bettington Rd, Oatlands NSW 2117, Australia",
    "suburb": "Oatlands NSW 2117",
    "state": "NSW",
    "rating": 4.9,
    "reviews": 54,
    "lat": -33.7913512,
    "lng": 151.0288716,
    "place_id": "ChIJTTNafn6jEmsRyn9uLpo7kMA",
    "maps_url": "https://www.google.com/maps/place/?q=place_id:ChIJTTNafn6jEmsRyn9uLpo7kMA"
  },
  {
    "name": "Attwill Carpentry",
    "address": "Unit 2/38 Simpson St, Dundas Valley NSW 2117, Australia",
    "suburb": "Dundas Valley NSW 2117",
    "state": "NSW",
    "rating": 5,
    "reviews": 5,
    "lat": -33.794493,
    "lng": 151.048744,
    "place_id": "ChIJoZpSx3OoTYIRPRklTvCJnxs",
    "maps_url": "https://www.google.com/maps/place/?q=place_id:ChIJoZpSx3OoTYIRPRklTvCJnxs"
  },
  {
    "name": "Space Joinery",
    "address": "13 Clyde St, Rydalmere NSW 2116, Australia",
    "suburb": "Rydalmere NSW 2116",
    "state": "NSW",
    "rating": 5,
    "reviews": 6,
    "lat": -33.8128617,
    "lng": 151.0333411,
    "place_id": "ChIJ8TRSG26jEmsR0GGsc_a290I",
    "maps_url": "https://www.google.com/maps/place/?q=place_id:ChIJ8TRSG26jEmsR0GGsc_a290I"
  },
  {
    "name": "Final Touch Carpentry & Construction",
    "address": "Unit 21/128 Station Rd, Seven Hills NSW 2147, Australia",
    "suburb": "Seven Hills NSW 2147",
    "state": "NSW",
    "rating": 4.9,
    "reviews": 50,
    "lat": -33.7695963,
    "lng": 150.9430443,
    "place_id": "ChIJhzny-4aZEmsRjP7OC4xaBYA",
    "maps_url": "https://www.google.com/maps/place/?q=place_id:ChIJhzny-4aZEmsRjP7OC4xaBYA"
  },
  {
    "name": "Prime Carpentry",
    "address": "Hutchins Cres, Kings Langley NSW 2147, Australia",
    "suburb": "Kings Langley NSW 2147",
    "state": "NSW",
    "rating": 5,
    "reviews": 48,
    "lat": -33.7513034,
    "lng": 150.9474049,
    "place_id": "ChIJr3mCyTOZEmsRCGa6d92Of44",
    "maps_url": "https://www.google.com/maps/place/?q=place_id:ChIJr3mCyTOZEmsRCGa6d92Of44"
  },
  {
    "name": "Imperial joinery",
    "address": "126 O'Connell St, North Parramatta NSW 2151, Australia",
    "suburb": "North Parramatta NSW 2151",
    "state": "NSW",
    "rating": 5,
    "reviews": 5,
    "lat": -33.7980902,
    "lng": 151.0016589,
    "place_id": "ChIJ0RzIn--jEmsRP3ccc7E6QjE",
    "maps_url": "https://www.google.com/maps/place/?q=place_id:ChIJ0RzIn--jEmsRP3ccc7E6QjE"
  },
  {
    "name": "Liteco Joinery",
    "address": "Unit J/10-16 South St, Rydalmere NSW 2116, Australia",
    "suburb": "Rydalmere NSW 2116",
    "state": "NSW",
    "rating": 5,
    "reviews": 4,
    "lat": -33.8164935,
    "lng": 151.0339218,
    "place_id": "ChIJzU2xmFmwEmsRk0ZUQlPNzG0",
    "maps_url": "https://www.google.com/maps/place/?q=place_id:ChIJzU2xmFmwEmsRk0ZUQlPNzG0"
  },
  {
    "name": "Opal Carpentry",
    "address": "6029/203 Coxs Rd, North Ryde NSW 2113, Australia",
    "suburb": "North Ryde NSW 2113",
    "state": "NSW",
    "rating": 4.9,
    "reviews": 45,
    "lat": -33.7942764,
    "lng": 151.1221706,
    "place_id": "ChIJGVMIrtilEmsRSGDSSvsYXDU",
    "maps_url": "https://www.google.com/maps/place/?q=place_id:ChIJGVMIrtilEmsRSGDSSvsYXDU"
  },
  {
    "name": "New South Construction Group",
    "address": "6 Albion St, Harris Park NSW 2150, Australia",
    "suburb": "Harris Park NSW 2150",
    "state": "NSW",
    "rating": 5,
    "reviews": 30,
    "lat": -33.8221508,
    "lng": 151.0100578,
    "place_id": "ChIJBVkFi-HTAAMRfJYub-gpbZc",
    "maps_url": "https://www.google.com/maps/place/?q=place_id:ChIJBVkFi-HTAAMRfJYub-gpbZc"
  },
  {
    "name": "Handyman Newcastle & hn carpentry",
    "address": "12 Robey St, Merewether NSW 2291, Australia",
    "suburb": "Merewether NSW 2291",
    "state": "NSW",
    "rating": 5,
    "reviews": 6,
    "lat": -32.9404656,
    "lng": 151.7608108,
    "place_id": "ChIJ7ckHjDkUc2sRDNY4xR0N30k",
    "maps_url": "https://www.google.com/maps/place/?q=place_id:ChIJ7ckHjDkUc2sRDNY4xR0N30k"
  },
  {
    "name": "Eastaway Carpentry",
    "address": "60 King St, Newcastle NSW 2300, Australia",
    "suburb": "Newcastle NSW 2300",
    "state": "NSW",
    "rating": 5,
    "reviews": 10,
    "lat": -32.9280517,
    "lng": 151.7820487,
    "place_id": "ChIJuSawhKkVc2sRSZAHchJKaq0",
    "maps_url": "https://www.google.com/maps/place/?q=place_id:ChIJuSawhKkVc2sRSZAHchJKaq0"
  },
  {
    "name": "Newcastle Made Joinery",
    "address": "36 Nicholson St, Toronto NSW 2283, Australia",
    "suburb": "Toronto NSW 2283",
    "state": "NSW",
    "rating": 5,
    "reviews": 1,
    "lat": -33.0008205,
    "lng": 151.570592,
    "place_id": "ChIJfb3rxR4lc2sRTlb0sRaIfew",
    "maps_url": "https://www.google.com/maps/place/?q=place_id:ChIJfb3rxR4lc2sRTlb0sRaIfew"
  },
  {
    "name": "Inspire Design Carpentry",
    "address": "473 Maitland Rd, Mayfield West NSW 2304, Australia",
    "suburb": "Mayfield West NSW 2304",
    "state": "NSW",
    "rating": 4.8,
    "reviews": 6,
    "lat": -32.8875727,
    "lng": 151.7235511,
    "place_id": "ChIJ1wSYnxQVc2sRScFcPnPQYZ8",
    "maps_url": "https://www.google.com/maps/place/?q=place_id:ChIJ1wSYnxQVc2sRScFcPnPQYZ8"
  },
  {
    "name": "Rhythm Joinery - Custom Windows & Custom Doors Newcastle",
    "address": "103 Stenhouse Dr, Cameron Park NSW 2285, Australia",
    "suburb": "Cameron Park NSW 2285",
    "state": "NSW",
    "rating": 5,
    "reviews": 27,
    "lat": -32.8950607,
    "lng": 151.5974275,
    "place_id": "ChIJD3KvExg5c2sRL0L8OvWgkVA",
    "maps_url": "https://www.google.com/maps/place/?q=place_id:ChIJD3KvExg5c2sRL0L8OvWgkVA"
  },
  {
    "name": "Maybuilt Carpentry",
    "address": "10 Railway Parade, Cardiff NSW 2285, Australia",
    "suburb": "Cardiff NSW 2285",
    "state": "NSW",
    "rating": 5,
    "reviews": 3,
    "lat": -32.9447823,
    "lng": 151.6635534,
    "place_id": "ChIJz468AoY9c2sR9YMzIaSJG2M",
    "maps_url": "https://www.google.com/maps/place/?q=place_id:ChIJz468AoY9c2sR9YMzIaSJG2M"
  },
  {
    "name": "Nadin West Joinery",
    "address": "51 Pacific Hwy, Bennetts Green NSW 2290, Australia",
    "suburb": "Bennetts Green NSW 2290",
    "state": "NSW",
    "rating": 4.8,
    "reviews": 23,
    "lat": -32.9986518,
    "lng": 151.6864497,
    "place_id": "ChIJaSw8CiQjc2sRwnnSjcpnd0Q",
    "maps_url": "https://www.google.com/maps/place/?q=place_id:ChIJaSw8CiQjc2sRwnnSjcpnd0Q"
  },
  {
    "name": "Waratah Carpentry",
    "address": "87 Allowah St, Waratah West NSW 2296, Australia",
    "suburb": "Waratah West NSW 2296",
    "state": "NSW",
    "rating": 5,
    "reviews": 14,
    "lat": -32.9003543,
    "lng": 151.7154816,
    "place_id": "ChIJCb7nJCyP_KIRaXExAWSvYlw",
    "maps_url": "https://www.google.com/maps/place/?q=place_id:ChIJCb7nJCyP_KIRaXExAWSvYlw"
  },
  {
    "name": "Everlong Joinery",
    "address": "141 Darby St, Cooks Hill NSW 2300, Australia",
    "suburb": "Cooks Hill NSW 2300",
    "state": "NSW",
    "rating": 4.9,
    "reviews": 40,
    "lat": -32.9317555,
    "lng": 151.7715567,
    "place_id": "ChIJjWnn5PUjc2sRX6C0B5JvNt8",
    "maps_url": "https://www.google.com/maps/place/?q=place_id:ChIJjWnn5PUjc2sRX6C0B5JvNt8"
  },
  {
    "name": "Corey the Carpenter",
    "address": "6A Quarry Rd, Teralba NSW 2284, Australia",
    "suburb": "Teralba NSW 2284",
    "state": "NSW",
    "rating": 5,
    "reviews": 9,
    "lat": -32.957413,
    "lng": 151.6071121,
    "place_id": "ChIJ60ykBJg9c2sR2L0-BFAOSEU",
    "maps_url": "https://www.google.com/maps/place/?q=place_id:ChIJ60ykBJg9c2sR2L0-BFAOSEU"
  },
  {
    "name": "JMW Carpentry & Renovations",
    "address": "3/9 Scenic Dr, Merewether NSW 2291, Australia",
    "suburb": "Merewether NSW 2291",
    "state": "NSW",
    "rating": 5,
    "reviews": 3,
    "lat": -32.9512153,
    "lng": 151.7525456,
    "place_id": "ChIJkTFuQtAVc2sRy5XZpUSPb8w",
    "maps_url": "https://www.google.com/maps/place/?q=place_id:ChIJkTFuQtAVc2sRy5XZpUSPb8w"
  },
  {
    "name": "Damien's Carpentry (license 469387C) https://www.instagram.com/oldcarboncustom?igsh=dHlnM2l5NHk5MDkx&utm_source=qr",
    "address": "22 Dumfries Ave, Mount Ousley NSW 2519, Australia",
    "suburb": "Mount Ousley NSW 2519",
    "state": "NSW",
    "rating": 4.9,
    "reviews": 83,
    "lat": -34.4018792,
    "lng": 150.8858114,
    "place_id": "ChIJq6r-mBQZE2sRmtAXPjgIB0s",
    "maps_url": "https://www.google.com/maps/place/?q=place_id:ChIJq6r-mBQZE2sRmtAXPjgIB0s"
  },
  {
    "name": "JGM Carpentry & Construction",
    "address": "Crown St, Wollongong NSW 2500, Australia",
    "suburb": "Wollongong NSW 2500",
    "state": "NSW",
    "rating": 5,
    "reviews": 2,
    "lat": -34.4257595,
    "lng": 150.8893826,
    "place_id": "ChIJlboSv14ZE2sR_Mg8UON4SjM",
    "maps_url": "https://www.google.com/maps/place/?q=place_id:ChIJlboSv14ZE2sR_Mg8UON4SjM"
  },
  {
    "name": "All Round Carpentry Handyman",
    "address": "Crown St, Wollongong NSW 2500, Australia",
    "suburb": "Wollongong NSW 2500",
    "state": "NSW",
    "rating": 5,
    "reviews": 10,
    "lat": -34.4255704,
    "lng": 150.8896363,
    "place_id": "ChIJXR7jhaMZE2sRr49FaSH_DH8",
    "maps_url": "https://www.google.com/maps/place/?q=place_id:ChIJXR7jhaMZE2sRr49FaSH_DH8"
  },
  {
    "name": "Broadwater Carpentry & Construction",
    "address": "Unit 60/6 Bellambi Ln, Bellambi NSW 2518, Australia",
    "suburb": "Bellambi NSW 2518",
    "state": "NSW",
    "rating": 5,
    "reviews": 20,
    "lat": -34.3623494,
    "lng": 150.9138063,
    "place_id": "ChIJlSCz3TupSWkRD2B85czFgNg",
    "maps_url": "https://www.google.com/maps/place/?q=place_id:ChIJlSCz3TupSWkRD2B85czFgNg"
  },
  {
    "name": "Two Tides Carpentry & Construction PTY LYD",
    "address": "Suite number 22/741 Lawrence Hargrave Dr, Coledale NSW 2515, Australia",
    "suburb": "Coledale NSW 2515",
    "state": "NSW",
    "rating": 5,
    "reviews": 15,
    "lat": -34.2915938,
    "lng": 150.944845,
    "place_id": "ChIJYYfQOTeGsUkRZ9R6XGFLLP4",
    "maps_url": "https://www.google.com/maps/place/?q=place_id:ChIJYYfQOTeGsUkRZ9R6XGFLLP4"
  },
  {
    "name": "Coastline Building Solutions",
    "address": "48 Branch Ave, Figtree NSW 2525, Australia",
    "suburb": "Figtree NSW 2525",
    "state": "NSW",
    "rating": 5,
    "reviews": 9,
    "lat": -34.4282327,
    "lng": 150.8484899,
    "place_id": "ChIJhW2mHSQaE2sRBlVAkw-8Kr8",
    "maps_url": "https://www.google.com/maps/place/?q=place_id:ChIJhW2mHSQaE2sRBlVAkw-8Kr8"
  },
  {
    "name": "Walnut Cube",
    "address": "unit 503a/6 Thomas St, Wollongong NSW 2500, Australia",
    "suburb": "Wollongong NSW 2500",
    "state": "NSW",
    "rating": 5,
    "reviews": 11,
    "lat": -34.4226123,
    "lng": 150.8944152,
    "place_id": "ChIJ6Xmw0oYZE2sRyDaESLILP1M",
    "maps_url": "https://www.google.com/maps/place/?q=place_id:ChIJ6Xmw0oYZE2sRyDaESLILP1M"
  },
  {
    "name": "Onyx Detailed Joinery",
    "address": "9a Orangegrove Ave, Unanderra NSW 2526, Australia",
    "suburb": "Unanderra NSW 2526",
    "state": "NSW",
    "rating": 5,
    "reviews": 5,
    "lat": -34.4675992,
    "lng": 150.8342474,
    "place_id": "ChIJNZPSEnwRE2sRLh4vRl_SP6c",
    "maps_url": "https://www.google.com/maps/place/?q=place_id:ChIJNZPSEnwRE2sRLh4vRl_SP6c"
  },
  {
    "name": "Central Coast Elite Carpentry",
    "address": "41 Banksia St, Ettalong Beach NSW 2257, Australia",
    "suburb": "Ettalong Beach NSW 2257",
    "state": "NSW",
    "rating": 4.9,
    "reviews": 35,
    "lat": -33.510244,
    "lng": 151.3293221,
    "place_id": "ChIJ2QHeYKK3cmsR7BfulAdp3HM",
    "maps_url": "https://www.google.com/maps/place/?q=place_id:ChIJ2QHeYKK3cmsR7BfulAdp3HM"
  },
  {
    "name": "Spoke Joinery and Cabinetry",
    "address": "Unit 11/10 Pioneer Ave, Tuggerah NSW 2259, Australia",
    "suburb": "Tuggerah NSW 2259",
    "state": "NSW",
    "rating": 5,
    "reviews": 13,
    "lat": -33.3178066,
    "lng": 151.4248069,
    "place_id": "ChIJkY_pNGnPcmsRQjPJMQy5QL0",
    "maps_url": "https://www.google.com/maps/place/?q=place_id:ChIJkY_pNGnPcmsRQjPJMQy5QL0"
  },
  {
    "name": "Trim Joinery",
    "address": "7 Ketch Cl, Fountaindale NSW 2258, Australia",
    "suburb": "Fountaindale NSW 2258",
    "state": "NSW",
    "rating": 5,
    "reviews": 47,
    "lat": -33.3306163,
    "lng": 151.4068436,
    "place_id": "ChIJQbiD1ybPcmsRLsOLv-CDWZ4",
    "maps_url": "https://www.google.com/maps/place/?q=place_id:ChIJQbiD1ybPcmsRLsOLv-CDWZ4"
  },
  {
    "name": "Complete Carpentry & Co",
    "address": "27 Lady Penrhyn Cl, Bateau Bay NSW 2261, Australia",
    "suburb": "Bateau Bay NSW 2261",
    "state": "NSW",
    "rating": 5,
    "reviews": 20,
    "lat": -33.3858682,
    "lng": 151.4597589,
    "place_id": "ChIJn90R-75X4GARiIT21MkfLTA",
    "maps_url": "https://www.google.com/maps/place/?q=place_id:ChIJn90R-75X4GARiIT21MkfLTA"
  },
  {
    "name": "KOA Carpentry",
    "address": "Stone Pl, MacMasters Beach NSW 2251, Australia",
    "suburb": "MacMasters Beach NSW 2251",
    "state": "NSW",
    "rating": 5,
    "reviews": 14,
    "lat": -33.496481,
    "lng": 151.422974,
    "place_id": "ChIJ13D2yRM5TGARp_GXduJ0SFM",
    "maps_url": "https://www.google.com/maps/place/?q=place_id:ChIJ13D2yRM5TGARp_GXduJ0SFM"
  },
  {
    "name": "Cooper Carpentry and Fencing",
    "address": "42 Aldinga Dr, Wamberal NSW 2260, Australia",
    "suburb": "Wamberal NSW 2260",
    "state": "NSW",
    "rating": 5,
    "reviews": 20,
    "lat": -33.4137665,
    "lng": 151.4452102,
    "place_id": "ChIJq6oG6wrJcmsRiXQj4AEcQ9Y",
    "maps_url": "https://www.google.com/maps/place/?q=place_id:ChIJq6oG6wrJcmsRiXQj4AEcQ9Y"
  },
  {
    "name": "Clay Carpentry",
    "address": "Banksia St, Ettalong Beach NSW 2257, Australia",
    "suburb": "Ettalong Beach NSW 2257",
    "state": "NSW",
    "rating": 5,
    "reviews": 19,
    "lat": -33.5099779,
    "lng": 151.3298096,
    "place_id": "ChIJQefUE6wLpCoR8KR97KAzQ4c",
    "maps_url": "https://www.google.com/maps/place/?q=place_id:ChIJQefUE6wLpCoR8KR97KAzQ4c"
  },
  {
    "name": "Spoke Building and Interiors",
    "address": "Unit 11/10 Pioneer Ave, Tuggerah NSW 2259, Australia",
    "suburb": "Tuggerah NSW 2259",
    "state": "NSW",
    "rating": 5,
    "reviews": 54,
    "lat": -33.3178066,
    "lng": 151.4248069,
    "place_id": "ChIJpxzsJITLcmsReadiR0giQ-8",
    "maps_url": "https://www.google.com/maps/place/?q=place_id:ChIJpxzsJITLcmsReadiR0giQ-8"
  },
  {
    "name": "Fine Earth Joinery",
    "address": "Unit 2/2 Marklea Cl, Tuggerah NSW 2259, Australia",
    "suburb": "Tuggerah NSW 2259",
    "state": "NSW",
    "rating": 5,
    "reviews": 4,
    "lat": -33.2967898,
    "lng": 151.4189437,
    "place_id": "ChIJN17Hk-LNcmsRFkeHfMPIpGg",
    "maps_url": "https://www.google.com/maps/place/?q=place_id:ChIJN17Hk-LNcmsRFkeHfMPIpGg"
  },
  {
    "name": "Daykin Carpentry",
    "address": "6 Eliot St, Mannering Park NSW 2259, Australia",
    "suburb": "Mannering Park NSW 2259",
    "state": "NSW",
    "rating": 5,
    "reviews": 31,
    "lat": -33.1571869,
    "lng": 151.5330642,
    "place_id": "ChIJvycAy_jZcmsRpOCyDliDW-4",
    "maps_url": "https://www.google.com/maps/place/?q=place_id:ChIJvycAy_jZcmsRpOCyDliDW-4"
  },
  {
    "name": "Seaside Joinery",
    "address": "Unit 2/15 Bonnal Rd, Erina NSW 2250, Australia",
    "suburb": "Erina NSW 2250",
    "state": "NSW",
    "rating": 5,
    "reviews": 4,
    "lat": -33.4334966,
    "lng": 151.3833184,
    "place_id": "ChIJoV-LTXrKcmsRpYBuvJpYlDU",
    "maps_url": "https://www.google.com/maps/place/?q=place_id:ChIJoV-LTXrKcmsRpYBuvJpYlDU"
  },
  {
    "name": "Fusion Electrical & Carpentry Projects",
    "address": "Unit 11/23 Lake Rd, Tuggerah NSW 2259, Australia",
    "suburb": "Tuggerah NSW 2259",
    "state": "NSW",
    "rating": 5,
    "reviews": 92,
    "lat": -33.3085853,
    "lng": 151.4256612,
    "place_id": "ChIJ_06TgoDOcmsRgAYAA1qxMVk",
    "maps_url": "https://www.google.com/maps/place/?q=place_id:ChIJ_06TgoDOcmsRgAYAA1qxMVk"
  },
  {
    "name": "STT Carpentry",
    "address": "177 Glenrock Parade, Koolewong NSW 2256, Australia",
    "suburb": "Koolewong NSW 2256",
    "state": "NSW",
    "rating": 5,
    "reviews": 11,
    "lat": -33.4634351,
    "lng": 151.3147103,
    "place_id": "ChIJre9g2hRLDWsRll_Rs9ixtQk",
    "maps_url": "https://www.google.com/maps/place/?q=place_id:ChIJre9g2hRLDWsRll_Rs9ixtQk"
  },
  {
    "name": "BANKSIA JOINERY",
    "address": "Unit 9/26-32 Abel St, Penrith NSW 2750, Australia",
    "suburb": "Penrith NSW 2750",
    "state": "NSW",
    "rating": 5,
    "reviews": 3,
    "lat": -33.7659737,
    "lng": 150.6853112,
    "place_id": "ChIJqaqq60-PEmsRjnFQdsFqhWQ",
    "maps_url": "https://www.google.com/maps/place/?q=place_id:ChIJqaqq60-PEmsRjnFQdsFqhWQ"
  },
  {
    "name": "Authentic Renovation",
    "address": "53 Butler Cres, South Penrith NSW 2750, Australia",
    "suburb": "South Penrith NSW 2750",
    "state": "NSW",
    "rating": 5,
    "reviews": 1,
    "lat": -33.7658219,
    "lng": 150.7048702,
    "place_id": "ChIJu2vh7cyPEmsR0rkSK1cy02w",
    "maps_url": "https://www.google.com/maps/place/?q=place_id:ChIJu2vh7cyPEmsR0rkSK1cy02w"
  },
  {
    "name": "Delbridge Carpentry",
    "address": "York Rd, South Penrith NSW 2750, Australia",
    "suburb": "South Penrith NSW 2750",
    "state": "NSW",
    "rating": 5,
    "reviews": 1,
    "lat": -33.7720669,
    "lng": 150.6873355,
    "place_id": "ChIJ-dyipPiPEmsRBW-4x7bXGEs",
    "maps_url": "https://www.google.com/maps/place/?q=place_id:ChIJ-dyipPiPEmsRBW-4x7bXGEs"
  },
  {
    "name": "Genesis Carpentry Services",
    "address": "3 Gorman Pl, Cranebrook NSW 2749, Australia",
    "suburb": "Cranebrook NSW 2749",
    "state": "NSW",
    "rating": 4.6,
    "reviews": 20,
    "lat": -33.7160924,
    "lng": 150.7110198,
    "place_id": "ChIJMVYdD2aFEmsRJrayIVpEJZw",
    "maps_url": "https://www.google.com/maps/place/?q=place_id:ChIJMVYdD2aFEmsRJrayIVpEJZw"
  },
  {
    "name": "Vitality Kitchens & Joinery",
    "address": "Unit 7/21 Hickeys Rd, Penrith NSW 2750, Australia",
    "suburb": "Penrith NSW 2750",
    "state": "NSW",
    "rating": 5,
    "reviews": 36,
    "lat": -33.7398361,
    "lng": 150.705377,
    "place_id": "ChIJd4dGFj-FEmsR5mbtSkkNbzg",
    "maps_url": "https://www.google.com/maps/place/?q=place_id:ChIJd4dGFj-FEmsR5mbtSkkNbzg"
  },
  {
    "name": "JP Joinery",
    "address": "Borec Rd, Penrith NSW 2750, Australia",
    "suburb": "Penrith NSW 2750",
    "state": "NSW",
    "rating": 5,
    "reviews": 1,
    "lat": -33.7362754,
    "lng": 150.6908371,
    "place_id": "ChIJM9WUXIGHEmsRDQUS0seH6Lg",
    "maps_url": "https://www.google.com/maps/place/?q=place_id:ChIJM9WUXIGHEmsRDQUS0seH6Lg"
  },
  {
    "name": "C&A Joinery",
    "address": "Unit 1/6 Lambridge Pl, Penrith NSW 2750, Australia",
    "suburb": "Penrith NSW 2750",
    "state": "NSW",
    "rating": 4.3,
    "reviews": 6,
    "lat": -33.7318148,
    "lng": 150.696322,
    "place_id": "ChIJ_VgzAR-GEmsRl6fnMA9IdXY",
    "maps_url": "https://www.google.com/maps/place/?q=place_id:ChIJ_VgzAR-GEmsRl6fnMA9IdXY"
  },
  {
    "name": "A Team Kitchens & Joinery",
    "address": "99 Batt St, Penrith NSW 2750, Australia",
    "suburb": "Penrith NSW 2750",
    "state": "NSW",
    "rating": 4.8,
    "reviews": 68,
    "lat": -33.767377,
    "lng": 150.682455,
    "place_id": "ChIJ5T4roUiPEmsRmowQLKAhmYI",
    "maps_url": "https://www.google.com/maps/place/?q=place_id:ChIJ5T4roUiPEmsRmowQLKAhmYI"
  },
  {
    "name": "Sydney Smart Joinery",
    "address": "37 Borec Rd, Penrith NSW 2750, Australia",
    "suburb": "Penrith NSW 2750",
    "state": "NSW",
    "rating": 4.6,
    "reviews": 16,
    "lat": -33.7372329,
    "lng": 150.6885424,
    "place_id": "ChIJoTTRTjCFEmsR8xxzHQbk5rA",
    "maps_url": "https://www.google.com/maps/place/?q=place_id:ChIJoTTRTjCFEmsR8xxzHQbk5rA"
  },
  {
    "name": "mcxi.co are full stack constructors and project managers for places and spaces",
    "address": "95B Station St, Penrith NSW 2750, Australia",
    "suburb": "Penrith NSW 2750",
    "state": "NSW",
    "rating": 5,
    "reviews": 1,
    "lat": -33.7532289,
    "lng": 150.6948337,
    "place_id": "ChIJKcwvF7SvEmsRLvpZr2pjy9c",
    "maps_url": "https://www.google.com/maps/place/?q=place_id:ChIJKcwvF7SvEmsRLvpZr2pjy9c"
  },
  {
    "name": "JSM Carpentry",
    "address": "30 Mamie Ave, Seven Hills NSW 2147, Australia",
    "suburb": "Seven Hills NSW 2147",
    "state": "NSW",
    "rating": 5,
    "reviews": 3,
    "lat": -33.76995,
    "lng": 150.9198271,
    "place_id": "ChIJAfpyM_SZEmsRXY9WLW-Tpwo",
    "maps_url": "https://www.google.com/maps/place/?q=place_id:ChIJAfpyM_SZEmsRXY9WLW-Tpwo"
  },
  {
    "name": "K Home Renos & Construction",
    "address": "22 Virginia St, Blacktown NSW 2148, Australia",
    "suburb": "Blacktown NSW 2148",
    "state": "NSW",
    "rating": 5,
    "reviews": 13,
    "lat": -33.7582164,
    "lng": 150.8918548,
    "place_id": "ChIJ0dbjWg6ZEmsRJ-eNPf1PNnM",
    "maps_url": "https://www.google.com/maps/place/?q=place_id:ChIJ0dbjWg6ZEmsRJ-eNPf1PNnM"
  },
  {
    "name": "Entworx Joinery",
    "address": "1 Holbeche Rd, Arndell Park NSW 2148, Australia",
    "suburb": "Arndell Park NSW 2148",
    "state": "NSW",
    "rating": 5,
    "reviews": 20,
    "lat": -33.7867784,
    "lng": 150.8730184,
    "place_id": "ChIJo-yLb965EmsRJ9lLjAMhSU8",
    "maps_url": "https://www.google.com/maps/place/?q=place_id:ChIJo-yLb965EmsRJ9lLjAMhSU8"
  },
  {
    "name": "FineForm Joinery",
    "address": "2/4 Carnegie Pl, Blacktown NSW 2148, Australia",
    "suburb": "Blacktown NSW 2148",
    "state": "NSW",
    "rating": 5,
    "reviews": 33,
    "lat": -33.7536827,
    "lng": 150.9057181,
    "place_id": "ChIJvTGURh6ZEmsRkNoN1___wn8",
    "maps_url": "https://www.google.com/maps/place/?q=place_id:ChIJvTGURh6ZEmsRkNoN1___wn8"
  },
  {
    "name": "Maple Square Joinery Solutions",
    "address": "7/12 Garling Rd, Kings Park NSW 2148, Australia",
    "suburb": "Kings Park NSW 2148",
    "state": "NSW",
    "rating": 4.9,
    "reviews": 18,
    "lat": -33.744904,
    "lng": 150.9117811,
    "place_id": "ChIJbZ8vLsWZEmsRousH8Yy0G3M",
    "maps_url": "https://www.google.com/maps/place/?q=place_id:ChIJbZ8vLsWZEmsRousH8Yy0G3M"
  },
  {
    "name": "Metric Woodworks Pty ltd",
    "address": "67 Breakfast Rd, Marayong NSW 2148, Australia",
    "suburb": "Marayong NSW 2148",
    "state": "NSW",
    "rating": 5,
    "reviews": 2,
    "lat": -33.7509999,
    "lng": 150.8881742,
    "place_id": "ChIJfzFGWqByr4ERyHTXW3LLyME",
    "maps_url": "https://www.google.com/maps/place/?q=place_id:ChIJfzFGWqByr4ERyHTXW3LLyME"
  },
  {
    "name": "Hardis",
    "address": "5/2 Forge St, Blacktown NSW 2148, Australia",
    "suburb": "Blacktown NSW 2148",
    "state": "NSW",
    "rating": 5,
    "reviews": 15,
    "lat": -33.7566454,
    "lng": 150.9089641,
    "place_id": "ChIJ__-PX6-XEmsRitRjAwNq0ng",
    "maps_url": "https://www.google.com/maps/place/?q=place_id:ChIJ__-PX6-XEmsRitRjAwNq0ng"
  },
  {
    "name": "RS Doors and Carpenters",
    "address": "5A Brett St, Kings Langley NSW 2147, Australia",
    "suburb": "Kings Langley NSW 2147",
    "state": "NSW",
    "rating": 5,
    "reviews": 2,
    "lat": -33.7550713,
    "lng": 150.9364661,
    "place_id": "ChIJzyFuRlCZEmsRh-_W9V-Vnb8",
    "maps_url": "https://www.google.com/maps/place/?q=place_id:ChIJzyFuRlCZEmsRh-_W9V-Vnb8"
  },
  {
    "name": "Elevation Joinery",
    "address": "Unit 3/7 St James Pl, Seven Hills NSW 2148, Australia",
    "suburb": "Seven Hills NSW 2148",
    "state": "NSW",
    "rating": 5,
    "reviews": 12,
    "lat": -33.775121,
    "lng": 150.9527476,
    "place_id": "ChIJq6oakOCYEmsRsPA9GN-91Fs",
    "maps_url": "https://www.google.com/maps/place/?q=place_id:ChIJq6oakOCYEmsRsPA9GN-91Fs"
  },
  {
    "name": "City fire doors",
    "address": "78 Allawah St, Blacktown NSW 2148, Australia",
    "suburb": "Blacktown NSW 2148",
    "state": "NSW",
    "rating": 5,
    "reviews": 3,
    "lat": -33.7755293,
    "lng": 150.899601,
    "place_id": "ChIJsXWJGOGZEmsRghUYNa0DG-c",
    "maps_url": "https://www.google.com/maps/place/?q=place_id:ChIJsXWJGOGZEmsRghUYNa0DG-c"
  },
  {
    "name": "The Cabinetmaking Co",
    "address": "42/24 Garling Rd, Kings Park NSW 2148, Australia",
    "suburb": "Kings Park NSW 2148",
    "state": "NSW",
    "rating": 4.8,
    "reviews": 20,
    "lat": -33.7443235,
    "lng": 150.9121216,
    "place_id": "ChIJo5IGzKiZEmsR9wpYvO1eH9k",
    "maps_url": "https://www.google.com/maps/place/?q=place_id:ChIJo5IGzKiZEmsR9wpYvO1eH9k"
  },
  {
    "name": "AAK Carpentry",
    "address": "52 Pelleas St, Blacktown NSW 2148, Australia",
    "suburb": "Blacktown NSW 2148",
    "state": "NSW",
    "rating": 5,
    "reviews": 1,
    "lat": -33.7892495,
    "lng": 150.9136224,
    "place_id": "ChIJAQB0XkmYEmsRszfmeWyqv6Q",
    "maps_url": "https://www.google.com/maps/place/?q=place_id:ChIJAQB0XkmYEmsRszfmeWyqv6Q"
  },
  {
    "name": "Shaun’s Handyman & Painting Services Blacktown",
    "address": "35 Julie St, Blacktown NSW 2148, Australia",
    "suburb": "Blacktown NSW 2148",
    "state": "NSW",
    "rating": 4.7,
    "reviews": 63,
    "lat": -33.7852956,
    "lng": 150.9032154,
    "place_id": "ChIJJTvAVuAlbWURXw28S_LmZcA",
    "maps_url": "https://www.google.com/maps/place/?q=place_id:ChIJJTvAVuAlbWURXw28S_LmZcA"
  },
  {
    "name": "Advanced Joinery",
    "address": "22/274-276 Hoxton Park Rd, Prestons NSW 2170, Australia",
    "suburb": "Prestons NSW 2170",
    "state": "NSW",
    "rating": 5,
    "reviews": 8,
    "lat": -33.92882549999999,
    "lng": 150.8903007,
    "place_id": "ChIJAQBQgKPxEmsRbcePB47MAus",
    "maps_url": "https://www.google.com/maps/place/?q=place_id:ChIJAQBQgKPxEmsRbcePB47MAus"
  },
  {
    "name": "VRIX Joinery & Fitouts",
    "address": "Unit 1/17 Powdrill Rd, Prestons NSW 2170, Australia",
    "suburb": "Prestons NSW 2170",
    "state": "NSW",
    "rating": 5,
    "reviews": 6,
    "lat": -33.931351,
    "lng": 150.8903375,
    "place_id": "ChIJRxFGNryVEmsRWLtO1HvRHTk",
    "maps_url": "https://www.google.com/maps/place/?q=place_id:ChIJRxFGNryVEmsRWLtO1HvRHTk"
  },
  {
    "name": "Independent Joinery Liverpool",
    "address": "81 Church Rd, Old Swan, Liverpool L13 2AY, UK",
    "suburb": "Old Swan",
    "state": "NSW",
    "rating": 5,
    "reviews": 18,
    "lat": 53.41132469999999,
    "lng": -2.9241038,
    "place_id": "ChIJWYKgGyIhe0gRxuSyMMZzy38",
    "maps_url": "https://www.google.com/maps/place/?q=place_id:ChIJWYKgGyIhe0gRxuSyMMZzy38"
  },
  {
    "name": "Sublime Joinery",
    "address": "Unit 12b/9 Lyn Parade, Prestons NSW 2170, Australia",
    "suburb": "Prestons NSW 2170",
    "state": "NSW",
    "rating": 5,
    "reviews": 31,
    "lat": -33.9308831,
    "lng": 150.8866492,
    "place_id": "ChIJfUZwLcqVEmsRRi3uSwBQlbo",
    "maps_url": "https://www.google.com/maps/place/?q=place_id:ChIJfUZwLcqVEmsRRi3uSwBQlbo"
  },
  {
    "name": "TIMPELLE estd.1984",
    "address": "60-62 Jedda Rd, Prestons NSW 2170, Australia",
    "suburb": "Prestons NSW 2170",
    "state": "NSW",
    "rating": 4,
    "reviews": 48,
    "lat": -33.9351241,
    "lng": 150.8870394,
    "place_id": "ChIJLUBTUPOUEmsRLH46OuwJ5Wo",
    "maps_url": "https://www.google.com/maps/place/?q=place_id:ChIJLUBTUPOUEmsRLH46OuwJ5Wo"
  },
  {
    "name": "A1 Carpentry & Joinery",
    "address": "36 Monteclair Ave, Liverpool NSW 2170, Australia",
    "suburb": "Liverpool NSW 2170",
    "state": "NSW",
    "rating": null,
    "reviews": 0,
    "lat": -33.9372593,
    "lng": 150.9150085,
    "place_id": "ChIJy0zoaAeVEmsR34llcgYqXwc",
    "maps_url": "https://www.google.com/maps/place/?q=place_id:ChIJy0zoaAeVEmsR34llcgYqXwc"
  },
  {
    "name": "Style Up Kitchens and Joinery",
    "address": "Unit O3, 5/7 Hepher Rd, Campbelltown NSW 2560, Australia",
    "suburb": "5/7 Hepher Rd",
    "state": "NSW",
    "rating": 5,
    "reviews": 20,
    "lat": -34.0549426,
    "lng": 150.8076998,
    "place_id": "ChIJJ6h-urfvEmsRCgX0ciRSnZY",
    "maps_url": "https://www.google.com/maps/place/?q=place_id:ChIJJ6h-urfvEmsRCgX0ciRSnZY"
  },
  {
    "name": "Campbelltown Carpentry",
    "address": "Georges River Rd, Kentlyn NSW 2560, Australia",
    "suburb": "Kentlyn NSW 2560",
    "state": "NSW",
    "rating": 5,
    "reviews": 1,
    "lat": -34.0536503,
    "lng": 150.8716512,
    "place_id": "ChIJBauwi1DpEmsRmfHNxjB7Ejs",
    "maps_url": "https://www.google.com/maps/place/?q=place_id:ChIJBauwi1DpEmsRmfHNxjB7Ejs"
  },
  {
    "name": "DJ Mumford Carpentry",
    "address": "3 McCall Ave, Camden South NSW 2570, Australia",
    "suburb": "Camden South NSW 2570",
    "state": "NSW",
    "rating": 4.9,
    "reviews": 36,
    "lat": -34.0866862,
    "lng": 150.6971348,
    "place_id": "ChIJvWkHAO6cYmYRohybA28djA0",
    "maps_url": "https://www.google.com/maps/place/?q=place_id:ChIJvWkHAO6cYmYRohybA28djA0"
  },
  {
    "name": "Thomsen Builders & Carpenters",
    "address": "3 Malawa Pl, Bradbury NSW 2560, Australia",
    "suburb": "Bradbury NSW 2560",
    "state": "NSW",
    "rating": 4.3,
    "reviews": 6,
    "lat": -34.0920755,
    "lng": 150.8065418,
    "place_id": "ChIJ8SsBc2rvEmsR9-Ee7a99icI",
    "maps_url": "https://www.google.com/maps/place/?q=place_id:ChIJ8SsBc2rvEmsR9-Ee7a99icI"
  },
  {
    "name": "A1 Carpentry NSW",
    "address": "25 Skaife St, Oran Park NSW 2570, Australia",
    "suburb": "Oran Park NSW 2570",
    "state": "NSW",
    "rating": 5,
    "reviews": 10,
    "lat": -34.0068654,
    "lng": 150.7308547,
    "place_id": "ChIJvXOS1JjoxgoRtsddDwjAoa8",
    "maps_url": "https://www.google.com/maps/place/?q=place_id:ChIJvXOS1JjoxgoRtsddDwjAoa8"
  },
  {
    "name": "Wardrobe Company",
    "address": "38 Chamberlain St, Campbelltown NSW 2560, Australia",
    "suburb": "Campbelltown NSW 2560",
    "state": "NSW",
    "rating": 5,
    "reviews": 10,
    "lat": -34.0633349,
    "lng": 150.8232781,
    "place_id": "ChIJoS8d7FDvEmsRmJPtSEmgYfI",
    "maps_url": "https://www.google.com/maps/place/?q=place_id:ChIJoS8d7FDvEmsRmJPtSEmgYfI"
  },
  {
    "name": "Aspect Carpentry and Maintenance Services",
    "address": "326 Camden Valley Wy, Narellan NSW 2567, Australia",
    "suburb": "Narellan NSW 2567",
    "state": "NSW",
    "rating": 5,
    "reviews": 7,
    "lat": -34.0412249,
    "lng": 150.7353939,
    "place_id": "ChIJlxx0GqHxEmsRl4cUmg62xwM",
    "maps_url": "https://www.google.com/maps/place/?q=place_id:ChIJlxx0GqHxEmsRl4cUmg62xwM"
  },
  {
    "name": "Perfection Joinery Pty Ltd",
    "address": "13/19 Grahams Hill Rd, Narellan NSW 2567, Australia",
    "suburb": "Narellan NSW 2567",
    "state": "NSW",
    "rating": 4,
    "reviews": 4,
    "lat": -34.0376452,
    "lng": 150.7291979,
    "place_id": "ChIJx64DozDxEmsR334r-eLGxN0",
    "maps_url": "https://www.google.com/maps/place/?q=place_id:ChIJx64DozDxEmsR334r-eLGxN0"
  },
  {
    "name": "Above All Joinery Pty Limited",
    "address": "14/24 Anzac Ave, Smeaton Grange NSW 2567, Australia",
    "suburb": "Smeaton Grange NSW 2567",
    "state": "NSW",
    "rating": 5,
    "reviews": 1,
    "lat": -34.040306,
    "lng": 150.7568269,
    "place_id": "ChIJoRt_FvfxEmsR5MaQoc3kgog",
    "maps_url": "https://www.google.com/maps/place/?q=place_id:ChIJoRt_FvfxEmsR5MaQoc3kgog"
  },
  {
    "name": "Joinery Masters",
    "address": "5A Homedale Rd, Bankstown NSW 2200, Australia",
    "suburb": "Bankstown NSW 2200",
    "state": "NSW",
    "rating": 5,
    "reviews": 38,
    "lat": -33.9318241,
    "lng": 151.0391801,
    "place_id": "ChIJY7FUMKm-EmsRY-JqKtpmXsk",
    "maps_url": "https://www.google.com/maps/place/?q=place_id:ChIJY7FUMKm-EmsRY-JqKtpmXsk"
  },
  {
    "name": "Scarelli Joinery PTY Ltd.",
    "address": "7 Arkley St, Bankstown NSW 2200, Australia",
    "suburb": "Bankstown NSW 2200",
    "state": "NSW",
    "rating": 5,
    "reviews": 4,
    "lat": -33.930571,
    "lng": 151.037607,
    "place_id": "ChIJHYdx76i-EmsRH5YTZA2d6DM",
    "maps_url": "https://www.google.com/maps/place/?q=place_id:ChIJHYdx76i-EmsRH5YTZA2d6DM"
  },
  {
    "name": "Denis's Carpentry",
    "address": "5/40-42 Woods Rd, Sefton NSW 2162, Australia",
    "suburb": "Sefton NSW 2162",
    "state": "NSW",
    "rating": 5,
    "reviews": 22,
    "lat": -33.8904357,
    "lng": 151.015662,
    "place_id": "ChIJfQbrHD69EmsRKdqoAxDP2k0",
    "maps_url": "https://www.google.com/maps/place/?q=place_id:ChIJfQbrHD69EmsRKdqoAxDP2k0"
  },
  {
    "name": "HR Carpentry and Construction",
    "address": "12a Restwell St, Bankstown NSW 2200, Australia",
    "suburb": "Bankstown NSW 2200",
    "state": "NSW",
    "rating": 5,
    "reviews": 8,
    "lat": -33.9189517,
    "lng": 151.0351654,
    "place_id": "ChIJfbD3eja_EmsR_6u5UlqQ_Mc",
    "maps_url": "https://www.google.com/maps/place/?q=place_id:ChIJfbD3eja_EmsR_6u5UlqQ_Mc"
  },
  {
    "name": "Madeira carpentry & construction",
    "address": "Yagoona NSW 2000, Australia",
    "suburb": "Australia",
    "state": "NSW",
    "rating": 5,
    "reviews": 1,
    "lat": -33.9066376,
    "lng": 151.0291893,
    "place_id": "ChIJeYv03jfYTKkRSy8N7FfEExM",
    "maps_url": "https://www.google.com/maps/place/?q=place_id:ChIJeYv03jfYTKkRSy8N7FfEExM"
  },
  {
    "name": "CLEARCUT CARPENTRY & CONSTRUCTIONS PTY LTD",
    "address": "41 Josephine St, Riverwood NSW 2210, Australia",
    "suburb": "Riverwood NSW 2210",
    "state": "NSW",
    "rating": 5,
    "reviews": 6,
    "lat": -33.9492908,
    "lng": 151.0550889,
    "place_id": "ChIJ_YY_9iO5EmsRnHjwNWeAkAA",
    "maps_url": "https://www.google.com/maps/place/?q=place_id:ChIJ_YY_9iO5EmsRnHjwNWeAkAA"
  },
  {
    "name": "Rest Interior",
    "address": "20 Clements Ave, Bankstown NSW 2200, Australia",
    "suburb": "Bankstown NSW 2200",
    "state": "NSW",
    "rating": 4.8,
    "reviews": 5,
    "lat": -33.932518,
    "lng": 151.032664,
    "place_id": "ChIJ8eeFs6W-EmsRC0LjtWDs4VA",
    "maps_url": "https://www.google.com/maps/place/?q=place_id:ChIJ8eeFs6W-EmsRC0LjtWDs4VA"
  },
  {
    "name": "Korlia Joinery Pty Ltd",
    "address": "36 Cottam Ave, Bankstown NSW 2200, Australia",
    "suburb": "Bankstown NSW 2200",
    "state": "NSW",
    "rating": 5,
    "reviews": 3,
    "lat": -33.9319029,
    "lng": 151.0340115,
    "place_id": "ChIJE3xk3aW-EmsRgI1EaQKjm8U",
    "maps_url": "https://www.google.com/maps/place/?q=place_id:ChIJE3xk3aW-EmsRgI1EaQKjm8U"
  },
  {
    "name": "Cedar Joinery Pty Ltd",
    "address": "366 Edgar St, Condell Park NSW 2200, Australia",
    "suburb": "Condell Park NSW 2200",
    "state": "NSW",
    "rating": 5,
    "reviews": 15,
    "lat": -33.9344193,
    "lng": 151.0101139,
    "place_id": "ChIJD4i0aY6-EmsRN3x3AKN8gl4",
    "maps_url": "https://www.google.com/maps/place/?q=place_id:ChIJD4i0aY6-EmsRN3x3AKN8gl4"
  },
  {
    "name": "Aria Carpentry & Construction Pty Limited",
    "address": "Unit 6/ 4/20 Violet St, Revesby NSW 2212, Australia",
    "suburb": "Revesby NSW 2212",
    "state": "NSW",
    "rating": 5,
    "reviews": 1,
    "lat": -33.9355909,
    "lng": 151.0059212,
    "place_id": "ChIJq6r2wPe7EmsRsMhm7Rz73dk",
    "maps_url": "https://www.google.com/maps/place/?q=place_id:ChIJq6r2wPe7EmsRsMhm7Rz73dk"
  },
  {
    "name": "Eminence Carpentry",
    "address": "Suite 3/144 Waterloo Rd, Greenacre NSW 2190, Australia",
    "suburb": "Greenacre NSW 2190",
    "state": "NSW",
    "rating": 5,
    "reviews": 1,
    "lat": -33.9078847,
    "lng": 151.0568926,
    "place_id": "ChIJk7xWe_W7EmsRauDKwpYWEDE",
    "maps_url": "https://www.google.com/maps/place/?q=place_id:ChIJk7xWe_W7EmsRauDKwpYWEDE"
  },
  {
    "name": "Radz Renovations",
    "address": "5 Gould St, Bankstown NSW 2200, Australia",
    "suburb": "Bankstown NSW 2200",
    "state": "NSW",
    "rating": 5,
    "reviews": 30,
    "lat": -33.9119935,
    "lng": 151.0161623,
    "place_id": "ChIJU4dy8gTFxggRLGSFkQhBtnM",
    "maps_url": "https://www.google.com/maps/place/?q=place_id:ChIJU4dy8gTFxggRLGSFkQhBtnM"
  },
  {
    "name": "Quality Carpentry Sydney",
    "address": "26 Millwood Ave, Chatswood West NSW 2067, Australia",
    "suburb": "Chatswood West NSW 2067",
    "state": "NSW",
    "rating": 5,
    "reviews": 20,
    "lat": -33.7941529,
    "lng": 151.1656956,
    "place_id": "ChIJhzcqF6alEmsRnfVxD80r9nk",
    "maps_url": "https://www.google.com/maps/place/?q=place_id:ChIJhzcqF6alEmsRnfVxD80r9nk"
  },
  {
    "name": "Anteks Carpentry And Handyman",
    "address": "unit 5 upper/87 Reserve Rd, Artarmon NSW 2064, Australia",
    "suburb": "Artarmon NSW 2064",
    "state": "NSW",
    "rating": 4.8,
    "reviews": 143,
    "lat": -33.8155287,
    "lng": 151.1868756,
    "place_id": "ChIJpRs7hNGuEmsR7hypl9HQl3I",
    "maps_url": "https://www.google.com/maps/place/?q=place_id:ChIJpRs7hNGuEmsR7hypl9HQl3I"
  },
  {
    "name": "Blackwood Carpentry and Joinery Pty Ltd",
    "address": "Killeaton St, St Ives NSW 2075, Australia",
    "suburb": "St Ives NSW 2075",
    "state": "NSW",
    "rating": 5,
    "reviews": 16,
    "lat": -33.729843,
    "lng": 151.1560904,
    "place_id": "ChIJVag9IaqpEmsR4yyQ-hpeoW4",
    "maps_url": "https://www.google.com/maps/place/?q=place_id:ChIJVag9IaqpEmsR4yyQ-hpeoW4"
  },
  {
    "name": "Pacific Joinery Co.",
    "address": "Unit 2/25 Dickson Ave, Artarmon NSW 2064, Australia",
    "suburb": "Artarmon NSW 2064",
    "state": "NSW",
    "rating": 5,
    "reviews": 1,
    "lat": -33.8152977,
    "lng": 151.1849977,
    "place_id": "ChIJGwIRFievEmsRM7-aEL34tL8",
    "maps_url": "https://www.google.com/maps/place/?q=place_id:ChIJGwIRFievEmsRM7-aEL34tL8"
  },
  {
    "name": "GY Carpentry",
    "address": "8 Darwin St, West Ryde NSW 2114, Australia",
    "suburb": "West Ryde NSW 2114",
    "state": "NSW",
    "rating": 5,
    "reviews": 6,
    "lat": -33.8105107,
    "lng": 151.0805944,
    "place_id": "ChIJMYBSsIbHKIcRUCmEOzD2-DU",
    "maps_url": "https://www.google.com/maps/place/?q=place_id:ChIJMYBSsIbHKIcRUCmEOzD2-DU"
  },
  {
    "name": "BD Carpentry & Maintenance",
    "address": "Lanceley Pl, Artarmon NSW 2064, Australia",
    "suburb": "Artarmon NSW 2064",
    "state": "NSW",
    "rating": 5,
    "reviews": 3,
    "lat": -33.8181921,
    "lng": 151.1868398,
    "place_id": "ChIJF4Yxkx89BQgRY3vtXpbXz5A",
    "maps_url": "https://www.google.com/maps/place/?q=place_id:ChIJF4Yxkx89BQgRY3vtXpbXz5A"
  },
  {
    "name": "The Cove Handyman Services",
    "address": "510/2 Burley St, Lane Cove North NSW 2066, Australia",
    "suburb": "Lane Cove North NSW 2066",
    "state": "NSW",
    "rating": 5,
    "reviews": 34,
    "lat": -33.8119283,
    "lng": 151.175048,
    "place_id": "ChIJKT-qazGvEmsRf4t3aOPJ9Lk",
    "maps_url": "https://www.google.com/maps/place/?q=place_id:ChIJKT-qazGvEmsRf4t3aOPJ9Lk"
  },
  {
    "name": "AJP CONSTRUCTIONS PTY LTD",
    "address": "11U/175 Lower Gibbes St, Chatswood NSW 2067, Australia",
    "suburb": "Chatswood NSW 2067",
    "state": "NSW",
    "rating": 5,
    "reviews": 6,
    "lat": -33.784039,
    "lng": 151.1975711,
    "place_id": "ChIJYUE0wDGpEmsR6W4VpRSkZGQ",
    "maps_url": "https://www.google.com/maps/place/?q=place_id:ChIJYUE0wDGpEmsR6W4VpRSkZGQ"
  },
  {
    "name": "Cedar Bespoke",
    "address": "Page St, Banksmeadow NSW 2019, Australia",
    "suburb": "Banksmeadow NSW 2019",
    "state": "NSW",
    "rating": 5,
    "reviews": 6,
    "lat": -33.9427547,
    "lng": 151.2123388,
    "place_id": "ChIJiWZiIoSxEmsRpF9Lks3pEDE",
    "maps_url": "https://www.google.com/maps/place/?q=place_id:ChIJiWZiIoSxEmsRpF9Lks3pEDE"
  },
  {
    "name": "Bespoke Joinery",
    "address": "C2/15 Garema Cct, Kingsgrove NSW 2208, Australia",
    "suburb": "Kingsgrove NSW 2208",
    "state": "NSW",
    "rating": 5,
    "reviews": 24,
    "lat": -33.9374303,
    "lng": 151.0946999,
    "place_id": "ChIJcTIugjy5EmsRXmRIDRsf5ak",
    "maps_url": "https://www.google.com/maps/place/?q=place_id:ChIJcTIugjy5EmsRXmRIDRsf5ak"
  },
  {
    "name": "LGW Home Renovation - Gyprock / Plastering and Carpenters",
    "address": "Shop 129, Mandarin Centre, 65 Albert Ave, Chatswood NSW 2067, Australia",
    "suburb": "Mandarin Centre",
    "state": "NSW",
    "rating": 4.8,
    "reviews": 16,
    "lat": -33.7980558,
    "lng": 151.1821582,
    "place_id": "ChIJa2Ht6Ai7EmsRq1_e-PtaqPU",
    "maps_url": "https://www.google.com/maps/place/?q=place_id:ChIJa2Ht6Ai7EmsRq1_e-PtaqPU"
  },
  {
    "name": "Mac Joinery",
    "address": "3/15 Brennan Cl, Asquith NSW 2077, Australia",
    "suburb": "Asquith NSW 2077",
    "state": "NSW",
    "rating": 4.8,
    "reviews": 25,
    "lat": -33.6969881,
    "lng": 151.1095099,
    "place_id": "ChIJkwJL8nZYDWsRGSF4T8_3fOs",
    "maps_url": "https://www.google.com/maps/place/?q=place_id:ChIJkwJL8nZYDWsRGSF4T8_3fOs"
  },
  {
    "name": "Eire Furniture And Joinery",
    "address": "2b/21-23 King Rd, Hornsby NSW 2077, Australia",
    "suburb": "Hornsby NSW 2077",
    "state": "NSW",
    "rating": 5,
    "reviews": 11,
    "lat": -33.6979062,
    "lng": 151.1101012,
    "place_id": "ChIJYQvxaHZYDWsR1jP3uAfMQwQ",
    "maps_url": "https://www.google.com/maps/place/?q=place_id:ChIJYQvxaHZYDWsR1jP3uAfMQwQ"
  },
  {
    "name": "coco joinery by design",
    "address": "9/51 Leighton Pl, Hornsby NSW 2077, Australia",
    "suburb": "Hornsby NSW 2077",
    "state": "NSW",
    "rating": null,
    "reviews": 0,
    "lat": -33.694639,
    "lng": 151.114041,
    "place_id": "ChIJw50BR_BZDWsRqBv1MegK4f0",
    "maps_url": "https://www.google.com/maps/place/?q=place_id:ChIJw50BR_BZDWsRqBv1MegK4f0"
  },
  {
    "name": "Point to Point Carpentry and Building Services Pty Ltd",
    "address": "3/14 Brennan Cl, Asquith NSW 2077, Australia",
    "suburb": "Asquith NSW 2077",
    "state": "NSW",
    "rating": 5,
    "reviews": 5,
    "lat": -33.6966959,
    "lng": 151.109382,
    "place_id": "ChIJNUm22951rGIRThnXJ08iG3s",
    "maps_url": "https://www.google.com/maps/place/?q=place_id:ChIJNUm22951rGIRThnXJ08iG3s"
  },
  {
    "name": "Boustead and Brown-Custom Made Timber Furniture & Joinery",
    "address": "unit5/17 King Rd, Hornsby NSW 2077, Australia",
    "suburb": "Hornsby NSW 2077",
    "state": "NSW",
    "rating": 5,
    "reviews": 7,
    "lat": -33.6980516,
    "lng": 151.1096009,
    "place_id": "ChIJq6oaXXZYDWsRoN2EStoARgw",
    "maps_url": "https://www.google.com/maps/place/?q=place_id:ChIJq6oaXXZYDWsRoN2EStoARgw"
  },
  {
    "name": "North Shore Design & Joinery",
    "address": "4/14 Brennan Cl, Asquith NSW 2077, Australia",
    "suburb": "Asquith NSW 2077",
    "state": "NSW",
    "rating": 5,
    "reviews": 1,
    "lat": -33.6966959,
    "lng": 151.109382,
    "place_id": "ChIJidTU7XZYDWsRxdeKe35Hu7Q",
    "maps_url": "https://www.google.com/maps/place/?q=place_id:ChIJidTU7XZYDWsRxdeKe35Hu7Q"
  },
  {
    "name": "Carpentry services",
    "address": "King Rd, Wahroonga NSW 2076, Australia",
    "suburb": "Wahroonga NSW 2076",
    "state": "NSW",
    "rating": 5,
    "reviews": 5,
    "lat": -33.7013357,
    "lng": 151.114861,
    "place_id": "ChIJfTYsMxmnEmsRuq_DuvbNe0Y",
    "maps_url": "https://www.google.com/maps/place/?q=place_id:ChIJfTYsMxmnEmsRuq_DuvbNe0Y"
  },
  {
    "name": "David Strain Constructions",
    "address": "9 Kalang Rd, Mount Colah NSW 2079, Australia",
    "suburb": "Mount Colah NSW 2079",
    "state": "NSW",
    "rating": 5,
    "reviews": 13,
    "lat": -33.6766452,
    "lng": 151.1078035,
    "place_id": "ChIJl1iLIRSnEmsRIu7gEMCMjWc",
    "maps_url": "https://www.google.com/maps/place/?q=place_id:ChIJl1iLIRSnEmsRIu7gEMCMjWc"
  },
  {
    "name": ".",
    "address": "9 Bungowen Ave, Thornleigh NSW 2120, Australia",
    "suburb": "Thornleigh NSW 2120",
    "state": "NSW",
    "rating": 5,
    "reviews": 1,
    "lat": -33.7173134,
    "lng": 151.0800939,
    "place_id": "ChIJy7DQRnanEmsRx3C-K_DqHOg",
    "maps_url": "https://www.google.com/maps/place/?q=place_id:ChIJy7DQRnanEmsRx3C-K_DqHOg"
  },
  {
    "name": "Chris Evans Carpentry and handyman Services",
    "address": "39 Somerville Rd, Hornsby Heights NSW 2077, Australia",
    "suburb": "Hornsby Heights NSW 2077",
    "state": "NSW",
    "rating": 1,
    "reviews": 1,
    "lat": -33.667688,
    "lng": 151.0982479,
    "place_id": "ChIJhQmVjMpZDWsRaTWNLkR9MXE",
    "maps_url": "https://www.google.com/maps/place/?q=place_id:ChIJhQmVjMpZDWsRaTWNLkR9MXE"
  },
  {
    "name": "Greenvue Constructions",
    "address": "15 Brennan Cl, Asquith NSW 2077, Australia",
    "suburb": "Asquith NSW 2077",
    "state": "NSW",
    "rating": 5,
    "reviews": 26,
    "lat": -33.6968764,
    "lng": 151.1106817,
    "place_id": "ChIJKxGepo1XDWsRGqWh9P_R-M4",
    "maps_url": "https://www.google.com/maps/place/?q=place_id:ChIJKxGepo1XDWsRGqWh9P_R-M4"
  },
  {
    "name": "Blackall Constructions",
    "address": "Level 1/22-28 Edgeworth David Ave, Hornsby NSW 2077, Australia",
    "suburb": "Hornsby NSW 2077",
    "state": "NSW",
    "rating": 5,
    "reviews": 8,
    "lat": -33.706244,
    "lng": 151.1032477,
    "place_id": "ChIJPZ0m5BlbDWsR7x9OmdpRB6A",
    "maps_url": "https://www.google.com/maps/place/?q=place_id:ChIJPZ0m5BlbDWsR7x9OmdpRB6A"
  },
  {
    "name": "Northern Carpentry & Joinery PTY. LTD",
    "address": "Unit 5/43 Martin St, Freshwater NSW 2096, Australia",
    "suburb": "Freshwater NSW 2096",
    "state": "NSW",
    "rating": 5,
    "reviews": 13,
    "lat": -33.7775486,
    "lng": 151.2768555,
    "place_id": "ChIJ3XQYQUirEmsRu7oF3qRyMa8",
    "maps_url": "https://www.google.com/maps/place/?q=place_id:ChIJ3XQYQUirEmsRu7oF3qRyMa8"
  },
  {
    "name": "Matiere",
    "address": "78a Balgowlah Rd, Balgowlah NSW 2093, Australia",
    "suburb": "Balgowlah NSW 2093",
    "state": "NSW",
    "rating": 5,
    "reviews": 81,
    "lat": -33.7895461,
    "lng": 151.2636416,
    "place_id": "ChIJkxZEU5mrEmsRfkYMOGcLURo",
    "maps_url": "https://www.google.com/maps/place/?q=place_id:ChIJkxZEU5mrEmsRfkYMOGcLURo"
  },
  {
    "name": "MJ Leckie Carpentry",
    "address": "1/269 Harbord Rd, Brookvale NSW 2100, Australia",
    "suburb": "Brookvale NSW 2100",
    "state": "NSW",
    "rating": 5,
    "reviews": 18,
    "lat": -33.7594444,
    "lng": 151.2808333,
    "place_id": "ChIJwUB9dgipEmsRvaWKMHdapwA",
    "maps_url": "https://www.google.com/maps/place/?q=place_id:ChIJwUB9dgipEmsRvaWKMHdapwA"
  },
  {
    "name": "Jensen Carpentry & Construction",
    "address": "2 Parkes St, Manly Vale NSW 2093, Australia",
    "suburb": "Manly Vale NSW 2093",
    "state": "NSW",
    "rating": 5,
    "reviews": 4,
    "lat": -33.7845223,
    "lng": 151.271294,
    "place_id": "ChIJUZw66kmrEmsRjEPFVadoEpo",
    "maps_url": "https://www.google.com/maps/place/?q=place_id:ChIJUZw66kmrEmsRjEPFVadoEpo"
  },
  {
    "name": "Thomas Taylor Carpentry",
    "address": "13 Carlton St, Freshwater NSW 2096, Australia",
    "suburb": "Freshwater NSW 2096",
    "state": "NSW",
    "rating": 5,
    "reviews": 13,
    "lat": -33.7755446,
    "lng": 151.2887867,
    "place_id": "ChIJpRJcmGurEmsRL11cvGGYH5g",
    "maps_url": "https://www.google.com/maps/place/?q=place_id:ChIJpRJcmGurEmsRL11cvGGYH5g"
  },
  {
    "name": "Skilled Carpenters Services Pty Ltd",
    "address": "3 Torver Pl, Wheeler Heights NSW 2097, Australia",
    "suburb": "Wheeler Heights NSW 2097",
    "state": "NSW",
    "rating": 5,
    "reviews": 38,
    "lat": -33.7274589,
    "lng": 151.2778536,
    "place_id": "ChIJXXqd4KmrEmsREix8yMXBmUk",
    "maps_url": "https://www.google.com/maps/place/?q=place_id:ChIJXXqd4KmrEmsREix8yMXBmUk"
  },
  {
    "name": "Prospective Building - Architectural Home Renovations and Carpentry",
    "address": "1/11 Lower Beach St, Balgowlah NSW 2093, Australia",
    "suburb": "Balgowlah NSW 2093",
    "state": "NSW",
    "rating": 5,
    "reviews": 7,
    "lat": -33.799436,
    "lng": 151.2641426,
    "place_id": "ChIJq9btg3CrEmsRnT7lg6Qm3Do",
    "maps_url": "https://www.google.com/maps/place/?q=place_id:ChIJq9btg3CrEmsRnT7lg6Qm3Do"
  },
  {
    "name": "The Artisan Handyman",
    "address": "4 Glenside St, Balgowlah Heights NSW 2093, Australia",
    "suburb": "Balgowlah Heights NSW 2093",
    "state": "NSW",
    "rating": 5,
    "reviews": 18,
    "lat": -33.8052174,
    "lng": 151.2653269,
    "place_id": "ChIJRTmm3parEmsRONmAkbFHp4o",
    "maps_url": "https://www.google.com/maps/place/?q=place_id:ChIJRTmm3parEmsRONmAkbFHp4o"
  },
  {
    "name": "Beaches Joinery",
    "address": "2/8-10 Chard Rd, Brookvale NSW 2100, Australia",
    "suburb": "Brookvale NSW 2100",
    "state": "NSW",
    "rating": 5,
    "reviews": 6,
    "lat": -33.7628073,
    "lng": 151.2728802,
    "place_id": "ChIJV2Njlc1VDWsRpJ9Wxlger4o",
    "maps_url": "https://www.google.com/maps/place/?q=place_id:ChIJV2Njlc1VDWsRpJ9Wxlger4o"
  },
  {
    "name": "Bondi Carpentry and Maintenance",
    "address": "128 Warners Ave, Bondi Beach NSW 2026, Australia",
    "suburb": "Bondi Beach NSW 2026",
    "state": "NSW",
    "rating": 4.9,
    "reviews": 24,
    "lat": -33.888142,
    "lng": 151.277711,
    "place_id": "ChIJDyBEr5-tEmsRnvx5st0_0bA",
    "maps_url": "https://www.google.com/maps/place/?q=place_id:ChIJDyBEr5-tEmsRnvx5st0_0bA"
  },
  {
    "name": "Italian Touch Carpentry",
    "address": "78 Curlewis St, Bondi Beach NSW 2026, Australia",
    "suburb": "Bondi Beach NSW 2026",
    "state": "NSW",
    "rating": 5,
    "reviews": 27,
    "lat": -33.887195,
    "lng": 151.271812,
    "place_id": "ChIJ8RvMz8O6K24Rkd0bKMxlDfA",
    "maps_url": "https://www.google.com/maps/place/?q=place_id:ChIJ8RvMz8O6K24Rkd0bKMxlDfA"
  },
  {
    "name": "Yeows Carpentry",
    "address": "353A Old South Head Rd, North Bondi NSW 2026, Australia",
    "suburb": "North Bondi NSW 2026",
    "state": "NSW",
    "rating": 5,
    "reviews": 1,
    "lat": -33.8830356,
    "lng": 151.270472,
    "place_id": "ChIJ_ZUTKIGtEmsRATj-IANRkgo",
    "maps_url": "https://www.google.com/maps/place/?q=place_id:ChIJ_ZUTKIGtEmsRATj-IANRkgo"
  },
  {
    "name": "Italian Touch Handyman",
    "address": "78 Curlewis St, Bondi Beach NSW 2026, Australia",
    "suburb": "Bondi Beach NSW 2026",
    "state": "NSW",
    "rating": 5,
    "reviews": 7,
    "lat": -33.887195,
    "lng": 151.271812,
    "place_id": "ChIJ18B--HkHoogRCnQzrWWviAs",
    "maps_url": "https://www.google.com/maps/place/?q=place_id:ChIJ18B--HkHoogRCnQzrWWviAs"
  },
  {
    "name": "Lavoretti’s - Bondi Handyman",
    "address": "Campbell Parade, Bondi Beach NSW 2026, Australia",
    "suburb": "Bondi Beach NSW 2026",
    "state": "NSW",
    "rating": 5,
    "reviews": 175,
    "lat": -33.8911193,
    "lng": 151.2744804,
    "place_id": "ChIJmwBGapG7GqYR_GG8Tk5BDBc",
    "maps_url": "https://www.google.com/maps/place/?q=place_id:ChIJmwBGapG7GqYR_GG8Tk5BDBc"
  },
  {
    "name": "Bondi Beach Handyman/Roof repairs",
    "address": "316 Birrell St, Bondi NSW 2026, Australia",
    "suburb": "Bondi NSW 2026",
    "state": "NSW",
    "rating": 4.7,
    "reviews": 59,
    "lat": -33.8976098,
    "lng": 151.2638238,
    "place_id": "ChIJxUVqhA-tEmsRd5pireo0qYk",
    "maps_url": "https://www.google.com/maps/place/?q=place_id:ChIJxUVqhA-tEmsRd5pireo0qYk"
  },
  {
    "name": "G-Force Carpentry",
    "address": "2A Hollywood Ave, Bondi Junction NSW 2022, Australia",
    "suburb": "Bondi Junction NSW 2022",
    "state": "NSW",
    "rating": 5,
    "reviews": 7,
    "lat": -33.8923199,
    "lng": 151.2527393,
    "place_id": "ChIJqe1tkl2tEmsRa7lgYv7EnA0",
    "maps_url": "https://www.google.com/maps/place/?q=place_id:ChIJqe1tkl2tEmsRa7lgYv7EnA0"
  },
  {
    "name": "Custom Cut Projects PTY LTD",
    "address": "4 Military Rd, North Bondi NSW 2026, Australia",
    "suburb": "North Bondi NSW 2026",
    "state": "NSW",
    "rating": 5,
    "reviews": 16,
    "lat": -33.8881299,
    "lng": 151.2830685,
    "place_id": "ChIJc_sqL8GtEmsR33Mbk9cmK30",
    "maps_url": "https://www.google.com/maps/place/?q=place_id:ChIJc_sqL8GtEmsR33Mbk9cmK30"
  },
  {
    "name": "Hengist & Horsa Construction.",
    "address": "2 Jaques Ave, Bondi Beach NSW 2026, Australia",
    "suburb": "Bondi Beach NSW 2026",
    "state": "NSW",
    "rating": 5,
    "reviews": 24,
    "lat": -33.8912534,
    "lng": 151.2730035,
    "place_id": "ChIJ7YcVAs6tEmsRTNWp2GbKMAA",
    "maps_url": "https://www.google.com/maps/place/?q=place_id:ChIJ7YcVAs6tEmsRTNWp2GbKMAA"
  },
  {
    "name": "Guthrey Build",
    "address": "16 Military Rd, North Bondi NSW 2026, Australia",
    "suburb": "North Bondi NSW 2026",
    "state": "NSW",
    "rating": 5,
    "reviews": 6,
    "lat": -33.8867086,
    "lng": 151.2834844,
    "place_id": "ChIJI_d22_2tEmsRaDFDeudkwzs",
    "maps_url": "https://www.google.com/maps/place/?q=place_id:ChIJI_d22_2tEmsRaDFDeudkwzs"
  },
  {
    "name": "Maple Carpentry",
    "address": "303/1 Spring St, Bondi Junction NSW 2022, Australia",
    "suburb": "Bondi Junction NSW 2022",
    "state": "NSW",
    "rating": 4.1,
    "reviews": 9,
    "lat": -33.8923576,
    "lng": 151.2452636,
    "place_id": "ChIJ70DpnletEmsR9sFK41D_nVo",
    "maps_url": "https://www.google.com/maps/place/?q=place_id:ChIJ70DpnletEmsR9sFK41D_nVo"
  },
  {
    "name": "Bondi Kitchens & Joinery",
    "address": "34 Chapel St, Marrickville NSW 2204, Australia",
    "suburb": "Marrickville NSW 2204",
    "state": "NSW",
    "rating": 4.8,
    "reviews": 16,
    "lat": -33.9080582,
    "lng": 151.1656549,
    "place_id": "ChIJJf0JeEOwEmsRfy5M85bFRgM",
    "maps_url": "https://www.google.com/maps/place/?q=place_id:ChIJJf0JeEOwEmsRfy5M85bFRgM"
  },
  {
    "name": "Bondi Handyman",
    "address": "Bondi NSW 2026, Australia",
    "suburb": "Australia",
    "state": "NSW",
    "rating": 5,
    "reviews": 3,
    "lat": -33.8878532,
    "lng": 151.2732638,
    "place_id": "ChIJSdJspKOtEmsRdtyK21aHrCE",
    "maps_url": "https://www.google.com/maps/place/?q=place_id:ChIJSdJspKOtEmsRdtyK21aHrCE"
  },
  {
    "name": "Framewise Carpentry",
    "address": "33 Newington Rd, Marrickville NSW 2042, Australia",
    "suburb": "Marrickville NSW 2042",
    "state": "NSW",
    "rating": 5,
    "reviews": 18,
    "lat": -33.9011808,
    "lng": 151.1679208,
    "place_id": "ChIJXVX-WoWwP4ER-7zQBQJXZD0",
    "maps_url": "https://www.google.com/maps/place/?q=place_id:ChIJXVX-WoWwP4ER-7zQBQJXZD0"
  },
  {
    "name": "Top Day Constructions",
    "address": "21 Margaret St, Newtown NSW 2042, Australia",
    "suburb": "Newtown NSW 2042",
    "state": "NSW",
    "rating": 5,
    "reviews": 1,
    "lat": -33.9008833,
    "lng": 151.1762635,
    "place_id": "ChIJiUdC5DewEmsRahYvEcaMK3Y",
    "maps_url": "https://www.google.com/maps/place/?q=place_id:ChIJiUdC5DewEmsRahYvEcaMK3Y"
  },
  {
    "name": "Steller Group Pty Ltd",
    "address": "32/110 Bourke Rd, Alexandria NSW 2015, Australia",
    "suburb": "Alexandria NSW 2015",
    "state": "NSW",
    "rating": 4.9,
    "reviews": 43,
    "lat": -33.9128051,
    "lng": 151.1938747,
    "place_id": "ChIJwyTlIXy3EmsRDoPtVW7o9GM",
    "maps_url": "https://www.google.com/maps/place/?q=place_id:ChIJwyTlIXy3EmsRDoPtVW7o9GM"
  },
  {
    "name": "Bespoke Architectural Joinery",
    "address": "Level 22/101 Grafton St, Bondi Junction NSW 2022, Australia",
    "suburb": "Bondi Junction NSW 2022",
    "state": "NSW",
    "rating": 5,
    "reviews": 11,
    "lat": -33.8913574,
    "lng": 151.2506963,
    "place_id": "ChIJvWXXVBalEmsRJIuWgnDlkM0",
    "maps_url": "https://www.google.com/maps/place/?q=place_id:ChIJvWXXVBalEmsRJIuWgnDlkM0"
  },
  {
    "name": "Bell’s Handyman Pty Ltd",
    "address": "Unit 29/76b Edinburgh Rd, Marrickville NSW 2204, Australia",
    "suburb": "Marrickville NSW 2204",
    "state": "NSW",
    "rating": 4.9,
    "reviews": 96,
    "lat": -33.9082918,
    "lng": 151.1691404,
    "place_id": "ChIJRdCyaYDZWm8RbnwPpgP5ASQ",
    "maps_url": "https://www.google.com/maps/place/?q=place_id:ChIJRdCyaYDZWm8RbnwPpgP5ASQ"
  },
  {
    "name": "Get it Done Carpentry",
    "address": "14 Glenview Rd, Mount Kuring-gai NSW 2080, Australia",
    "suburb": "Mount Kuring-gai NSW 2080",
    "state": "NSW",
    "rating": 5,
    "reviews": 1,
    "lat": -33.6547706,
    "lng": 151.1331729,
    "place_id": "ChIJhYHtCtpZDWsRFAl4zOJ51cc",
    "maps_url": "https://www.google.com/maps/place/?q=place_id:ChIJhYHtCtpZDWsRFAl4zOJ51cc"
  },
  {
    "name": "Eyedeal Constructions",
    "address": "39 Pleasant Ave, Erskineville NSW 2043, Australia",
    "suburb": "Erskineville NSW 2043",
    "state": "NSW",
    "rating": 5,
    "reviews": 2,
    "lat": -33.902385,
    "lng": 151.1830656,
    "place_id": "ChIJX4XIkTWwEmsRzaXoCuUPf2c",
    "maps_url": "https://www.google.com/maps/place/?q=place_id:ChIJX4XIkTWwEmsRzaXoCuUPf2c"
  },
  {
    "name": "Kestrel",
    "address": "103 Gowrie St, Newtown NSW 2042, Australia",
    "suburb": "Newtown NSW 2042",
    "state": "NSW",
    "rating": 5,
    "reviews": 11,
    "lat": -33.901863,
    "lng": 151.180483,
    "place_id": "ChIJkzveBDawEmsR0dHBk744pJ8",
    "maps_url": "https://www.google.com/maps/place/?q=place_id:ChIJkzveBDawEmsR0dHBk744pJ8"
  },
  {
    "name": "Bibliotheque Pty Ltd",
    "address": "1 Smidmore St, Marrickville NSW 2204, Australia",
    "suburb": "Marrickville NSW 2204",
    "state": "NSW",
    "rating": 5,
    "reviews": 2,
    "lat": -33.9073792,
    "lng": 151.1732347,
    "place_id": "ChIJbWk3EmewEmsR-9uANzPPxR0",
    "maps_url": "https://www.google.com/maps/place/?q=place_id:ChIJbWk3EmewEmsR-9uANzPPxR0"
  },
  {
    "name": "Westside Interiors",
    "address": "860 Padman Dr, West Albury NSW 2640, Australia",
    "suburb": "West Albury NSW 2640",
    "state": "NSW",
    "rating": 5,
    "reviews": 35,
    "lat": -36.0804343,
    "lng": 146.8970343,
    "place_id": "ChIJsUHr36BfIWsRFL-XpQJdmpg",
    "maps_url": "https://www.google.com/maps/place/?q=place_id:ChIJsUHr36BfIWsRFL-XpQJdmpg"
  },
  {
    "name": "PG Carpentry and Handyman",
    "address": "26 Hawker St, Safety Bay WA 6169, Australia",
    "suburb": "Safety Bay WA 6169",
    "state": "NSW",
    "rating": 5,
    "reviews": 45,
    "lat": -32.3025182,
    "lng": 115.7191714,
    "place_id": "ChIJ11kQWn4nWGoR_qKIxNofEp8",
    "maps_url": "https://www.google.com/maps/place/?q=place_id:ChIJ11kQWn4nWGoR_qKIxNofEp8"
  },
  {
    "name": "WB Carpentry",
    "address": "573 Hovell St, South Albury NSW 2640, Australia",
    "suburb": "South Albury NSW 2640",
    "state": "NSW",
    "rating": 5,
    "reviews": 2,
    "lat": -36.0868623,
    "lng": 146.9125053,
    "place_id": "ChIJq6peCF1fIWsRSu4ZGXOCNOE",
    "maps_url": "https://www.google.com/maps/place/?q=place_id:ChIJq6peCF1fIWsRSu4ZGXOCNOE"
  },
  {
    "name": "Meredith Joinery & Design",
    "address": "900 Calimo St, North Albury NSW 2640, Australia",
    "suburb": "North Albury NSW 2640",
    "state": "NSW",
    "rating": 5,
    "reviews": 5,
    "lat": -36.0634143,
    "lng": 146.9406639,
    "place_id": "ChIJa0COXCHhI2sRK9jM--MOEuk",
    "maps_url": "https://www.google.com/maps/place/?q=place_id:ChIJa0COXCHhI2sRK9jM--MOEuk"
  },
  {
    "name": "Wodonga Joinery",
    "address": "963 Garland Ave, North Albury NSW 2640, Australia",
    "suburb": "North Albury NSW 2640",
    "state": "NSW",
    "rating": 5,
    "reviews": 13,
    "lat": -36.0608952,
    "lng": 146.9495446,
    "place_id": "ChIJnzCheuhYIWsRf74fAtfh9_o",
    "maps_url": "https://www.google.com/maps/place/?q=place_id:ChIJnzCheuhYIWsRf74fAtfh9_o"
  },
  {
    "name": "Pro Vision Carpentry and Glazing",
    "address": "330 Kiewa St, South Albury NSW 2640, Australia",
    "suburb": "South Albury NSW 2640",
    "state": "NSW",
    "rating": null,
    "reviews": 0,
    "lat": -36.0898968,
    "lng": 146.9142695,
    "place_id": "ChIJNciDeRhfIWsR6sZB3SdkLIY",
    "maps_url": "https://www.google.com/maps/place/?q=place_id:ChIJNciDeRhfIWsR6sZB3SdkLIY"
  },
  {
    "name": "Sir Fixer Upper Albury",
    "address": "Su 1, 485 Swift St, Albury NSW 2640, Australia",
    "suburb": "485 Swift St",
    "state": "NSW",
    "rating": 5,
    "reviews": 12,
    "lat": -36.079393,
    "lng": 146.919595,
    "place_id": "ChIJHc0zQxpfIWsRWcGdq0hppqY",
    "maps_url": "https://www.google.com/maps/place/?q=place_id:ChIJHc0zQxpfIWsRWcGdq0hppqY"
  },
  {
    "name": "O'Neill Carpentry & Construction",
    "address": "354 North St, North Albury NSW 2640, Australia",
    "suburb": "North Albury NSW 2640",
    "state": "NSW",
    "rating": null,
    "reviews": 0,
    "lat": -36.0685602,
    "lng": 146.9309902,
    "place_id": "ChIJAQBwmC3gI2sRGc6pTV_NnYU",
    "maps_url": "https://www.google.com/maps/place/?q=place_id:ChIJAQBwmC3gI2sRGc6pTV_NnYU"
  },
  {
    "name": "Hawk Renovations",
    "address": "95 Rosedale Dr, West Albury NSW 2640, Australia",
    "suburb": "West Albury NSW 2640",
    "state": "NSW",
    "rating": 5,
    "reviews": 23,
    "lat": -36.0689104,
    "lng": 146.8894315,
    "place_id": "ChIJG90XHLXCFUgR8JK56eA7MkU",
    "maps_url": "https://www.google.com/maps/place/?q=place_id:ChIJG90XHLXCFUgR8JK56eA7MkU"
  },
  {
    "name": "Maple Ridge Joinery",
    "address": "64 Boathaven Rd, Ebden VIC 3691, Australia",
    "suburb": "Ebden VIC 3691",
    "state": "NSW",
    "rating": 5,
    "reviews": 2,
    "lat": -36.144519,
    "lng": 147.0134722,
    "place_id": "ChIJwTghyQfkI2sRlGVLgbn9sD0",
    "maps_url": "https://www.google.com/maps/place/?q=place_id:ChIJwTghyQfkI2sRlGVLgbn9sD0"
  },
  {
    "name": "Master Kitchens and Joinery",
    "address": "21b Bennu Cct, Albury NSW 2640, Australia",
    "suburb": "Albury NSW 2640",
    "state": "NSW",
    "rating": 5,
    "reviews": 3,
    "lat": -36.0705364,
    "lng": 146.967432,
    "place_id": "ChIJq29uyvfgI2sR36jFShlHALg",
    "maps_url": "https://www.google.com/maps/place/?q=place_id:ChIJq29uyvfgI2sR36jFShlHALg"
  },
  {
    "name": "Border Building Solutions",
    "address": "944 Carcoola St, North Albury NSW 2640, Australia",
    "suburb": "North Albury NSW 2640",
    "state": "NSW",
    "rating": 5,
    "reviews": 4,
    "lat": -36.0616521,
    "lng": 146.9435055,
    "place_id": "ChIJeyqikSKySAARr-FiEImOQL0",
    "maps_url": "https://www.google.com/maps/place/?q=place_id:ChIJeyqikSKySAARr-FiEImOQL0"
  },
  {
    "name": "Sam Plunkett Cabinetry",
    "address": "393 Townsend St, South Albury NSW 2640, Australia",
    "suburb": "South Albury NSW 2640",
    "state": "NSW",
    "rating": 5,
    "reviews": 3,
    "lat": -36.0857444,
    "lng": 146.9116482,
    "place_id": "ChIJkffACFZfIWsRosgouoWltTA",
    "maps_url": "https://www.google.com/maps/place/?q=place_id:ChIJkffACFZfIWsRosgouoWltTA"
  },
  {
    "name": "Wolki Construction",
    "address": "Unit 11/49 Leda Dr, Burleigh Heads QLD 4220, Australia",
    "suburb": "Burleigh Heads QLD 4220",
    "state": "NSW",
    "rating": 5,
    "reviews": 57,
    "lat": -28.1030232,
    "lng": 153.4332077,
    "place_id": "ChIJ3wtkRoXf9IYRyGPNAOoiVW8",
    "maps_url": "https://www.google.com/maps/place/?q=place_id:ChIJ3wtkRoXf9IYRyGPNAOoiVW8"
  },
  {
    "name": "VJS Joinery Supplies.",
    "address": "61 Fallon St, East Albury NSW 2640, Australia",
    "suburb": "East Albury NSW 2640",
    "state": "NSW",
    "rating": 4.8,
    "reviews": 11,
    "lat": -36.0657813,
    "lng": 146.9477173,
    "place_id": "ChIJv1EWaEbgI2sR6uydUdPFYNY",
    "maps_url": "https://www.google.com/maps/place/?q=place_id:ChIJv1EWaEbgI2sR6uydUdPFYNY"
  },
  {
    "name": "Top Shelf Joinery",
    "address": "26 Chaston St, Wagga Wagga NSW 2650, Australia",
    "suburb": "Wagga Wagga NSW 2650",
    "state": "NSW",
    "rating": 5,
    "reviews": 2,
    "lat": -35.1215901,
    "lng": 147.3508852,
    "place_id": "ChIJM8alQWuZGGsR527EVAiQIsE",
    "maps_url": "https://www.google.com/maps/place/?q=place_id:ChIJM8alQWuZGGsR527EVAiQIsE"
  },
  {
    "name": "New Image Joinery",
    "address": "Unit 2/28 Jones St, East Wagga Wagga NSW 2650, Australia",
    "suburb": "East Wagga Wagga NSW 2650",
    "state": "NSW",
    "rating": 5,
    "reviews": 3,
    "lat": -35.1234711,
    "lng": 147.3860484,
    "place_id": "ChIJg-quWc6bGGsRrQmY468jEkw",
    "maps_url": "https://www.google.com/maps/place/?q=place_id:ChIJg-quWc6bGGsRrQmY468jEkw"
  },
  {
    "name": "Nuff's Kitchens & Joinery",
    "address": "2/8 Sutton St, East Wagga Wagga NSW 2650, Australia",
    "suburb": "East Wagga Wagga NSW 2650",
    "state": "NSW",
    "rating": 5,
    "reviews": 1,
    "lat": -35.124495,
    "lng": 147.3878334,
    "place_id": "ChIJj-XgPFWbGGsRTaJJX6WmDuA",
    "maps_url": "https://www.google.com/maps/place/?q=place_id:ChIJj-XgPFWbGGsRTaJJX6WmDuA"
  },
  {
    "name": "Kreuzer Cabinets",
    "address": "Unit 1/137 Fernleigh Rd, Wagga Wagga NSW 2650, Australia",
    "suburb": "Wagga Wagga NSW 2650",
    "state": "NSW",
    "rating": 5,
    "reviews": 8,
    "lat": -35.1299898,
    "lng": 147.3403595,
    "place_id": "ChIJfxdmrN-bGGsRxsqZmUDCI2U",
    "maps_url": "https://www.google.com/maps/place/?q=place_id:ChIJfxdmrN-bGGsRxsqZmUDCI2U"
  },
  {
    "name": "Brendan Parker Joinery",
    "address": "29 Copland St, East Wagga Wagga NSW 2650, Australia",
    "suburb": "East Wagga Wagga NSW 2650",
    "state": "NSW",
    "rating": 5,
    "reviews": 1,
    "lat": -35.124986,
    "lng": 147.379766,
    "place_id": "ChIJj7YibtqbGGsRnI63cdC54W0",
    "maps_url": "https://www.google.com/maps/place/?q=place_id:ChIJj7YibtqbGGsRnI63cdC54W0"
  },
  {
    "name": "Harrisons Joinery",
    "address": "9 Lake Albert Rd, East Wagga Wagga NSW 2650, Australia",
    "suburb": "East Wagga Wagga NSW 2650",
    "state": "NSW",
    "rating": 3.5,
    "reviews": 8,
    "lat": -35.1222545,
    "lng": 147.3794964,
    "place_id": "ChIJlRhl5tCbGGsRUA1HTM9vT3c",
    "maps_url": "https://www.google.com/maps/place/?q=place_id:ChIJlRhl5tCbGGsRUA1HTM9vT3c"
  },
  {
    "name": "Murphy & Langfield Joinery",
    "address": "5/10 Cheshire St, Wagga Wagga NSW 2650, Australia",
    "suburb": "Wagga Wagga NSW 2650",
    "state": "NSW",
    "rating": 5,
    "reviews": 2,
    "lat": -35.124701,
    "lng": 147.345807,
    "place_id": "ChIJqx54Oz6ZGGsRPdlE1O6_JAE",
    "maps_url": "https://www.google.com/maps/place/?q=place_id:ChIJqx54Oz6ZGGsRPdlE1O6_JAE"
  },
  {
    "name": "Interior Constructions",
    "address": "4 Blaxland Rd, East Wagga Wagga NSW 2650, Australia",
    "suburb": "East Wagga Wagga NSW 2650",
    "state": "NSW",
    "rating": 5,
    "reviews": 4,
    "lat": -35.126035,
    "lng": 147.4069001,
    "place_id": "ChIJXb-Zlq2bGGsR2JKf19qd8Ok",
    "maps_url": "https://www.google.com/maps/place/?q=place_id:ChIJXb-Zlq2bGGsR2JKf19qd8Ok"
  },
  {
    "name": "Inspired Kitchens & Joinery",
    "address": "7 Copland St, East Wagga Wagga NSW 2650, Australia",
    "suburb": "East Wagga Wagga NSW 2650",
    "state": "NSW",
    "rating": 5,
    "reviews": 2,
    "lat": -35.1249141,
    "lng": 147.3784038,
    "place_id": "ChIJAViYG9qbGGsRNcTCckLisso",
    "maps_url": "https://www.google.com/maps/place/?q=place_id:ChIJAViYG9qbGGsRNcTCckLisso"
  },
  {
    "name": "Elite Cabinet Solutions",
    "address": "1/6 Ball Pl, East Wagga Wagga NSW 2650, Australia",
    "suburb": "East Wagga Wagga NSW 2650",
    "state": "NSW",
    "rating": 5,
    "reviews": 5,
    "lat": -35.1257389,
    "lng": 147.3887702,
    "place_id": "ChIJ6YEUNs-bGGsRYr6dWneB19A",
    "maps_url": "https://www.google.com/maps/place/?q=place_id:ChIJ6YEUNs-bGGsRYr6dWneB19A"
  },
  {
    "name": "AJJA Kitchens and Joinery",
    "address": "8 Cheshire St, Wagga Wagga NSW 2650, Australia",
    "suburb": "Wagga Wagga NSW 2650",
    "state": "NSW",
    "rating": null,
    "reviews": 0,
    "lat": -35.1247404,
    "lng": 147.3455435,
    "place_id": "ChIJtenhpdGbGGsRFoZR_19rZIU",
    "maps_url": "https://www.google.com/maps/place/?q=place_id:ChIJtenhpdGbGGsRFoZR_19rZIU"
  },
  {
    "name": "KR Joinery Wagga",
    "address": "299 Copland St, East Wagga Wagga NSW 2650, Australia",
    "suburb": "East Wagga Wagga NSW 2650",
    "state": "NSW",
    "rating": null,
    "reviews": 0,
    "lat": -35.12956810000001,
    "lng": 147.414549,
    "place_id": "ChIJ4f7I9EebGGsRoqlWsAidlO0",
    "maps_url": "https://www.google.com/maps/place/?q=place_id:ChIJ4f7I9EebGGsRoqlWsAidlO0"
  },
  {
    "name": "George Carroll Kitchens & Joinery",
    "address": "9 Bye St, Wagga Wagga NSW 2650, Australia",
    "suburb": "Wagga Wagga NSW 2650",
    "state": "NSW",
    "rating": 5,
    "reviews": 4,
    "lat": -35.1179485,
    "lng": 147.3429197,
    "place_id": "ChIJsWK6ThGZGGsRrxCg9H7_Z6I",
    "maps_url": "https://www.google.com/maps/place/?q=place_id:ChIJsWK6ThGZGGsRrxCg9H7_Z6I"
  },
  {
    "name": "Three Oaks Timber Joinery",
    "address": "1/10 Saxon St, Wagga Wagga NSW 2650, Australia",
    "suburb": "Wagga Wagga NSW 2650",
    "state": "NSW",
    "rating": null,
    "reviews": 0,
    "lat": -35.1190916,
    "lng": 147.3430831,
    "place_id": "ChIJS-ekBlSZGGsRKn-5C4t3kB4",
    "maps_url": "https://www.google.com/maps/place/?q=place_id:ChIJS-ekBlSZGGsRKn-5C4t3kB4"
  },
  {
    "name": "Cutting Edge Kitchens",
    "address": "7/14 Dobney Ave, Wagga Wagga NSW 2650, Australia",
    "suburb": "Wagga Wagga NSW 2650",
    "state": "NSW",
    "rating": 5,
    "reviews": 1,
    "lat": -35.118761,
    "lng": 147.348104,
    "place_id": "ChIJm-hGaROZGGsR1EtQb2XPANk",
    "maps_url": "https://www.google.com/maps/place/?q=place_id:ChIJm-hGaROZGGsR1EtQb2XPANk"
  },
  {
    "name": "Dengate Joinery",
    "address": "28 Avro St, Tamworth NSW 2340, Australia",
    "suburb": "Tamworth NSW 2340",
    "state": "NSW",
    "rating": 5,
    "reviews": 3,
    "lat": -31.0883283,
    "lng": 150.9123608,
    "place_id": "ChIJU_Sm29aYCmsRfxqAvmHc27k",
    "maps_url": "https://www.google.com/maps/place/?q=place_id:ChIJU_Sm29aYCmsRfxqAvmHc27k"
  },
  {
    "name": "BC Construction Tamworth",
    "address": "15 Evans St, Westdale NSW 2340, Australia",
    "suburb": "Westdale NSW 2340",
    "state": "NSW",
    "rating": 5,
    "reviews": 7,
    "lat": -31.093932,
    "lng": 150.8777707,
    "place_id": "ChIJ4xa7c28zdEgRY2mouTWjAY8",
    "maps_url": "https://www.google.com/maps/place/?q=place_id:ChIJ4xa7c28zdEgRY2mouTWjAY8"
  },
  {
    "name": "Hunts Joinery",
    "address": "76 Showground Rd, Taminda NSW 2340, Australia",
    "suburb": "Taminda NSW 2340",
    "state": "NSW",
    "rating": 5,
    "reviews": 2,
    "lat": -31.0916487,
    "lng": 150.8991674,
    "place_id": "ChIJHQKAiGGZCmsRJKDv8cIM5oE",
    "maps_url": "https://www.google.com/maps/place/?q=place_id:ChIJHQKAiGGZCmsRJKDv8cIM5oE"
  },
  {
    "name": "Creative carpentry & construction",
    "address": "13 Paul St, Tamworth NSW 2340, Australia",
    "suburb": "Tamworth NSW 2340",
    "state": "NSW",
    "rating": 3.3,
    "reviews": 3,
    "lat": -31.1154531,
    "lng": 150.9089414,
    "place_id": "ChIJ-d4xwP2YCmsRR8sLRcE6q14",
    "maps_url": "https://www.google.com/maps/place/?q=place_id:ChIJ-d4xwP2YCmsRR8sLRcE6q14"
  },
  {
    "name": "Fabrocat Joinery",
    "address": "6 Kingsford Smith St, Taminda NSW 2340, Australia",
    "suburb": "Taminda NSW 2340",
    "state": "NSW",
    "rating": null,
    "reviews": 0,
    "lat": -31.0919521,
    "lng": 150.897077,
    "place_id": "ChIJpX6PZECZCmsR1pY_xuTSV4k",
    "maps_url": "https://www.google.com/maps/place/?q=place_id:ChIJpX6PZECZCmsR1pY_xuTSV4k"
  },
  {
    "name": "Jascab Pty Ltd",
    "address": "24 Denison St, Tamworth NSW 2340, Australia",
    "suburb": "Tamworth NSW 2340",
    "state": "NSW",
    "rating": 4.2,
    "reviews": 5,
    "lat": -31.0882626,
    "lng": 150.9160221,
    "place_id": "ChIJh60RddGYCmsRvUmI45OdTFo",
    "maps_url": "https://www.google.com/maps/place/?q=place_id:ChIJh60RddGYCmsRvUmI45OdTFo"
  },
  {
    "name": "Rust. Kitchens & Interiors",
    "address": "Shed 2/9 Hawker Rd, Taminda NSW 2340, Australia",
    "suburb": "Taminda NSW 2340",
    "state": "NSW",
    "rating": 5,
    "reviews": 5,
    "lat": -31.0956628,
    "lng": 150.8998557,
    "place_id": "ChIJYcQYDJpBlAcRqQkN-zfD7H0",
    "maps_url": "https://www.google.com/maps/place/?q=place_id:ChIJYcQYDJpBlAcRqQkN-zfD7H0"
  },
  {
    "name": "Brennan & Co",
    "address": "18 Strathgrove Way, Orange NSW 2800, Australia",
    "suburb": "Orange NSW 2800",
    "state": "NSW",
    "rating": 5,
    "reviews": 25,
    "lat": -33.2516896,
    "lng": 149.1111472,
    "place_id": "ChIJFRV1u8PSEWsRREP-AuDlHG0",
    "maps_url": "https://www.google.com/maps/place/?q=place_id:ChIJFRV1u8PSEWsRREP-AuDlHG0"
  },
  {
    "name": "G&G Joinery",
    "address": "193 Margaret St, Orange NSW 2800, Australia",
    "suburb": "Orange NSW 2800",
    "state": "NSW",
    "rating": 5,
    "reviews": 4,
    "lat": -33.2717085,
    "lng": 149.1070994,
    "place_id": "ChIJlbABfkrTEWsREuQHMMuSZjo",
    "maps_url": "https://www.google.com/maps/place/?q=place_id:ChIJlbABfkrTEWsREuQHMMuSZjo"
  },
  {
    "name": "Hudson's Carpentry & Joinery",
    "address": "Unit 14/8 Edward St, Orange NSW 2800, Australia",
    "suburb": "Orange NSW 2800",
    "state": "NSW",
    "rating": null,
    "reviews": 0,
    "lat": -33.3023242,
    "lng": 149.1052578,
    "place_id": "ChIJH49BvavTEWsRIXFKfoQzJ90",
    "maps_url": "https://www.google.com/maps/place/?q=place_id:ChIJH49BvavTEWsRIXFKfoQzJ90"
  },
  {
    "name": "Swagman Joinery",
    "address": "59 Lords Pl, Orange NSW 2800, Australia",
    "suburb": "Orange NSW 2800",
    "state": "NSW",
    "rating": null,
    "reviews": 0,
    "lat": -33.2954242,
    "lng": 149.0983236,
    "place_id": "ChIJVVXxqi4tEGsRHA95-57HUBQ",
    "maps_url": "https://www.google.com/maps/place/?q=place_id:ChIJVVXxqi4tEGsRHA95-57HUBQ"
  },
  {
    "name": "Sublime Cabinet & Joinery",
    "address": "Shed 2/193 Margaret St, Orange NSW 2800, Australia",
    "suburb": "Orange NSW 2800",
    "state": "NSW",
    "rating": null,
    "reviews": 0,
    "lat": -33.2715109,
    "lng": 149.1071446,
    "place_id": "ChIJX47CfVPTEWsROr8TmEZRZ2s",
    "maps_url": "https://www.google.com/maps/place/?q=place_id:ChIJX47CfVPTEWsROr8TmEZRZ2s"
  },
  {
    "name": "Phil Lamberts Kitchen & Joinery",
    "address": "180 March St, Orange NSW 2800, Australia",
    "suburb": "Orange NSW 2800",
    "state": "NSW",
    "rating": 4.2,
    "reviews": 6,
    "lat": -33.2811375,
    "lng": 149.1078798,
    "place_id": "ChIJkW3_MzLTEWsR7csMUDFrfmE",
    "maps_url": "https://www.google.com/maps/place/?q=place_id:ChIJkW3_MzLTEWsR7csMUDFrfmE"
  },
  {
    "name": "CAD Constructions",
    "address": "Unit 2/10 Scott Pl, Orange NSW 2800, Australia",
    "suburb": "Orange NSW 2800",
    "state": "NSW",
    "rating": 5,
    "reviews": 10,
    "lat": -33.3074141,
    "lng": 149.1028699,
    "place_id": "ChIJuQySe2ivjWQR6SXHe4vZtQo",
    "maps_url": "https://www.google.com/maps/place/?q=place_id:ChIJuQySe2ivjWQR6SXHe4vZtQo"
  },
  {
    "name": "Elite Kitchens Orange",
    "address": "112 Dalton St, Orange NSW 2800, Australia",
    "suburb": "Orange NSW 2800",
    "state": "NSW",
    "rating": 5,
    "reviews": 16,
    "lat": -33.2772294,
    "lng": 149.1059533,
    "place_id": "ChIJq0JLlUTTEWsRdMAx6K8EK5o",
    "maps_url": "https://www.google.com/maps/place/?q=place_id:ChIJq0JLlUTTEWsRdMAx6K8EK5o"
  },
  {
    "name": "Braithwaite Building",
    "address": "1118 Pinnacle Rd, Orange NSW 2800, Australia",
    "suburb": "Orange NSW 2800",
    "state": "NSW",
    "rating": 5,
    "reviews": 18,
    "lat": -33.3460779,
    "lng": 149.0363699,
    "place_id": "ChIJcTCjoPszEGsREtUSzDKIzjI",
    "maps_url": "https://www.google.com/maps/place/?q=place_id:ChIJcTCjoPszEGsREtUSzDKIzjI"
  },
  {
    "name": "Matilka Kitchens",
    "address": "20 Centofanti Ln Clergate, 20 Centofanti Ln, Orange NSW 2800, Australia",
    "suburb": "20 Centofanti Ln",
    "state": "NSW",
    "rating": 4,
    "reviews": 2,
    "lat": -33.1845302,
    "lng": 149.1042983,
    "place_id": "ChIJjZLu5UnVEWsRCA8q6eQnJGs",
    "maps_url": "https://www.google.com/maps/place/?q=place_id:ChIJjZLu5UnVEWsRCA8q6eQnJGs"
  },
  {
    "name": "ORANGE KITCHENS & WARDROBES",
    "address": "172 Dalton St, Orange NSW 2800, Australia",
    "suburb": "Orange NSW 2800",
    "state": "NSW",
    "rating": 5,
    "reviews": 1,
    "lat": -33.2776426,
    "lng": 149.10843,
    "place_id": "ChIJEcc6dTTTEWsRgVeV6Ce1PfY",
    "maps_url": "https://www.google.com/maps/place/?q=place_id:ChIJEcc6dTTTEWsRgVeV6Ce1PfY"
  },
  {
    "name": "Windoor Joinery - Orange",
    "address": "149 Peisley St, Orange NSW 2800, Australia",
    "suburb": "Orange NSW 2800",
    "state": "NSW",
    "rating": 4.9,
    "reviews": 24,
    "lat": -33.2860028,
    "lng": 149.1030905,
    "place_id": "ChIJKTckv4gtEGsRnYyH-4BsvsQ",
    "maps_url": "https://www.google.com/maps/place/?q=place_id:ChIJKTckv4gtEGsRnYyH-4BsvsQ"
  },
  {
    "name": "Nate's Carpentry and Building Services",
    "address": "Sofala Rd, Peel NSW 2795, Australia",
    "suburb": "Peel NSW 2795",
    "state": "NSW",
    "rating": 5,
    "reviews": 1,
    "lat": -33.3104255,
    "lng": 149.643857,
    "place_id": "ChIJLQwz-Qst-mURUoOGpD5hJOQ",
    "maps_url": "https://www.google.com/maps/place/?q=place_id:ChIJLQwz-Qst-mURUoOGpD5hJOQ"
  },
  {
    "name": "Primrose Valley Cabinets & Joinery",
    "address": "1065 Kangaroobie Rd, Kangaroobie NSW 2800, Australia",
    "suburb": "Kangaroobie NSW 2800",
    "state": "NSW",
    "rating": null,
    "reviews": 0,
    "lat": -33.1450636,
    "lng": 149.0470124,
    "place_id": "ChIJB4fNXoXVD2sRz1t-ZZL3Euc",
    "maps_url": "https://www.google.com/maps/place/?q=place_id:ChIJB4fNXoXVD2sRz1t-ZZL3Euc"
  },
  {
    "name": "AA Building Maintenance & Carpentry",
    "address": "28 Mitchell Parade, Orange NSW 2800, Australia",
    "suburb": "Orange NSW 2800",
    "state": "NSW",
    "rating": 1,
    "reviews": 1,
    "lat": -33.2980805,
    "lng": 149.0931542,
    "place_id": "ChIJf20U8S8tEGsR_PHE7y9nff8",
    "maps_url": "https://www.google.com/maps/place/?q=place_id:ChIJf20U8S8tEGsR_PHE7y9nff8"
  },
  {
    "name": "Nailed It Construction & Maintenance",
    "address": "51 Green Ln, Orange NSW 2800, Australia",
    "suburb": "Orange NSW 2800",
    "state": "NSW",
    "rating": 5,
    "reviews": 4,
    "lat": -33.2867436,
    "lng": 149.0739205,
    "place_id": "ChIJIS1Is9E5WyoRyjfaMExcUvg",
    "maps_url": "https://www.google.com/maps/place/?q=place_id:ChIJIS1Is9E5WyoRyjfaMExcUvg"
  },
  {
    "name": "Orange & District Floor Sanding & Carpentry",
    "address": "Summer St, Orange NSW 2800, Australia",
    "suburb": "Orange NSW 2800",
    "state": "NSW",
    "rating": 5,
    "reviews": 2,
    "lat": -33.2829895,
    "lng": 149.1011381,
    "place_id": "ChIJb_C_qdMsEGsRu6_XpJiCGjA",
    "maps_url": "https://www.google.com/maps/place/?q=place_id:ChIJb_C_qdMsEGsRu6_XpJiCGjA"
  },
  {
    "name": "Restoore - Joinery & Furniture",
    "address": "32R Cooreena Rd, Dubbo NSW 2830, Australia",
    "suburb": "Dubbo NSW 2830",
    "state": "NSW",
    "rating": 5,
    "reviews": 30,
    "lat": -32.198995,
    "lng": 148.5684439,
    "place_id": "ChIJK57f-DkPkWsRMG0n-NqPkCY",
    "maps_url": "https://www.google.com/maps/place/?q=place_id:ChIJK57f-DkPkWsRMG0n-NqPkCY"
  },
  {
    "name": "DUBBO CITY CARPENTRY PTY LTD",
    "address": "Unit 3/3 Depot Rd, Dubbo NSW 2830, Australia",
    "suburb": "Dubbo NSW 2830",
    "state": "NSW",
    "rating": 5,
    "reviews": 3,
    "lat": -32.2433975,
    "lng": 148.5859312,
    "place_id": "ChIJ16fsE0JxD2sRJDH44Y2Ti98",
    "maps_url": "https://www.google.com/maps/place/?q=place_id:ChIJ16fsE0JxD2sRJDH44Y2Ti98"
  },
  {
    "name": "S&C CONTRACTING",
    "address": "Dubbo NSW 2830, Australia",
    "suburb": "Australia",
    "state": "NSW",
    "rating": 5,
    "reviews": 1,
    "lat": -32.2443908,
    "lng": 148.614418,
    "place_id": "ChIJ48zmS4RxD2sRBlhF05B4uAI",
    "maps_url": "https://www.google.com/maps/place/?q=place_id:ChIJ48zmS4RxD2sRBlhF05B4uAI"
  },
  {
    "name": "ABR Kitchens & Joinery",
    "address": "27L Harefield Rd, Dubbo NSW 2830, Australia",
    "suburb": "Dubbo NSW 2830",
    "state": "NSW",
    "rating": 5,
    "reviews": 1,
    "lat": -32.2289108,
    "lng": 148.6755931,
    "place_id": "ChIJh0GZcgttD2sRBXQSvAatWug",
    "maps_url": "https://www.google.com/maps/place/?q=place_id:ChIJh0GZcgttD2sRBXQSvAatWug"
  },
  {
    "name": "All Elements Design Co.",
    "address": "Unit 3/16 Hawthorn St, Dubbo NSW 2830, Australia",
    "suburb": "Dubbo NSW 2830",
    "state": "NSW",
    "rating": 5,
    "reviews": 1,
    "lat": -32.2589842,
    "lng": 148.625021,
    "place_id": "ChIJFZPUXNdxD2sRv10CSFOHDss",
    "maps_url": "https://www.google.com/maps/place/?q=place_id:ChIJFZPUXNdxD2sRv10CSFOHDss"
  },
  {
    "name": "Kitchen Creations",
    "address": "LOT 83 Jenmark Pl, Dubbo NSW 2830, Australia",
    "suburb": "Dubbo NSW 2830",
    "state": "NSW",
    "rating": 4.3,
    "reviews": 4,
    "lat": -32.2486158,
    "lng": 148.631855,
    "place_id": "ChIJhysATpJxD2sRIVhCzEahfNM",
    "maps_url": "https://www.google.com/maps/place/?q=place_id:ChIJhysATpJxD2sRIVhCzEahfNM"
  },
  {
    "name": "Buxban Constructions",
    "address": "3a Ellis Park Cl, Dubbo NSW 2830, Australia",
    "suburb": "Dubbo NSW 2830",
    "state": "NSW",
    "rating": 5,
    "reviews": 2,
    "lat": -32.242316,
    "lng": 148.6430426,
    "place_id": "ChIJaVry0gtxD2sRumHvLnghis0",
    "maps_url": "https://www.google.com/maps/place/?q=place_id:ChIJaVry0gtxD2sRumHvLnghis0"
  },
  {
    "name": "Kitchen & Renovation Concepts",
    "address": "1/28 Hawthorn St, Dubbo NSW 2830, Australia",
    "suburb": "Dubbo NSW 2830",
    "state": "NSW",
    "rating": 4.7,
    "reviews": 21,
    "lat": -32.2608804,
    "lng": 148.6245621,
    "place_id": "ChIJMf6jD59xD2sRd9KXgX-NihE",
    "maps_url": "https://www.google.com/maps/place/?q=place_id:ChIJMf6jD59xD2sRd9KXgX-NihE"
  },
  {
    "name": "4Shaw Kitchens",
    "address": "75 Fitzroy St, Dubbo NSW 2830, Australia",
    "suburb": "Dubbo NSW 2830",
    "state": "NSW",
    "rating": 5,
    "reviews": 1,
    "lat": -32.2297201,
    "lng": 148.616641,
    "place_id": "ChIJX86KeyZxD2sR5O73NcSVU2o",
    "maps_url": "https://www.google.com/maps/place/?q=place_id:ChIJX86KeyZxD2sR5O73NcSVU2o"
  },
  {
    "name": "Ideal Kitchens & Renovations",
    "address": "Unit 1/4 Fletcher Cres, Dubbo NSW 2830, Australia",
    "suburb": "Dubbo NSW 2830",
    "state": "NSW",
    "rating": 5,
    "reviews": 2,
    "lat": -32.2463935,
    "lng": 148.626026,
    "place_id": "ChIJl3nAs5lxD2sRlUHH7MKgjqk",
    "maps_url": "https://www.google.com/maps/place/?q=place_id:ChIJl3nAs5lxD2sRlUHH7MKgjqk"
  },
  {
    "name": "Gavin Cummings Kitchens",
    "address": "103 River St, Dubbo NSW 2830, Australia",
    "suburb": "Dubbo NSW 2830",
    "state": "NSW",
    "rating": 4.4,
    "reviews": 7,
    "lat": -32.235455,
    "lng": 148.617789,
    "place_id": "ChIJQdsMjcNxD2sRIcQV-vU0yDQ",
    "maps_url": "https://www.google.com/maps/place/?q=place_id:ChIJQdsMjcNxD2sRIcQV-vU0yDQ"
  },
  {
    "name": "Robert Seeliger Painter & Decorator",
    "address": "40R Panai Ave, Dubbo NSW 2830, Australia",
    "suburb": "Dubbo NSW 2830",
    "state": "NSW",
    "rating": 5,
    "reviews": 6,
    "lat": -32.2438146,
    "lng": 148.6094976,
    "place_id": "ChIJpUfy-Qh5D2sR_hq5MeimPwc",
    "maps_url": "https://www.google.com/maps/place/?q=place_id:ChIJpUfy-Qh5D2sR_hq5MeimPwc"
  },
  {
    "name": "B. & J. Bacon Kitchens & Joinery",
    "address": "23 Depot Rd, Dubbo NSW 2830, Australia",
    "suburb": "Dubbo NSW 2830",
    "state": "NSW",
    "rating": null,
    "reviews": 0,
    "lat": -32.2445731,
    "lng": 148.5821764,
    "place_id": "ChIJ1yWfj1xwD2sR5FHjUtfdMwA",
    "maps_url": "https://www.google.com/maps/place/?q=place_id:ChIJ1yWfj1xwD2sR5FHjUtfdMwA"
  },
  {
    "name": "Western Wardrobes",
    "address": "86a Myall St, Dubbo NSW 2830, Australia",
    "suburb": "Dubbo NSW 2830",
    "state": "NSW",
    "rating": 5,
    "reviews": 14,
    "lat": -32.2395387,
    "lng": 148.6113037,
    "place_id": "ChIJuzFaFvhxD2sRdVrUBZnBOLs",
    "maps_url": "https://www.google.com/maps/place/?q=place_id:ChIJuzFaFvhxD2sRdVrUBZnBOLs"
  },
  {
    "name": "Westside Kitchen Centre",
    "address": "21 Depot Rd, Dubbo NSW 2830, Australia",
    "suburb": "Dubbo NSW 2830",
    "state": "NSW",
    "rating": 3,
    "reviews": 2,
    "lat": -32.2440072,
    "lng": 148.5829014,
    "place_id": "ChIJJw5fnFxwD2sRb-OWG1DYj-Q",
    "maps_url": "https://www.google.com/maps/place/?q=place_id:ChIJJw5fnFxwD2sRb-OWG1DYj-Q"
  },
  {
    "name": "Coffs Joinery",
    "address": "1/11 Wingara Dr, Coffs Harbour NSW 2450, Australia",
    "suburb": "Coffs Harbour NSW 2450",
    "state": "NSW",
    "rating": 5,
    "reviews": 48,
    "lat": -30.3153969,
    "lng": 153.1007636,
    "place_id": "ChIJe-ZxZAQOnGsRR4hJbyDMgfU",
    "maps_url": "https://www.google.com/maps/place/?q=place_id:ChIJe-ZxZAQOnGsRR4hJbyDMgfU"
  },
  {
    "name": "Aligned Carpentry",
    "address": "24 McRae Cl, Boambee NSW 2450, Australia",
    "suburb": "Boambee NSW 2450",
    "state": "NSW",
    "rating": 5,
    "reviews": 6,
    "lat": -30.33219069999999,
    "lng": 153.0697785,
    "place_id": "ChIJt8rcfrjlRkQR3nbIgLjW1MA",
    "maps_url": "https://www.google.com/maps/place/?q=place_id:ChIJt8rcfrjlRkQR3nbIgLjW1MA"
  },
  {
    "name": "Craftmaster Carpentry",
    "address": "23 Wentworth Ave, Coffs Harbour NSW 2450, Australia",
    "suburb": "Coffs Harbour NSW 2450",
    "state": "NSW",
    "rating": 5,
    "reviews": 11,
    "lat": -30.2867903,
    "lng": 153.1205513,
    "place_id": "ChIJaV74IqeFMAgRLctmFjkPuuw",
    "maps_url": "https://www.google.com/maps/place/?q=place_id:ChIJaV74IqeFMAgRLctmFjkPuuw"
  },
  {
    "name": "PacJoinery",
    "address": "Unit 1/21 June St, Coffs Harbour NSW 2450, Australia",
    "suburb": "Coffs Harbour NSW 2450",
    "state": "NSW",
    "rating": 5,
    "reviews": 11,
    "lat": -30.2903708,
    "lng": 153.1176867,
    "place_id": "ChIJLVq_8dANnGsRdBsi3T_vyMM",
    "maps_url": "https://www.google.com/maps/place/?q=place_id:ChIJLVq_8dANnGsRdBsi3T_vyMM"
  },
  {
    "name": "Seaside Kitchens and Joinery",
    "address": "Unit 1/2 Lawson Cres, Coffs Harbour NSW 2450, Australia",
    "suburb": "Coffs Harbour NSW 2450",
    "state": "NSW",
    "rating": 5,
    "reviews": 15,
    "lat": -30.2900161,
    "lng": 153.1302314,
    "place_id": "ChIJVb_0QRGbP4ARSQun5fIPM88",
    "maps_url": "https://www.google.com/maps/place/?q=place_id:ChIJVb_0QRGbP4ARSQun5fIPM88"
  },
  {
    "name": "JETTY PROJECTS PTY LTD",
    "address": "Orlando St, Coffs Harbour NSW 2450, Australia",
    "suburb": "Coffs Harbour NSW 2450",
    "state": "NSW",
    "rating": 5,
    "reviews": 14,
    "lat": -30.3021468,
    "lng": 153.1427749,
    "place_id": "ChIJSbsC4McrzY0RPwNijTFNtis",
    "maps_url": "https://www.google.com/maps/place/?q=place_id:ChIJSbsC4McrzY0RPwNijTFNtis"
  },
  {
    "name": "Master Cut Carpentry",
    "address": "Upper Orara Rd, Karangi NSW 2450, Australia",
    "suburb": "Karangi NSW 2450",
    "state": "NSW",
    "rating": 5,
    "reviews": 1,
    "lat": -30.2635792,
    "lng": 153.0200009,
    "place_id": "ChIJR8_12fwPnGsRd0RXa8L4KfE",
    "maps_url": "https://www.google.com/maps/place/?q=place_id:ChIJR8_12fwPnGsRd0RXa8L4KfE"
  },
  {
    "name": "Plumbe Joinery",
    "address": "19 June St, Coffs Harbour NSW 2450, Australia",
    "suburb": "Coffs Harbour NSW 2450",
    "state": "NSW",
    "rating": null,
    "reviews": 0,
    "lat": -30.2906369,
    "lng": 153.1175003,
    "place_id": "ChIJuWAfAAsNnGsRrv7MzlFR7O0",
    "maps_url": "https://www.google.com/maps/place/?q=place_id:ChIJuWAfAAsNnGsRrv7MzlFR7O0"
  },
  {
    "name": "Horizon Joinery",
    "address": "5/24 A Hawke Dr, Woolgoolga NSW 2456, Australia",
    "suburb": "Woolgoolga NSW 2456",
    "state": "NSW",
    "rating": 5,
    "reviews": 13,
    "lat": -30.1226008,
    "lng": 153.1963634,
    "place_id": "ChIJeXBLcuX1m2sRQqHTfAarynU",
    "maps_url": "https://www.google.com/maps/place/?q=place_id:ChIJeXBLcuX1m2sRQqHTfAarynU"
  },
  {
    "name": "Sawtell Kitchens",
    "address": "18a Newcastle Dr, Toormina NSW 2452, Australia",
    "suburb": "Toormina NSW 2452",
    "state": "NSW",
    "rating": 4.9,
    "reviews": 24,
    "lat": -30.3631819,
    "lng": 153.0909617,
    "place_id": "ChIJ8-rh_Z0RnGsRuyl6IGAzEsA",
    "maps_url": "https://www.google.com/maps/place/?q=place_id:ChIJ8-rh_Z0RnGsRuyl6IGAzEsA"
  },
  {
    "name": "Farr Better Joinery",
    "address": "20 Bosworth Rd, Woolgoolga NSW 2456, Australia",
    "suburb": "Woolgoolga NSW 2456",
    "state": "NSW",
    "rating": 4.8,
    "reviews": 36,
    "lat": -30.12535969999999,
    "lng": 153.1952525,
    "place_id": "ChIJN34wlnb1m2sR9MluC7pBqGo",
    "maps_url": "https://www.google.com/maps/place/?q=place_id:ChIJN34wlnb1m2sR9MluC7pBqGo"
  },
  {
    "name": "Split Design - Vanities, Cabinets, Furniture & Tiling",
    "address": "Unit 12a/22 Lawson Cres, Coffs Harbour NSW 2450, Australia",
    "suburb": "Coffs Harbour NSW 2450",
    "state": "NSW",
    "rating": 5,
    "reviews": 8,
    "lat": -30.2899974,
    "lng": 153.1285016,
    "place_id": "ChIJrz6yQ_0RnGsRCHqeAZt-b6g",
    "maps_url": "https://www.google.com/maps/place/?q=place_id:ChIJrz6yQ_0RnGsRCHqeAZt-b6g"
  },
  {
    "name": "G & A Cabinets",
    "address": "14 O'Keefe Dr, Coffs Harbour NSW 2450, Australia",
    "suburb": "Coffs Harbour NSW 2450",
    "state": "NSW",
    "rating": 4.4,
    "reviews": 7,
    "lat": -30.316792,
    "lng": 153.0997163,
    "place_id": "ChIJ-fAmhAQOnGsRkFODVhUGiAE",
    "maps_url": "https://www.google.com/maps/place/?q=place_id:ChIJ-fAmhAQOnGsRkFODVhUGiAE"
  },
  {
    "name": "Old Lake Joinery",
    "address": "9 Chestnut Rd, Port Macquarie NSW 2444, Australia",
    "suburb": "Port Macquarie NSW 2444",
    "state": "NSW",
    "rating": 4.8,
    "reviews": 6,
    "lat": -31.45043159999999,
    "lng": 152.889833,
    "place_id": "ChIJvU9JvG7_nWsRcC1FMEsSisE",
    "maps_url": "https://www.google.com/maps/place/?q=place_id:ChIJvU9JvG7_nWsRcC1FMEsSisE"
  },
  {
    "name": "Highline Joinery",
    "address": "14-16 Merrigal Rd, Port Macquarie NSW 2444, Australia",
    "suburb": "Port Macquarie NSW 2444",
    "state": "NSW",
    "rating": 4.2,
    "reviews": 5,
    "lat": -31.4547583,
    "lng": 152.8819986,
    "place_id": "ChIJC2D0WXr_nWsRpF2JH2kJn1A",
    "maps_url": "https://www.google.com/maps/place/?q=place_id:ChIJC2D0WXr_nWsRpF2JH2kJn1A"
  },
  {
    "name": "Binna Burra Timbers & Cabinets",
    "address": "10 Lindfield Park Rd, Port Macquarie NSW 2444, Australia",
    "suburb": "Port Macquarie NSW 2444",
    "state": "NSW",
    "rating": 5,
    "reviews": 8,
    "lat": -31.4548007,
    "lng": 152.8625439,
    "place_id": "ChIJqSY70gT_nWsRUbi2KySedao",
    "maps_url": "https://www.google.com/maps/place/?q=place_id:ChIJqSY70gT_nWsRUbi2KySedao"
  },
  {
    "name": "Andrew's Cabinetry",
    "address": "11A Jambali Rd, Port Macquarie NSW 2444, Australia",
    "suburb": "Port Macquarie NSW 2444",
    "state": "NSW",
    "rating": 5,
    "reviews": 6,
    "lat": -31.4494432,
    "lng": 152.8858586,
    "place_id": "ChIJ5W4vl8v_nWsRjwIEM5paJBs",
    "maps_url": "https://www.google.com/maps/place/?q=place_id:ChIJ5W4vl8v_nWsRjwIEM5paJBs"
  },
  {
    "name": "Unique Design Kitchens & Joinery",
    "address": "Unit 3 & 4/40 Uralla Rd, Port Macquarie NSW 2444, Australia",
    "suburb": "Port Macquarie NSW 2444",
    "state": "NSW",
    "rating": 5,
    "reviews": 2,
    "lat": -31.4536688,
    "lng": 152.8834584,
    "place_id": "ChIJa4nzAIv_nWsRYoq8REmVBeE",
    "maps_url": "https://www.google.com/maps/place/?q=place_id:ChIJa4nzAIv_nWsRYoq8REmVBeE"
  },
  {
    "name": "DMB Kitchens",
    "address": "1/11 Karungi Cres, Port Macquarie NSW 2444, Australia",
    "suburb": "Port Macquarie NSW 2444",
    "state": "NSW",
    "rating": 4.9,
    "reviews": 34,
    "lat": -31.446626,
    "lng": 152.889614,
    "place_id": "ChIJWZ1d9Wz_nWsRRa-KFTf94kc",
    "maps_url": "https://www.google.com/maps/place/?q=place_id:ChIJWZ1d9Wz_nWsRRa-KFTf94kc"
  },
  {
    "name": "Custom Fit Doors",
    "address": "1/177 Lake Rd, Port Macquarie NSW 2444, Australia",
    "suburb": "Port Macquarie NSW 2444",
    "state": "NSW",
    "rating": 4.9,
    "reviews": 30,
    "lat": -31.4484376,
    "lng": 152.8927459,
    "place_id": "ChIJGzpjCWz_nWsRt1vjJ_dauZM",
    "maps_url": "https://www.google.com/maps/place/?q=place_id:ChIJGzpjCWz_nWsRt1vjJ_dauZM"
  },
  {
    "name": "Bylund Building Services",
    "address": "2/156 Lake Rd, Port Macquarie NSW 2444, Australia",
    "suburb": "Port Macquarie NSW 2444",
    "state": "NSW",
    "rating": 3.7,
    "reviews": 3,
    "lat": -31.4478765,
    "lng": 152.8871749,
    "place_id": "ChIJmfsSk7L4nWsR2HOIzuL51cY",
    "maps_url": "https://www.google.com/maps/place/?q=place_id:ChIJmfsSk7L4nWsR2HOIzuL51cY"
  },
  {
    "name": "PK4 Projects",
    "address": "Unit 16/16 Karungi Cres, Port Macquarie NSW 2444, Australia",
    "suburb": "Port Macquarie NSW 2444",
    "state": "NSW",
    "rating": 4.8,
    "reviews": 20,
    "lat": -31.4460839,
    "lng": 152.8881172,
    "place_id": "ChIJs8fpQLr-dWsRRXNPsWfH--E",
    "maps_url": "https://www.google.com/maps/place/?q=place_id:ChIJs8fpQLr-dWsRRXNPsWfH--E"
  },
  {
    "name": "Design Spec Joinery & Kitchens",
    "address": "49 Jubilee St, Lismore NSW 2480, Australia",
    "suburb": "Lismore NSW 2480",
    "state": "NSW",
    "rating": 5,
    "reviews": 12,
    "lat": -28.8061139,
    "lng": 153.2897909,
    "place_id": "ChIJjZsjQQ-ekGsReHheavdGsp4",
    "maps_url": "https://www.google.com/maps/place/?q=place_id:ChIJjZsjQQ-ekGsReHheavdGsp4"
  },
  {
    "name": "Northern Rivers Carpentry",
    "address": "Ballina Rd, Lismore NSW 2480, Australia",
    "suburb": "Lismore NSW 2480",
    "state": "NSW",
    "rating": 5,
    "reviews": 1,
    "lat": -28.8157229,
    "lng": 153.2894333,
    "place_id": "ChIJaZtcDQWekGsR2FwT3MKKpzo",
    "maps_url": "https://www.google.com/maps/place/?q=place_id:ChIJaZtcDQWekGsR2FwT3MKKpzo"
  },
  {
    "name": "Ben Lynch Cabinetmaking Lismore",
    "address": "2/38 Habib Dr, South Lismore NSW 2480, Australia",
    "suburb": "South Lismore NSW 2480",
    "state": "NSW",
    "rating": 4.8,
    "reviews": 21,
    "lat": -28.825115,
    "lng": 153.263342,
    "place_id": "ChIJI-7naJB1mmsRmYgCHJddIos",
    "maps_url": "https://www.google.com/maps/place/?q=place_id:ChIJI-7naJB1mmsRmYgCHJddIos"
  },
  {
    "name": "Joel Jensen Constructions",
    "address": "52 Elliott Rd, South Lismore NSW 2480, Australia",
    "suburb": "South Lismore NSW 2480",
    "state": "NSW",
    "rating": 5,
    "reviews": 16,
    "lat": -28.8126118,
    "lng": 153.2646687,
    "place_id": "ChIJk_LuHiiekGsRy-NQ8kz3ets",
    "maps_url": "https://www.google.com/maps/place/?q=place_id:ChIJk_LuHiiekGsRy-NQ8kz3ets"
  },
  {
    "name": "North Coast Cabinets",
    "address": "178 Wilson St, South Lismore NSW 2480, Australia",
    "suburb": "South Lismore NSW 2480",
    "state": "NSW",
    "rating": 4.2,
    "reviews": 10,
    "lat": -28.8152112,
    "lng": 153.260529,
    "place_id": "ChIJT3e3BJB1mmsR-9j5izEzYPo",
    "maps_url": "https://www.google.com/maps/place/?q=place_id:ChIJT3e3BJB1mmsR-9j5izEzYPo"
  },
  {
    "name": "Morrissey Cabinets",
    "address": "123 Wilson St, South Lismore NSW 2480, Australia",
    "suburb": "South Lismore NSW 2480",
    "state": "NSW",
    "rating": 4.4,
    "reviews": 7,
    "lat": -28.8132163,
    "lng": 153.2604772,
    "place_id": "ChIJ5S62PCiekGsRhQHWPvuesYE",
    "maps_url": "https://www.google.com/maps/place/?q=place_id:ChIJ5S62PCiekGsRhQHWPvuesYE"
  },
  {
    "name": "Goldsmiths Building Services",
    "address": "197 Magellan St, Lismore NSW 2480, Australia",
    "suburb": "Lismore NSW 2480",
    "state": "NSW",
    "rating": 5,
    "reviews": 3,
    "lat": -28.813016,
    "lng": 153.283307,
    "place_id": "ChIJ_RJ38RyekGsRtXuNTedqR7E",
    "maps_url": "https://www.google.com/maps/place/?q=place_id:ChIJ_RJ38RyekGsRtXuNTedqR7E"
  },
  {
    "name": "Lismore Handyman",
    "address": "202 Caniaba Rd, Caniaba NSW 2480, Australia",
    "suburb": "Caniaba NSW 2480",
    "state": "NSW",
    "rating": null,
    "reviews": 0,
    "lat": -28.840046,
    "lng": 153.2434363,
    "place_id": "ChIJu-1V5kR1mmsRE8oO1-eqH1k",
    "maps_url": "https://www.google.com/maps/place/?q=place_id:ChIJu-1V5kR1mmsRE8oO1-eqH1k"
  },
  {
    "name": "North Coast Joinery",
    "address": "Unit 1/15 De-Havilland Cres, Ballina NSW 2478, Australia",
    "suburb": "Ballina NSW 2478",
    "state": "NSW",
    "rating": 5,
    "reviews": 11,
    "lat": -28.8460272,
    "lng": 153.5534519,
    "place_id": "ChIJf2Mzj3mBkGsRxt_bYy3dlQ8",
    "maps_url": "https://www.google.com/maps/place/?q=place_id:ChIJf2Mzj3mBkGsRxt_bYy3dlQ8"
  },