[
  {
    "name": "Little Feet Early Learning & Childcare Centre",
    "address": "23 Macpherson St, Waverley",
    "suburb": "Sydney CBD",
    "state": "NSW",
    "lat": -33.905135,
    "lng": 151.2561691,
    "place_id": "ChIJxbuqSAuyEmsR1lbepTBZWqI",
    "maps_url": "https://www.google.com/maps/place/?q=place_id:ChIJxbuqSAuyEmsR1lbepTBZWqI",
    "rating": 5,
    "total_ratings": 21
  },
  {
    "name": "Tip Top Childcare",
    "address": "832 Anzac Parade, Maroubra",
    "suburb": "Sydney CBD",
    "state": "NSW",
    "lat": -33.9403107,
    "lng": 151.2395527,
    "place_id": "ChIJ3T9ccIOzEmsR0nL3pCEwHoE",
    "maps_url": "https://www.google.com/maps/place/?q=place_id:ChIJ3T9ccIOzEmsR0nL3pCEwHoE",
    "rating": 5,
    "total_ratings": 12
  },
  {
    "name": "Guardian Childcare & Education Phillip Street",
    "address": "4/126 Phillip St, Sydney",
    "suburb": "Sydney CBD",
    "state": "NSW",
    "lat": -33.866931,
    "lng": 151.211669,
    "place_id": "ChIJ1_Z1YGquEmsRbjRasYZMpYk",
    "maps_url": "https://www.google.com/maps/place/?q=place_id:ChIJ1_Z1YGquEmsRbjRasYZMpYk",
    "rating": 4.7,
    "total_ratings": 42
  },
  {
    "name": "Kinda-Mindi Early Learning Centre - Alexandria",
    "address": "Level 1/100 Collins St, Alexandria",
    "suburb": "Sydney CBD",
    "state": "NSW",
    "lat": -33.9108041,
    "lng": 151.1957777,
    "place_id": "ChIJlRj5M7GxEmsRmXSNRuZ47_0",
    "maps_url": "https://www.google.com/maps/place/?q=place_id:ChIJlRj5M7GxEmsRmXSNRuZ47_0",
    "rating": 4.8,
    "total_ratings": 37
  },
  {
    "name": "Gumnut Gardens Early Learning Centre | Paddington",
    "address": "61 Moore Pk Rd, Centennial Park",
    "suburb": "Sydney CBD",
    "state": "NSW",
    "lat": -33.8900882,
    "lng": 151.231177,
    "place_id": "ChIJFS5Z0ACuEmsRq7Zk1dW-A4s",
    "maps_url": "https://www.google.com/maps/place/?q=place_id:ChIJFS5Z0ACuEmsRq7Zk1dW-A4s",
    "rating": 5,
    "total_ratings": 18
  },
  {
    "name": "Elouera Children’s Centre",
    "address": "122 Banks Ave, Eastgardens",
    "suburb": "Sydney CBD",
    "state": "NSW",
    "lat": -33.9410084,
    "lng": 151.2235881,
    "place_id": "ChIJ3YOzloexEmsRlvYJMQMXoYQ",
    "maps_url": "https://www.google.com/maps/place/?q=place_id:ChIJ3YOzloexEmsRlvYJMQMXoYQ",
    "rating": 4.8,
    "total_ratings": 23
  },
  {
    "name": "Genius Childcare Clarence St Sydney",
    "address": "35 Clarence St, Sydney",
    "suburb": "Sydney CBD",
    "state": "NSW",
    "lat": -33.8640139,
    "lng": 151.2044617,
    "place_id": "ChIJgW8JMkGuEmsRpCZ2hH9Nkrc",
    "maps_url": "https://www.google.com/maps/place/?q=place_id:ChIJgW8JMkGuEmsRpCZ2hH9Nkrc",
    "rating": 4.8,
    "total_ratings": 58
  },
  {
    "name": "Toybox Early Learning - North Sydney",
    "address": "Shop 1/75 Miller St, North Sydney",
    "suburb": "Sydney CBD",
    "state": "NSW",
    "lat": -33.840252,
    "lng": 151.206871,
    "place_id": "ChIJJfFBrPOuEmsReGarjwwDgLo",
    "maps_url": "https://www.google.com/maps/place/?q=place_id:ChIJJfFBrPOuEmsReGarjwwDgLo",
    "rating": 4.9,
    "total_ratings": 45
  },
  {
    "name": "The GRACE Child Care Centre",
    "address": "Clementson Park, Newland St, Bondi Junction",
    "suburb": "Sydney CBD",
    "state": "NSW",
    "lat": -33.894174,
    "lng": 151.2467852,
    "place_id": "ChIJ____SvetEmsRmniXYcEcXGg",
    "maps_url": "https://www.google.com/maps/place/?q=place_id:ChIJ____SvetEmsRmniXYcEcXGg",
    "rating": 5,
    "total_ratings": 23
  },
  {
    "name": "Willow Cottage Early Learning Centre",
    "address": "49-51 Edward St, North Sydney",
    "suburb": "Sydney CBD",
    "state": "NSW",
    "lat": -33.8368955,
    "lng": 151.2040056,
    "place_id": "ChIJ53r4Qt2uEmsRVH16jyn2QME",
    "maps_url": "https://www.google.com/maps/place/?q=place_id:ChIJ53r4Qt2uEmsRVH16jyn2QME",
    "rating": 4.6,
    "total_ratings": 10
  },
  {
    "name": "Little Feet Early Learning & Childcare Centre",
    "address": "16 Manning Rd, Double Bay",
    "suburb": "Sydney CBD",
    "state": "NSW",
    "lat": -33.8792735,
    "lng": 151.2429831,
    "place_id": "ChIJT1eVoO2tEmsRCyA0K1g0I3Y",
    "maps_url": "https://www.google.com/maps/place/?q=place_id:ChIJT1eVoO2tEmsRCyA0K1g0I3Y",
    "rating": 5,
    "total_ratings": 2
  },
  {
    "name": "Goodstart Early Learning North Sydney - West Street",
    "address": "8 West St, North Sydney",
    "suburb": "Sydney CBD",
    "state": "NSW",
    "lat": -33.8328231,
    "lng": 151.2052006,
    "place_id": "ChIJAAAAAAAAAAARZS649ZAb5S8",
    "maps_url": "https://www.google.com/maps/place/?q=place_id:ChIJAAAAAAAAAAARZS649ZAb5S8",
    "rating": 4.6,
    "total_ratings": 27
  },
  {
    "name": "Maroubra Playtime Child Care Centre",
    "address": "270 Malabar Rd, Maroubra",
    "suburb": "Sydney CBD",
    "state": "NSW",
    "lat": -33.939685,
    "lng": 151.255961,
    "place_id": "ChIJNyaoQsizEmsR-VJkX6L5J_c",
    "maps_url": "https://www.google.com/maps/place/?q=place_id:ChIJNyaoQsizEmsR-VJkX6L5J_c",
    "rating": 4.8,
    "total_ratings": 32
  },
  {
    "name": "World Tower Child Care",
    "address": "1401, Level 14/87-89 Liverpool St, Sydney",
    "suburb": "Sydney CBD",
    "state": "NSW",
    "lat": -33.8765469,
    "lng": 151.2066488,
    "place_id": "ChIJK9fH7zyuEmsRtz8to0YOwuM",
    "maps_url": "https://www.google.com/maps/place/?q=place_id:ChIJK9fH7zyuEmsRtz8to0YOwuM",
    "rating": 4.4,
    "total_ratings": 30
  },
  {
    "name": "Maroubra Junction Early Education Centre",
    "address": "1 Pacific Square Shopping Centre, 142 Maroubra Rd, Maroubra",
    "suburb": "Sydney CBD",
    "state": "NSW",
    "lat": -33.9412012,
    "lng": 151.2379632,
    "place_id": "ChIJi33Gc9SzEmsRcnpPA-Jh0pU",
    "maps_url": "https://www.google.com/maps/place/?q=place_id:ChIJi33Gc9SzEmsRcnpPA-Jh0pU",
    "rating": 4.9,
    "total_ratings": 56
  },
  {
    "name": "Castlefield Kindergarten",
    "address": "Corner of Castlefield &, Miller St, Bondi",
    "suburb": "Sydney CBD",
    "state": "NSW",
    "lat": -33.8934505,
    "lng": 151.2675075,
    "place_id": "ChIJ6dyVGpCtEmsRJblMMl-Urc4",
    "maps_url": "https://www.google.com/maps/place/?q=place_id:ChIJ6dyVGpCtEmsRJblMMl-Urc4",
    "rating": 4.9,
    "total_ratings": 30
  },
  {
    "name": "Guardian Childcare & Education George Street",
    "address": "1/580 George St, Sydney",
    "suburb": "Sydney CBD",
    "state": "NSW",
    "lat": -33.8747966,
    "lng": 151.2071479,
    "place_id": "ChIJ4yJaKTyuEmsRECncVYRope4",
    "maps_url": "https://www.google.com/maps/place/?q=place_id:ChIJ4yJaKTyuEmsRECncVYRope4",
    "rating": 4.9,
    "total_ratings": 31
  },
  {
    "name": "Paddington Children's Centre",
    "address": "30 Gordon St, Paddington",
    "suburb": "Sydney CBD",
    "state": "NSW",
    "lat": -33.8876055,
    "lng": 151.2295927,
    "place_id": "ChIJn3PP7gauEmsRylda_0RVmeo",
    "maps_url": "https://www.google.com/maps/place/?q=place_id:ChIJn3PP7gauEmsRylda_0RVmeo",
    "rating": 4.9,
    "total_ratings": 11
  },
  {
    "name": "Little Bees Childcare Rosebery",
    "address": "25-55 Rothschild Ave, Rosebery",
    "suburb": "Sydney CBD",
    "state": "NSW",
    "lat": -33.9134564,
    "lng": 151.2060569,
    "place_id": "ChIJ03ijlr6xEmsRqMwnJIkUKKM",
    "maps_url": "https://www.google.com/maps/place/?q=place_id:ChIJ03ijlr6xEmsRqMwnJIkUKKM",
    "rating": 5,
    "total_ratings": 25
  },
  {
    "name": "3 Steps Early Learning Randwick",
    "address": "3 Darley Rd, Randwick",
    "suburb": "Sydney CBD",
    "state": "NSW",
    "lat": -33.9052109,
    "lng": 151.2328603,
    "place_id": "ChIJ76vw-3ixEmsRvVNpTJuXWU8",
    "maps_url": "https://www.google.com/maps/place/?q=place_id:ChIJ76vw-3ixEmsRvVNpTJuXWU8",
    "rating": 4.9,
    "total_ratings": 30
  },
  {
    "name": "Believe Playschool",
    "address": "Level 2/38-40 William Henry St, Ultimo",
    "suburb": "Sydney CBD",
    "state": "NSW",
    "lat": -33.8779841,
    "lng": 151.1980065,
    "place_id": "ChIJ_eoJJA-vEmsRAJu9gN4aKes",
    "maps_url": "https://www.google.com/maps/place/?q=place_id:ChIJ_eoJJA-vEmsRAJu9gN4aKes",
    "rating": 4.9,
    "total_ratings": 50
  },
  {
    "name": "St Joseph's Preschool & Long Day Care - SCECS Rosebery Childcare Centre",
    "address": "1A Kimberley Grove, Rosebery",
    "suburb": "Sydney CBD",
    "state": "NSW",
    "lat": -33.9161882,
    "lng": 151.2078413,
    "place_id": "ChIJOethpoSxEmsRPmnyizp8WyU",
    "maps_url": "https://www.google.com/maps/place/?q=place_id:ChIJOethpoSxEmsRPmnyizp8WyU",
    "rating": 4.8,
    "total_ratings": 18
  },
  {
    "name": "Queen Street | Early Learning Centre",
    "address": "46 Queen St, Ashfield",
    "suburb": "Sydney CBD",
    "state": "NSW",
    "lat": -33.8934121,
    "lng": 151.1281907,
    "place_id": "ChIJqySzJtS7EmsRWZci38jVzzw",
    "maps_url": "https://www.google.com/maps/place/?q=place_id:ChIJqySzJtS7EmsRWZci38jVzzw",
    "rating": 4.3,
    "total_ratings": 8
  },
  {
    "name": "College Street Childcare Centre",
    "address": "61 College St, Drummoyne",
    "suburb": "Sydney CBD",
    "state": "NSW",
    "lat": -33.8527534,
    "lng": 151.153712,
    "place_id": "ChIJhxHm7ZKvEmsRs7kNQDFX89M",
    "maps_url": "https://www.google.com/maps/place/?q=place_id:ChIJhxHm7ZKvEmsRs7kNQDFX89M",
    "rating": 5,
    "total_ratings": 4
  },
  {
    "name": "Enmore Early Learning Centre",
    "address": "305 Enmore Rd, Marrickville",
    "suburb": "Sydney CBD",
    "state": "NSW",
    "lat": -33.9022874,
    "lng": 151.1691777,
    "place_id": "ChIJScjYK0GwEmsRU9nh2m2XA4s",
    "maps_url": "https://www.google.com/maps/place/?q=place_id:ChIJScjYK0GwEmsRU9nh2m2XA4s",
    "rating": 5,
    "total_ratings": 10
  },
  {
    "name": "Daystars Early Learning Childcare Centre Bardwell Valley",
    "address": "29-31 Hannam St, Bardwell Valley",
    "suburb": "Sydney CBD",
    "state": "NSW",
    "lat": -33.9322956,
    "lng": 151.1375526,
    "place_id": "ChIJGcQj1Qq6EmsRBbJxW0Tfsw0",
    "maps_url": "https://www.google.com/maps/place/?q=place_id:ChIJGcQj1Qq6EmsRBbJxW0Tfsw0",
    "rating": 4.8,
    "total_ratings": 43
  },
  {
    "name": "Kensington Kids Kingdom Childcare",
    "address": "31 Todman Ave, Kensington",
    "suburb": "Sydney CBD",
    "state": "NSW",
    "lat": -33.905657,
    "lng": 151.2159132,
    "place_id": "ChIJDwU9Cp2xEmsRPfczYYqGLd8",
    "maps_url": "https://www.google.com/maps/place/?q=place_id:ChIJDwU9Cp2xEmsRPfczYYqGLd8",
    "rating": 4.9,
    "total_ratings": 61
  },
  {
    "name": "Magic Pudding Child Care Centre",
    "address": "1 McKee St, Ultimo",
    "suburb": "Sydney CBD",
    "state": "NSW",
    "lat": -33.8814255,
    "lng": 151.197733,
    "place_id": "ChIJH9ZLsiiuEmsRVDCShgHL8NY",
    "maps_url": "https://www.google.com/maps/place/?q=place_id:ChIJH9ZLsiiuEmsRVDCShgHL8NY",
    "rating": 4.7,
    "total_ratings": 18
  },
  {
    "name": "Devonshire Street Children's Centre",
    "address": "Devonshire St, Chatswood",
    "suburb": "Sydney CBD",
    "state": "NSW",
    "lat": -33.7986291,
    "lng": 151.1845791,
    "place_id": "ChIJseghB9WoEmsRdWoRL1uidTU",
    "maps_url": "https://www.google.com/maps/place/?q=place_id:ChIJseghB9WoEmsRdWoRL1uidTU",
    "rating": 4.7,
    "total_ratings": 6
  },
  {
    "name": "Barangaroo Montessori Academy Childcare Centre",
    "address": "33/49 Sussex St, Sydney",
    "suburb": "Sydney CBD",
    "state": "NSW",
    "lat": -33.8665514,
    "lng": 151.2032389,
    "place_id": "ChIJ-ex4Qi2wEmsRpH_C1jVwpno",
    "maps_url": "https://www.google.com/maps/place/?q=place_id:ChIJ-ex4Qi2wEmsRpH_C1jVwpno",
    "rating": 4.9,
    "total_ratings": 54
  },
  {
    "name": "Addison Road Early Learning Centre",
    "address": "Hut 4, 142 Addison Rd, Marrickville",
    "suburb": "Sydney CBD",
    "state": "NSW",
    "lat": -33.9033124,
    "lng": 151.1619295,
    "place_id": "ChIJAYmrgGmwEmsRwX7taHYOtnI",
    "maps_url": "https://www.google.com/maps/place/?q=place_id:ChIJAYmrgGmwEmsRwX7taHYOtnI",
    "rating": 4.4,
    "total_ratings": 5
  },
  {
    "name": "Dulwich Hill Child Care Centre",
    "address": "66 Garnet St, Hurlstone Park",
    "suburb": "Sydney CBD",
    "state": "NSW",
    "lat": -33.9095804,
    "lng": 151.1344927,
    "place_id": "ChIJ117CNIe6EmsRjzioRSQvFNA",
    "maps_url": "https://www.google.com/maps/place/?q=place_id:ChIJ117CNIe6EmsRjzioRSQvFNA",
    "rating": 4.9,
    "total_ratings": 92
  },
  {
    "name": "Boundary Lane Children’s Centre",
    "address": "128-146 Burren St, Newtown",
    "suburb": "Sydney CBD",
    "state": "NSW",
    "lat": -33.8961254,
    "lng": 151.1847999,
    "place_id": "ChIJ5be5BTOwEmsRUyvYGELNjp8",
    "maps_url": "https://www.google.com/maps/place/?q=place_id:ChIJ5be5BTOwEmsRUyvYGELNjp8",
    "rating": 5,
    "total_ratings": 6
  },
  {
    "name": "Explore & Develop Castlereagh St, Sydney - Early Learning Centre",
    "address": "15 Castlereagh St, Sydney",
    "suburb": "Sydney CBD",
    "state": "NSW",
    "lat": -33.866893,
    "lng": 151.209596,
    "place_id": "ChIJWfbsL0CuEmsR8g_VWDrcC2s",
    "maps_url": "https://www.google.com/maps/place/?q=place_id:ChIJWfbsL0CuEmsR8g_VWDrcC2s",
    "rating": 4.8,
    "total_ratings": 68
  },
  {
    "name": "Gingerbread Kindergarten",
    "address": "28-30 Bourke St, Queens Park",
    "suburb": "Sydney CBD",
    "state": "NSW",
    "lat": -33.8974479,
    "lng": 151.2494461,
    "place_id": "ChIJx4z0ZvatEmsRiAd8LQhJxqY",
    "maps_url": "https://www.google.com/maps/place/?q=place_id:ChIJx4z0ZvatEmsRiAd8LQhJxqY",
    "rating": 4.6,
    "total_ratings": 10
  },
  {
    "name": "St Brigid’s Preschool & Long Day Care - SCECS Coogee Childcare Centre",
    "address": "135B Brook St, Coogee",
    "suburb": "Sydney CBD",
    "state": "NSW",
    "lat": -33.923412,
    "lng": 151.2540617,
    "place_id": "ChIJTXVU55GzEmsRVVchudMttio",
    "maps_url": "https://www.google.com/maps/place/?q=place_id:ChIJTXVU55GzEmsRVVchudMttio",
    "rating": 4.8,
    "total_ratings": 15
  },
  {
    "name": "May Murray Early Learning Centre",
    "address": "35 Premier St, Marrickville",
    "suburb": "Sydney CBD",
    "state": "NSW",
    "lat": -33.9189637,
    "lng": 151.1499629,
    "place_id": "ChIJH-ISQoawEmsR879ZR2uxYI8",
    "maps_url": "https://www.google.com/maps/place/?q=place_id:ChIJH-ISQoawEmsR879ZR2uxYI8",
    "rating": 5,
    "total_ratings": 3
  },
  {
    "name": "Morning Star Christian Childcare Centre",
    "address": "33 Harcourt Parade, Rosebery",
    "suburb": "Sydney CBD",
    "state": "NSW",
    "lat": -33.9202642,
    "lng": 151.201629,
    "place_id": "ChIJ1yRuIWixEmsRVvZN1gacyF0",
    "maps_url": "https://www.google.com/maps/place/?q=place_id:ChIJ1yRuIWixEmsRVvZN1gacyF0",
    "rating": 5,
    "total_ratings": 33
  },
  {
    "name": "Rise & Shine Kindergarten Marrickville Childcare service",
    "address": "373 Illawarra Rd, Marrickville",
    "suburb": "Sydney CBD",
    "state": "NSW",
    "lat": -33.9147719,
    "lng": 151.1527353,
    "place_id": "ChIJUwySlRmxEmsR54YPHdZoxR4",
    "maps_url": "https://www.google.com/maps/place/?q=place_id:ChIJUwySlRmxEmsR54YPHdZoxR4",
    "rating": 5,
    "total_ratings": 14
  },
  {
    "name": "Rise & Shine Kindergarten Summer Hill Childcare Service",
    "address": "1/15 Smith St, Summer Hill",
    "suburb": "Sydney CBD",
    "state": "NSW",
    "lat": -33.8928025,
    "lng": 151.1426423,
    "place_id": "ChIJLV6lMnWwEmsRwY8UxjN2p1o",
    "maps_url": "https://www.google.com/maps/place/?q=place_id:ChIJLV6lMnWwEmsRwY8UxjN2p1o",
    "rating": 4,
    "total_ratings": 36
  },
  {
    "name": "Stringybark Lane Cove ChildCare and Learning Centre",
    "address": "2 Landers Rd, Lane Cove North",
    "suburb": "Sydney CBD",
    "state": "NSW",
    "lat": -33.8117603,
    "lng": 151.1701641,
    "place_id": "ChIJ8_jA5TuvEmsRa6nlb8PjkfE",
    "maps_url": "https://www.google.com/maps/place/?q=place_id:ChIJ8_jA5TuvEmsRa6nlb8PjkfE",
    "rating": 5,
    "total_ratings": 68
  },
  {
    "name": "Kindamindi Childcare Centre",
    "address": "1 Illawong Ave, Bondi",
    "suburb": "Sydney CBD",
    "state": "NSW",
    "lat": -33.8966242,
    "lng": 151.2678605,
    "place_id": "ChIJoQbVeY-tEmsRedUscRNLaIc",
    "maps_url": "https://www.google.com/maps/place/?q=place_id:ChIJoQbVeY-tEmsRedUscRNLaIc",
    "rating": 4,
    "total_ratings": 8
  },
  {
    "name": "Kids Club Child Care Elizabeth Street Centre",
    "address": "260 Elizabeth St, Surry Hills",
    "suburb": "Sydney CBD",
    "state": "NSW",
    "lat": -33.882205,
    "lng": 151.209043,
    "place_id": "ChIJcRDAaCKuEmsR9cgWbVMS0ds",
    "maps_url": "https://www.google.com/maps/place/?q=place_id:ChIJcRDAaCKuEmsR9cgWbVMS0ds",
    "rating": 4.8,
    "total_ratings": 56
  },
  {
    "name": "Berry Cottage Childcare",
    "address": "9 Talus St, Naremburn",
    "suburb": "Sydney CBD",
    "state": "NSW",
    "lat": -33.8182345,
    "lng": 151.1954088,
    "place_id": "ChIJ-QifntuuEmsRxYmlrd0jhL8",
    "maps_url": "https://www.google.com/maps/place/?q=place_id:ChIJ-QifntuuEmsRxYmlrd0jhL8",
    "rating": 4.9,
    "total_ratings": 7
  },
  {
    "name": "Kookaburra Kindergarten Chatswood",
    "address": "29 Fullers Rd, Chatswood",
    "suburb": "Sydney CBD",
    "state": "NSW",
    "lat": -33.7956355,
    "lng": 151.1745926,
    "place_id": "ChIJLSVcm82oEmsRD2XDL9dXY0s",
    "maps_url": "https://www.google.com/maps/place/?q=place_id:ChIJLSVcm82oEmsRD2XDL9dXY0s",
    "rating": 5,
    "total_ratings": 27
  },
  {
    "name": "Children's Choice Early Learning",
    "address": "level 4/18 Thomas St, Chatswood",
    "suburb": "Sydney CBD",
    "state": "NSW",
    "lat": -33.7987862,
    "lng": 151.1796732,
    "place_id": "ChIJ62NTxjKpEmsR1qR2TtxPFFM",
    "maps_url": "https://www.google.com/maps/place/?q=place_id:ChIJ62NTxjKpEmsR1qR2TtxPFFM",
    "rating": 5,
    "total_ratings": 28
  },
  {
    "name": "Stanmore Kindy",
    "address": "1 Lincoln St, Stanmore",
    "suburb": "Sydney CBD",
    "state": "NSW",
    "lat": -33.8914641,
    "lng": 151.170041,
    "place_id": "ChIJK6i4XTywEmsRn-EecGWqEvg",
    "maps_url": "https://www.google.com/maps/place/?q=place_id:ChIJK6i4XTywEmsRn-EecGWqEvg",
    "rating": 5,
    "total_ratings": 14
  },
  {
    "name": "Summer Hill Children's Centre",
    "address": "Cnr Moonbie &, Lorne St, Summer Hill",
    "suburb": "Sydney CBD",
    "state": "NSW",
    "lat": -33.8936213,
    "lng": 151.1369853,
    "place_id": "ChIJcUggBZ-6EmsRPXy0tg8FSMI",
    "maps_url": "https://www.google.com/maps/place/?q=place_id:ChIJcUggBZ-6EmsRPXy0tg8FSMI",
    "rating": 5,
    "total_ratings": 2
  },
  {
    "name": "Kindikids Childcare Centre Ryde",
    "address": "486-488 Victoria Rd, Ryde",
    "suburb": "Sydney CBD",
    "state": "NSW",
    "lat": -33.8226573,
    "lng": 151.1213704,
    "place_id": "ChIJQZBD7Z6lEmsRUC7h5zP_AMI",
    "maps_url": "https://www.google.com/maps/place/?q=place_id:ChIJQZBD7Z6lEmsRUC7h5zP_AMI",
    "rating": 4.6,
    "total_ratings": 91
  },
  {
    "name": "Barnardos Early Learning Centre Ultimo",
    "address": "47 Jones St, Ultimo",
    "suburb": "Sydney CBD",
    "state": "NSW",
    "lat": -33.8776569,
    "lng": 151.1960134,
    "place_id": "ChIJM9Ff0h-vEmsRg5KiAwwygMg",
    "maps_url": "https://www.google.com/maps/place/?q=place_id:ChIJM9Ff0h-vEmsRg5KiAwwygMg",
    "rating": 5,
    "total_ratings": 12
  },
  {
    "name": "Mother Goose Childcare Centre",
    "address": "19 Violet St, Bronte",
    "suburb": "Sydney CBD",
    "state": "NSW",
    "lat": -33.9052111,
    "lng": 151.2625354,
    "place_id": "ChIJqYfU1HWyEmsRyMZUu3qKcYI",
    "maps_url": "https://www.google.com/maps/place/?q=place_id:ChIJqYfU1HWyEmsRyMZUu3qKcYI",
    "rating": 4.6,
    "total_ratings": 10
  },
  {
    "name": "Goodstart Early Learning North Sydney - Berry Street",
    "address": "3/20 Berry St, North Sydney",
    "suburb": "Sydney CBD",
    "state": "NSW",
    "lat": -33.8362673,
    "lng": 151.2059989,
    "place_id": "ChIJ83W38u2uEmsRFd0LQfumRbw",
    "maps_url": "https://www.google.com/maps/place/?q=place_id:ChIJ83W38u2uEmsRFd0LQfumRbw",
    "rating": 4.9,
    "total_ratings": 22
  },
  {
    "name": "Busy Bee Long Day Child Care Centre",
    "address": "3 Marinea St, Arncliffe",
    "suburb": "Sydney CBD",
    "state": "NSW",
    "lat": -33.941251,
    "lng": 151.146738,
    "place_id": "ChIJdwEQI6SwEmsR7tx8ujHupRI",
    "maps_url": "https://www.google.com/maps/place/?q=place_id:ChIJdwEQI6SwEmsR7tx8ujHupRI",
    "rating": 4.9,
    "total_ratings": 19
  },
  {
    "name": "St John's Child Care Centre",
    "address": "49a Yeo St, Neutral Bay",
    "suburb": "Sydney CBD",
    "state": "NSW",
    "lat": -33.8326036,
    "lng": 151.221097,
    "place_id": "ChIJb6Lgj5euEmsRaC4IYt3_JJU",
    "maps_url": "https://www.google.com/maps/place/?q=place_id:ChIJb6Lgj5euEmsRaC4IYt3_JJU",
    "rating": 5,
    "total_ratings": 22
  },
  {
    "name": "Sandcastles Childcare Chatswood 2",
    "address": "799 Pacific Hwy, Chatswood",
    "suburb": "Sydney CBD",
    "state": "NSW",
    "lat": -33.7979904,
    "lng": 151.1788292,
    "place_id": "ChIJmd9JGtOoEmsROku9fOQUDl8",
    "maps_url": "https://www.google.com/maps/place/?q=place_id:ChIJmd9JGtOoEmsROku9fOQUDl8",
    "rating": 5,
    "total_ratings": 38
  },
  {
    "name": "Learn & Laugh Children's centre Rosebery",
    "address": "Unit 330/4 Stedman St, Rosebery",
    "suburb": "Sydney CBD",
    "state": "NSW",
    "lat": -33.911824,
    "lng": 151.2069007,
    "place_id": "ChIJATL-Br-xEmsROBDXFM11mNI",
    "maps_url": "https://www.google.com/maps/place/?q=place_id:ChIJATL-Br-xEmsROBDXFM11mNI",
    "rating": 4.9,
    "total_ratings": 47
  },
  {
    "name": "Guardian Childcare & Education Lilyfield",
    "address": "64 Charles St, Lilyfield",
    "suburb": "Sydney CBD",
    "state": "NSW",
    "lat": -33.8745159,
    "lng": 151.1519825,
    "place_id": "ChIJGchRU_2vEmsRvVbb7p5nWqA",
    "maps_url": "https://www.google.com/maps/place/?q=place_id:ChIJGchRU_2vEmsRvVbb7p5nWqA",
    "rating": 5,
    "total_ratings": 31
  },
  {
    "name": "Little Troopers Childcare Centre",
    "address": "2 First St, Ashbury",
    "suburb": "Sydney CBD",
    "state": "NSW",
    "lat": -33.9042586,
    "lng": 151.1229115,
    "place_id": "ChIJzYABYIm6EmsR9PdTGj4AUi0",
    "maps_url": "https://www.google.com/maps/place/?q=place_id:ChIJzYABYIm6EmsR9PdTGj4AUi0",
    "rating": 5,
    "total_ratings": 22
  },
  {
    "name": "Learn & Laugh Children's centre Lewisham",
    "address": "120A Old Canterbury Rd, Lewisham",
    "suburb": "Sydney CBD",
    "state": "NSW",
    "lat": -33.8951024,
    "lng": 151.1432834,
    "place_id": "ChIJwSu7_HSwEmsRdputvuYk4Hs",
    "maps_url": "https://www.google.com/maps/place/?q=place_id:ChIJwSu7_HSwEmsRdputvuYk4Hs",
    "rating": 5,
    "total_ratings": 43
  },
  {
    "name": "Inner West Kids Marrickville",
    "address": "26-28 Renwick St, Marrickville",
    "suburb": "Sydney CBD",
    "state": "NSW",
    "lat": -33.9174444,
    "lng": 151.150634,
    "place_id": "ChIJFWlwyoewEmsRnag4jQGsKs8",
    "maps_url": "https://www.google.com/maps/place/?q=place_id:ChIJFWlwyoewEmsRnag4jQGsKs8",
    "rating": 5,
    "total_ratings": 63
  },
  {
    "name": "Nought To Five Early Childhood Centre",
    "address": "16 Waterloo Rd, Macquarie Park",
    "suburb": "North Sydney",
    "state": "NSW",
    "lat": -33.788228,
    "lng": 151.131653,
    "place_id": "ChIJWTG3gv2lEmsRb7sb0OuYVoE",
    "maps_url": "https://www.google.com/maps/place/?q=place_id:ChIJWTG3gv2lEmsRb7sb0OuYVoE",
    "rating": 5,
    "total_ratings": 62
  },
  {
    "name": "Surry Hills Early Learning Centre",
    "address": "560 Cleveland St, Moore Park",
    "suburb": "North Sydney",
    "state": "NSW",
    "lat": -33.8940608,
    "lng": 151.2207228,
    "place_id": "ChIJfwko4uGxEmsR59pAqkualrw",
    "maps_url": "https://www.google.com/maps/place/?q=place_id:ChIJfwko4uGxEmsR59pAqkualrw",
    "rating": 5,
    "total_ratings": 11
  },
  {
    "name": "Chatswood Montessori Academy Childcare Centre",
    "address": "The Zenith, Ground Floor, Tower B/821 Pacific Hwy, Chatswood",
    "suburb": "North Sydney",
    "state": "NSW",
    "lat": -33.7944108,
    "lng": 151.1796341,
    "place_id": "ChIJ2Yq7WNqpEmsRed71Xk4JvLI",
    "maps_url": "https://www.google.com/maps/place/?q=place_id:ChIJ2Yq7WNqpEmsRed71Xk4JvLI",
    "rating": 4.9,
    "total_ratings": 15
  },
  {
    "name": "Leichhardt Park Early Learning Centre",
    "address": "68 Mary St, Lilyfield",
    "suburb": "North Sydney",
    "state": "NSW",
    "lat": -33.8695588,
    "lng": 151.1536633,
    "place_id": "ChIJPzRAHpavEmsRo2tzzBFAP2M",
    "maps_url": "https://www.google.com/maps/place/?q=place_id:ChIJPzRAHpavEmsRo2tzzBFAP2M",
    "rating": 5,
    "total_ratings": 11
  },
  {
    "name": "Guardian Childcare Macquarie Park",
    "address": "Gate C, 19/25 Khartoum Rd, Macquarie Park",
    "suburb": "North Sydney",
    "state": "NSW",
    "lat": -33.7780637,
    "lng": 151.1269082,
    "place_id": "ChIJT9J-pA-mEmsRyEwtX4oBcK0",
    "maps_url": "https://www.google.com/maps/place/?q=place_id:ChIJT9J-pA-mEmsRyEwtX4oBcK0",
    "rating": 4.9,
    "total_ratings": 40
  },
  {
    "name": "Little Pines",
    "address": "12-14 Pine Ave, Russell Lea",
    "suburb": "North Sydney",
    "state": "NSW",
    "lat": -33.8606694,
    "lng": 151.1348593,
    "place_id": "ChIJ0YECUlelEmsRIGTE8ZCpnbY",
    "maps_url": "https://www.google.com/maps/place/?q=place_id:ChIJ0YECUlelEmsRIGTE8ZCpnbY",
    "rating": 4.3,
    "total_ratings": 9
  },
  {
    "name": "Bluebird Early Education Roseville",
    "address": "Unit 51/28 Barcoo St, Roseville",
    "suburb": "North Sydney",
    "state": "NSW",
    "lat": -33.7851213,
    "lng": 151.1961793,
    "place_id": "ChIJNWKSolqpEmsRLE0WcIOTZXA",
    "maps_url": "https://www.google.com/maps/place/?q=place_id:ChIJNWKSolqpEmsRLE0WcIOTZXA",
    "rating": 5,
    "total_ratings": 121
  },
  {
    "name": "Goodstart Early Learning East Sydney",
    "address": "277 Bourke St, Darlinghurst",
    "suburb": "North Sydney",
    "state": "NSW",
    "lat": -33.8774977,
    "lng": 151.2173273,
    "place_id": "ChIJoVjrPhGuEmsRE_3hklsVzkA",
    "maps_url": "https://www.google.com/maps/place/?q=place_id:ChIJoVjrPhGuEmsRE_3hklsVzkA",
    "rating": 4.6,
    "total_ratings": 21
  },
  {
    "name": "Kids Club Child Care Clarence Centre",
    "address": "83 Clarence St, Sydney",
    "suburb": "North Sydney",
    "state": "NSW",
    "lat": -33.8660423,
    "lng": 151.2046213,
    "place_id": "ChIJL_vzy0CuEmsRTvXCMBL75ro",
    "maps_url": "https://www.google.com/maps/place/?q=place_id:ChIJL_vzy0CuEmsRTvXCMBL75ro",
    "rating": 5,
    "total_ratings": 57
  },
  {
    "name": "Children's Choice Early Learning",
    "address": "18 Wattle Rd, Brookvale",
    "suburb": "North Sydney",
    "state": "NSW",
    "lat": -33.7680222,
    "lng": 151.2769969,
    "place_id": "ChIJqypJ016qEmsRbmTs12YjpqU",
    "maps_url": "https://www.google.com/maps/place/?q=place_id:ChIJqypJ016qEmsRbmTs12YjpqU",
    "rating": 4.8,
    "total_ratings": 76
  },
  {
    "name": "Goodstart Bondi Junction South",
    "address": "Suite 12/101 Grafton St, Bondi Junction",
    "suburb": "North Sydney",
    "state": "NSW",
    "lat": -33.891835,
    "lng": 151.250524,
    "place_id": "ChIJSX-cJ_KtEmsRaGcZbOOQwtc",
    "maps_url": "https://www.google.com/maps/place/?q=place_id:ChIJSX-cJ_KtEmsRaGcZbOOQwtc",
    "rating": 5,
    "total_ratings": 23
  },
  {
    "name": "Naremburn Early Learning Centre",
    "address": "7 Donnelly Rd, Naremburn",
    "suburb": "North Sydney",
    "state": "NSW",
    "lat": -33.8200049,
    "lng": 151.2041528,
    "place_id": "ChIJARuEJsSuEmsRGFsj6GWRmvc",
    "maps_url": "https://www.google.com/maps/place/?q=place_id:ChIJARuEJsSuEmsRGFsj6GWRmvc",
    "rating": 4.9,
    "total_ratings": 34
  },
  {
    "name": "Little Lights Christian Child Care",
    "address": "77 Tranmere St, Drummoyne",
    "suburb": "North Sydney",
    "state": "NSW",
    "lat": -33.8532337,
    "lng": 151.1519574,
    "place_id": "ChIJsSRiRSyvEmsRe8UisPKcaPQ",
    "maps_url": "https://www.google.com/maps/place/?q=place_id:ChIJsSRiRSyvEmsRe8UisPKcaPQ",
    "rating": 5,
    "total_ratings": 81
  },
  {
    "name": "Blossoms Childcare & Early Learning Centre - Lane Cove",
    "address": "10/12 Tambourine Bay Rd, Lane Cove",
    "suburb": "North Sydney",
    "state": "NSW",
    "lat": -33.8159416,
    "lng": 151.1663449,
    "place_id": "ChIJ-9d7yz-vEmsRc3NkzB6060I",
    "maps_url": "https://www.google.com/maps/place/?q=place_id:ChIJ-9d7yz-vEmsRc3NkzB6060I",
    "rating": 4.6,
    "total_ratings": 27
  },
  {
    "name": "Leichhardt Early Learning Centre",
    "address": "19 Leichhardt St, Leichhardt",
    "suburb": "North Sydney",
    "state": "NSW",
    "lat": -33.8835218,
    "lng": 151.1600118,
    "place_id": "ChIJYQFwBhmwEmsRhuy77GueWoM",
    "maps_url": "https://www.google.com/maps/place/?q=place_id:ChIJYQFwBhmwEmsRhuy77GueWoM",
    "rating": 5,
    "total_ratings": 3
  },
  {
    "name": "Little Learners Academy Lane Cove North",
    "address": "30 Landers Rd, Lane Cove North",
    "suburb": "North Sydney",
    "state": "NSW",
    "lat": -33.8111687,
    "lng": 151.1678709,
    "place_id": "ChIJZXMhPzmvEmsRPwFWVLtlrHE",
    "maps_url": "https://www.google.com/maps/place/?q=place_id:ChIJZXMhPzmvEmsRPwFWVLtlrHE",
    "rating": 4.8,
    "total_ratings": 28
  },
  {
    "name": "Little Genius Academy Childcare Centre Concord / Breakfast Point",
    "address": "back street, Entry via Watkin St, 32 Gale St, Concord",
    "suburb": "Chatswood",
    "state": "NSW",
    "lat": -33.8463888,
    "lng": 151.106945,
    "place_id": "ChIJt3f06jylEmsRg85yhd_9m0E",
    "maps_url": "https://www.google.com/maps/place/?q=place_id:ChIJt3f06jylEmsRg85yhd_9m0E",
    "rating": 4.8,
    "total_ratings": 57
  },
  {
    "name": "Aurora Early Learning Centre - Frenchs Forest",
    "address": "20 Rodborough Rd, Frenchs Forest",
    "suburb": "Chatswood",
    "state": "NSW",
    "lat": -33.7544222,
    "lng": 151.2487705,
    "place_id": "ChIJj8q_QCSrEmsR20NnxWsKcHM",
    "maps_url": "https://www.google.com/maps/place/?q=place_id:ChIJj8q_QCSrEmsR20NnxWsKcHM",
    "rating": 5,
    "total_ratings": 25
  },
  {
    "name": "Innovative Early Learning Artarmon",
    "address": "11 George Pl, Artarmon",
    "suburb": "Chatswood",
    "state": "NSW",
    "lat": -33.81190650000001,
    "lng": 151.1813328,
    "place_id": "ChIJW7p3xyqvEmsRtvxhHlrsAwk",
    "maps_url": "https://www.google.com/maps/place/?q=place_id:ChIJW7p3xyqvEmsRtvxhHlrsAwk",
    "rating": 5,
    "total_ratings": 56
  },
  {
    "name": "Morning Buds Early Learning Centre",
    "address": "36 Henderson St, Denistone East",
    "suburb": "Chatswood",
    "state": "NSW",
    "lat": -33.7951813,
    "lng": 151.0967262,
    "place_id": "ChIJ6RpLGX-lEmsRvtNADMed6Q0",
    "maps_url": "https://www.google.com/maps/place/?q=place_id:ChIJ6RpLGX-lEmsRvtNADMed6Q0",
    "rating": 5,
    "total_ratings": 17
  },
  {
    "name": "Butterflies Early Learning Centre",
    "address": "9 Waltham St, Artarmon",
    "suburb": "Chatswood",
    "state": "NSW",
    "lat": -33.8146483,
    "lng": 151.1884251,
    "place_id": "ChIJIYrmYdiuEmsRKqHOGJPBSLA",
    "maps_url": "https://www.google.com/maps/place/?q=place_id:ChIJIYrmYdiuEmsRKqHOGJPBSLA",
    "rating": 4.9,
    "total_ratings": 32
  },
  {
    "name": "Kelvin Kindergarten St Ives",
    "address": "261 Mona Vale Rd, St Ives",
    "suburb": "Chatswood",
    "state": "NSW",
    "lat": -33.7280016,
    "lng": 151.1651632,
    "place_id": "ChIJd-zhvT2oEmsRu4jtqppjXDk",
    "maps_url": "https://www.google.com/maps/place/?q=place_id:ChIJd-zhvT2oEmsRu4jtqppjXDk",
    "rating": 5,
    "total_ratings": 35
  },
  {
    "name": "Academy for Early Learners",
    "address": "17 Bandalong Ave, West Pymble",
    "suburb": "Chatswood",
    "state": "NSW",
    "lat": -33.767674,
    "lng": 151.137636,
    "place_id": "ChIJMfxvNCCmEmsR0BOXuOet0HA",
    "maps_url": "https://www.google.com/maps/place/?q=place_id:ChIJMfxvNCCmEmsR0BOXuOet0HA",
    "rating": 4.8,
    "total_ratings": 102
  },
  {
    "name": "Little Lion Early Learning CBD Kent St.",
    "address": "4/321 Kent St, Sydney",
    "suburb": "Chatswood",
    "state": "NSW",
    "lat": -33.8675124,
    "lng": 151.2038853,
    "place_id": "ChIJdZHy2N2vEmsRfeUozYs102k",
    "maps_url": "https://www.google.com/maps/place/?q=place_id:ChIJdZHy2N2vEmsRfeUozYs102k",
    "rating": 4.9,
    "total_ratings": 38
  },
  {
    "name": "Swan Academy - Childcare/Preschool Chatswood",
    "address": "15 Albert Ave, Chatswood",
    "suburb": "Chatswood",
    "state": "NSW",
    "lat": -33.7961369,
    "lng": 151.1887085,
    "place_id": "ChIJt_kaAMS6EmsRjNJ0UTvevDA",
    "maps_url": "https://www.google.com/maps/place/?q=place_id:ChIJt_kaAMS6EmsRjNJ0UTvevDA",
    "rating": 4.8,
    "total_ratings": 78
  },
  {
    "name": "Rise Early Learning Epping Road",
    "address": "65 Epping Rd, North Ryde",
    "suburb": "Chatswood",
    "state": "NSW",
    "lat": -33.788621,
    "lng": 151.1286076,
    "place_id": "ChIJb-u4KeOlEmsRG6kMeakY2lk",
    "maps_url": "https://www.google.com/maps/place/?q=place_id:ChIJb-u4KeOlEmsRG6kMeakY2lk",
    "rating": 4.6,
    "total_ratings": 36
  },
  {
    "name": "Goodstart Early Learning St Leonards - Christie Street",
    "address": "55 Christie St, St Leonards",
    "suburb": "Chatswood",
    "state": "NSW",
    "lat": -33.8254428,
    "lng": 151.196677,
    "place_id": "ChIJm9W7hOeuEmsRMgF6vIzoqgc",
    "maps_url": "https://www.google.com/maps/place/?q=place_id:ChIJm9W7hOeuEmsRMgF6vIzoqgc",
    "rating": 4.5,
    "total_ratings": 60
  },
  {
    "name": "McMahons Point Community Preschool & Early Learning Centre",
    "address": "165 Blues Point Rd, McMahons Point",
    "suburb": "Chatswood",
    "state": "NSW",
    "lat": -33.8430041,
    "lng": 151.2051217,
    "place_id": "ChIJLdm2EPSuEmsRuVug60BBEA4",
    "maps_url": "https://www.google.com/maps/place/?q=place_id:ChIJLdm2EPSuEmsRuVug60BBEA4",
    "rating": 5,
    "total_ratings": 26
  },
  {
    "name": "Little Lion Early Learning Artarmon",
    "address": "41-43 Dickson Ave, Artarmon",
    "suburb": "Chatswood",
    "state": "NSW",
    "lat": -33.8157286,
    "lng": 151.1839862,
    "place_id": "ChIJTTYeawKvEmsR-FAEeIppJnU",
    "maps_url": "https://www.google.com/maps/place/?q=place_id:ChIJTTYeawKvEmsR-FAEeIppJnU",
    "rating": 5,
    "total_ratings": 27
  },
  {
    "name": "Guardian Childcare Marsfield",
    "address": "146 Vimiera Rd, Eastwood",
    "suburb": "Chatswood",
    "state": "NSW",
    "lat": -33.7760637,
    "lng": 151.0990651,
    "place_id": "ChIJ9YN30X6mEmsRmcj_U4qqn3A",
    "maps_url": "https://www.google.com/maps/place/?q=place_id:ChIJ9YN30X6mEmsRmcj_U4qqn3A",
    "rating": 4.7,
    "total_ratings": 44
  },
  {
    "name": "Imaginations Preschool",
    "address": "33 Agincourt Rd, Marsfield",
    "suburb": "Chatswood",
    "state": "NSW",
    "lat": -33.776405,
    "lng": 151.102283,
    "place_id": "ChIJy1riCnmmEmsRz00TMpQBgxU",
    "maps_url": "https://www.google.com/maps/place/?q=place_id:ChIJy1riCnmmEmsRz00TMpQBgxU",
    "rating": 5,
    "total_ratings": 11
  },
  {
    "name": "Heritage House Wahroonga Early Education Centre",
    "address": "44 Fox Valley Rd, Wahroonga",
    "suburb": "Chatswood",
    "state": "NSW",
    "lat": -33.7280921,
    "lng": 151.1139012,
    "place_id": "ChIJh2ZQSiGnEmsR-Koj1IAsX2w",
    "maps_url": "https://www.google.com/maps/place/?q=place_id:ChIJh2ZQSiGnEmsR-Koj1IAsX2w",
    "rating": 4.7,
    "total_ratings": 32
  },
  {
    "name": "North Ryde Early Learning Centre",
    "address": "12/24 Talavera Rd, Macquarie Park",
    "suburb": "Chatswood",
    "state": "NSW",
    "lat": -33.7797302,
    "lng": 151.1292601,
    "place_id": "ChIJXxSVfg-mEmsR7zLuOudnWFg",
    "maps_url": "https://www.google.com/maps/place/?q=place_id:ChIJXxSVfg-mEmsR7zLuOudnWFg",
    "rating": 5,
    "total_ratings": 28
  },
  {
    "name": "Creative Learning",
    "address": "16 Cam St, North Ryde",
    "suburb": "Chatswood",
    "state": "NSW",
    "lat": -33.7904393,
    "lng": 151.1273646,
    "place_id": "ChIJZ5BjQOOlEmsRuBFJ9glHxao",
    "maps_url": "https://www.google.com/maps/place/?q=place_id:ChIJZ5BjQOOlEmsRuBFJ9glHxao",
    "rating": 4.6,
    "total_ratings": 32
  },
  {
    "name": "Guardian Childcare & Education Pymble",
    "address": "Building 2/20 Bridge St, Pymble",
    "suburb": "Chatswood",
    "state": "NSW",
    "lat": -33.7510452,
    "lng": 151.1450555,
    "place_id": "ChIJBa7HvYCoEmsRpwAhJIlHVDo",
    "maps_url": "https://www.google.com/maps/place/?q=place_id:ChIJBa7HvYCoEmsRpwAhJIlHVDo",
    "rating": 4.8,
    "total_ratings": 71
  },
  {
    "name": "Guardian Childcare & Education Wahroonga",
    "address": "185 Fox Valley Rd, Wahroonga",
    "suburb": "Chatswood",
    "state": "NSW",
    "lat": -33.7345855,
    "lng": 151.0984138,
    "place_id": "ChIJvUaZ46unEmsRuJ3eviC3zao",
    "maps_url": "https://www.google.com/maps/place/?q=place_id:ChIJvUaZ46unEmsRuJ3eviC3zao",
    "rating": 4.8,
    "total_ratings": 49
  },
  {
    "name": "Guardian Childcare Roseville",
    "address": "81 Clanville Rd, Roseville",
    "suburb": "Chatswood",
    "state": "NSW",
    "lat": -33.7768739,
    "lng": 151.1833006,
    "place_id": "ChIJtcPPEeGoEmsRRUEOEoHDkr0",
    "maps_url": "https://www.google.com/maps/place/?q=place_id:ChIJtcPPEeGoEmsRRUEOEoHDkr0",
    "rating": 5,
    "total_ratings": 24
  },
  {
    "name": "Kids Planet Academy - North Ryde",
    "address": "1 Network Pl, North Ryde",
    "suburb": "Chatswood",
    "state": "NSW",
    "lat": -33.7954221,
    "lng": 151.1378952,
    "place_id": "ChIJsYm03PilEmsRUHfYHrheMas",
    "maps_url": "https://www.google.com/maps/place/?q=place_id:ChIJsYm03PilEmsRUHfYHrheMas",
    "rating": 5,
    "total_ratings": 44
  },
  {
    "name": "Little Leo’s Early Education & Childcare Killara",
    "address": "5 Manning Rd, Killara",
    "suburb": "Chatswood",
    "state": "NSW",
    "lat": -33.7738556,
    "lng": 151.1426324,
    "place_id": "ChIJs7Xm56CoEmsRPjPLlYeFrCI",
    "maps_url": "https://www.google.com/maps/place/?q=place_id:ChIJs7Xm56CoEmsRPjPLlYeFrCI",
    "rating": 4.8,
    "total_ratings": 133
  },
  {
    "name": "Goodstart Early Learning West Pymble",
    "address": "14 Yanko Rd, West Pymble",
    "suburb": "Chatswood",
    "state": "NSW",
    "lat": -33.767323,
    "lng": 151.1337909,
    "place_id": "ChIJMb6VCCKmEmsRIChrC3LH32k",
    "maps_url": "https://www.google.com/maps/place/?q=place_id:ChIJMb6VCCKmEmsRIChrC3LH32k",
    "rating": 4.8,
    "total_ratings": 41
  },
  {
    "name": "Endeavour Early Education - Concord",
    "address": "173-175 Majors Bay Rd, Concord",
    "suburb": "Chatswood",
    "state": "NSW",
    "lat": -33.8501737,
    "lng": 151.1021598,
    "place_id": "ChIJidIQ7fGlEmsRzlO8WtrnS5k",
    "maps_url": "https://www.google.com/maps/place/?q=place_id:ChIJidIQ7fGlEmsRzlO8WtrnS5k",
    "rating": 4.8,
    "total_ratings": 20
  },
  {
    "name": "Neutral Bay Kindergarten",
    "address": "29B Waters Rd, Cremorne",
    "suburb": "Chatswood",
    "state": "NSW",
    "lat": -33.828639,
    "lng": 151.224975,
    "place_id": "ChIJg5NN-aKuEmsR-HOqKvzJdQU",
    "maps_url": "https://www.google.com/maps/place/?q=place_id:ChIJg5NN-aKuEmsR-HOqKvzJdQU",
    "rating": 5,
    "total_ratings": 10
  },
  {
    "name": "Kiddies on First Early Learning Child Care Centre",
    "address": "130 First Ave, Five Dock",
    "suburb": "Chatswood",
    "state": "NSW",
    "lat": -33.8685539,
    "lng": 151.1318991,
    "place_id": "ChIJsUeuJlOlEmsRrMk6i5AibRA",
    "maps_url": "https://www.google.com/maps/place/?q=place_id:ChIJsUeuJlOlEmsRrMk6i5AibRA",
    "rating": 5,
    "total_ratings": 25
  },
  {
    "name": "Explore & Develop Breakfast Point - Early Learning Centre",
    "address": "2 Cross St, Breakfast Point",
    "suburb": "Chatswood",
    "state": "NSW",
    "lat": -33.84267579999999,
    "lng": 151.1081822,
    "place_id": "ChIJH3yNPNW6EmsRgfiBVDCXNzs",
    "maps_url": "https://www.google.com/maps/place/?q=place_id:ChIJH3yNPNW6EmsRgfiBVDCXNzs",
    "rating": 4.7,
    "total_ratings": 41
  },
  {
    "name": "St Mary Early Learning Centre",
    "address": "40 Brays Rd, Concord",
    "suburb": "Chatswood",
    "state": "NSW",
    "lat": -33.8480479,
    "lng": 151.1080145,
    "place_id": "ChIJrSEQgpSlEmsRR3-VcFFYkbg",
    "maps_url": "https://www.google.com/maps/place/?q=place_id:ChIJrSEQgpSlEmsRR3-VcFFYkbg",
    "rating": 4.7,
    "total_ratings": 15
  },
  {
    "name": "Little Scribblers | Childcare and Preschool Brookvale",
    "address": "Suite 2/15/19 Old Pittwater Rd, Brookvale",
    "suburb": "Chatswood",
    "state": "NSW",
    "lat": -33.76314139999999,
    "lng": 151.2678208,
    "place_id": "ChIJjZp610KqEmsR82Sfc8hJA_k",
    "maps_url": "https://www.google.com/maps/place/?q=place_id:ChIJjZp610KqEmsR82Sfc8hJA_k",
    "rating": 4.9,
    "total_ratings": 144
  },
  {
    "name": "Giraffe Early Learning Centre Balgowlah",
    "address": "81 Griffiths St, Balgowlah",
    "suburb": "Chatswood",
    "state": "NSW",
    "lat": -33.7926391,
    "lng": 151.2679528,
    "place_id": "ChIJ76ceXPerEmsRaCd0qIpj2GQ",
    "maps_url": "https://www.google.com/maps/place/?q=place_id:ChIJ76ceXPerEmsRaCd0qIpj2GQ",
    "rating": 4.7,
    "total_ratings": 10
  },
  {
    "name": "Sandcastles Childcare Chatswood",
    "address": "Level 4/1 Cambridge Ln, Chatswood",
    "suburb": "Chatswood",
    "state": "NSW",
    "lat": -33.7948791,
    "lng": 151.1811502,
    "place_id": "ChIJjaHnVNGoEmsR1pDFzPChGrM",
    "maps_url": "https://www.google.com/maps/place/?q=place_id:ChIJjaHnVNGoEmsR1pDFzPChGrM",
    "rating": 4.8,
    "total_ratings": 34
  },
  {
    "name": "Sunny Daisy Early Learning Centre",
    "address": "30 Myra St, Wahroonga",
    "suburb": "Hornsby",
    "state": "NSW",
    "lat": -33.7099896,
    "lng": 151.110602,
    "place_id": "ChIJ3_QCa9inEmsRVJT1TLuyRz0",
    "maps_url": "https://www.google.com/maps/place/?q=place_id:ChIJ3_QCa9inEmsRVJT1TLuyRz0",
    "rating": 5,
    "total_ratings": 4
  },
  {
    "name": "EXCEED EARLY LEARNING CENTRE",
    "address": "101 Norfolk Rd, North Epping",
    "suburb": "Hornsby",
    "state": "NSW",
    "lat": -33.7605327,
    "lng": 151.0869616,
    "place_id": "ChIJF9nyG4ymEmsRQz9ldUtdaqE",
    "maps_url": "https://www.google.com/maps/place/?q=place_id:ChIJF9nyG4ymEmsRQz9ldUtdaqE",
    "rating": 4.8,
    "total_ratings": 23
  },
  {
    "name": "Little Green Treehouse Early Education Centre",
    "address": "294 N Rocks Rd, North Rocks",
    "suburb": "Hornsby",
    "state": "NSW",
    "lat": -33.7720109,
    "lng": 151.0251656,
    "place_id": "ChIJueZDPuijEmsRkjrT_KM9piM",
    "maps_url": "https://www.google.com/maps/place/?q=place_id:ChIJueZDPuijEmsRkjrT_KM9piM",
    "rating": 4.8,
    "total_ratings": 36
  },
  {
    "name": "Play Park Early Learning Centre",
    "address": "1/3 Nelson St, Thornleigh",
    "suburb": "Hornsby",
    "state": "NSW",
    "lat": -33.725117,
    "lng": 151.088143,
    "place_id": "ChIJLxoucMenEmsRLR9QB7rM_Fc",
    "maps_url": "https://www.google.com/maps/place/?q=place_id:ChIJLxoucMenEmsRLR9QB7rM_Fc",
    "rating": 5,
    "total_ratings": 30
  },
  {
    "name": "Little Steps Early Learning",
    "address": "34 Brisbane Ave, East Lindfield",
    "suburb": "Hornsby",
    "state": "NSW",
    "lat": -33.76843040000001,
    "lng": 151.1856725,
    "place_id": "ChIJr6qGc_2oEmsRiiuCsNyIVfA",
    "maps_url": "https://www.google.com/maps/place/?q=place_id:ChIJr6qGc_2oEmsRiiuCsNyIVfA",
    "rating": 5,
    "total_ratings": 7
  },
  {
    "name": "Cheltenham Early Education Centre",
    "address": "179 Beecroft Rd, Cheltenham",
    "suburb": "Hornsby",
    "state": "NSW",
    "lat": -33.7580781,
    "lng": 151.0743615,
    "place_id": "ChIJFT6r4XanEmsRbYHRQkUaCKw",
    "maps_url": "https://www.google.com/maps/place/?q=place_id:ChIJFT6r4XanEmsRbYHRQkUaCKw",
    "rating": 5,
    "total_ratings": 4
  },
  {
    "name": "Papilio Early Learning Killara",
    "address": "Unit 18/20 Lady Game Dr, Killara",
    "suburb": "Hornsby",
    "state": "NSW",
    "lat": -33.7742407,
    "lng": 151.1472924,
    "place_id": "ChIJT1DGyKOoEmsRWMKqZp6LdHo",
    "maps_url": "https://www.google.com/maps/place/?q=place_id:ChIJT1DGyKOoEmsRWMKqZp6LdHo",
    "rating": 4.6,
    "total_ratings": 87
  },
  {
    "name": "Mini Wonderland",
    "address": "49/51 Orara St, Waitara",
    "suburb": "Hornsby",
    "state": "NSW",
    "lat": -33.7064358,
    "lng": 151.1045196,
    "place_id": "ChIJSdpVHJOnEmsRn4lz0otPSTE",
    "maps_url": "https://www.google.com/maps/place/?q=place_id:ChIJSdpVHJOnEmsRn4lz0otPSTE",
    "rating": 4.9,
    "total_ratings": 25
  },
  {
    "name": "Belonging Early Learning Hornsby",
    "address": "53/55 Clarke Rd, Hornsby",
    "suburb": "Hornsby",
    "state": "NSW",
    "lat": -33.7128504,
    "lng": 151.0957681,
    "place_id": "ChIJAQCMZZ6nEmsRl74gYcQhP5Y",
    "maps_url": "https://www.google.com/maps/place/?q=place_id:ChIJAQCMZZ6nEmsRl74gYcQhP5Y",
    "rating": 4.7,
    "total_ratings": 23
  },
  {
    "name": "Heritage House Hornsby Early Education Centre",
    "address": "4-6 Linda St, Hornsby",
    "suburb": "Hornsby",
    "state": "NSW",
    "lat": -33.7010536,
    "lng": 151.104196,
    "place_id": "ChIJOVPvy4enEmsRIXeojuUO9Lc",
    "maps_url": "https://www.google.com/maps/place/?q=place_id:ChIJOVPvy4enEmsRIXeojuUO9Lc",
    "rating": 4.8,
    "total_ratings": 71
  },
  {
    "name": "Tiny Tots Long Day Care Centre",
    "address": "6 Denison St, Hornsby",
    "suburb": "Hornsby",
    "state": "NSW",
    "lat": -33.6964623,
    "lng": 151.1036399,
    "place_id": "ChIJj2dpSXhYDWsRUZq_JX9dN-U",
    "maps_url": "https://www.google.com/maps/place/?q=place_id:ChIJj2dpSXhYDWsRUZq_JX9dN-U",
    "rating": 4.7,
    "total_ratings": 27
  },
  {
    "name": "My Story - Experiential Early Learning - Dural",
    "address": "41/276-278 New Line Rd, Dural",
    "suburb": "Hornsby",
    "state": "NSW",
    "lat": -33.6987495,
    "lng": 151.0327828,
    "place_id": "ChIJAzkp4rigEmsRvpS-FRx358k",
    "maps_url": "https://www.google.com/maps/place/?q=place_id:ChIJAzkp4rigEmsRvpS-FRx358k",
    "rating": 4.9,
    "total_ratings": 41
  },
  {
    "name": "Guardian Childcare & Education West Pennant Hills",
    "address": "4/6 Leigh Pl, West Pennant Hills",
    "suburb": "Hornsby",
    "state": "NSW",
    "lat": -33.7567832,
    "lng": 151.0348213,
    "place_id": "ChIJpRvTE1qhEmsR2SKkp3YlfEI",
    "maps_url": "https://www.google.com/maps/place/?q=place_id:ChIJpRvTE1qhEmsR2SKkp3YlfEI",
    "rating": 4.8,
    "total_ratings": 29
  },
  {
    "name": "Oak Tree Early Learning Centres - West Pymble",
    "address": "67 Yanko Rd, West Pymble",
    "suburb": "Hornsby",
    "state": "NSW",
    "lat": -33.759584,
    "lng": 151.1256411,
    "place_id": "ChIJ_6OXSeOnEmsRHT38OlP6iHk",
    "maps_url": "https://www.google.com/maps/place/?q=place_id:ChIJ_6OXSeOnEmsRHT38OlP6iHk",
    "rating": 5,
    "total_ratings": 1
  },
  {
    "name": "Wonderland Academy Early Learning Centre",
    "address": "1 Cameron Ave, West Pennant Hills",
    "suburb": "Hornsby",
    "state": "NSW",
    "lat": -33.7401467,
    "lng": 151.0426242,
    "place_id": "ChIJTa4t_wVdv2sR2gdrYPgHQKk",
    "maps_url": "https://www.google.com/maps/place/?q=place_id:ChIJTa4t_wVdv2sR2gdrYPgHQKk",
    "rating": 4.7,
    "total_ratings": 14
  },
  {
    "name": "Orange Blossom Early Learning Centre",
    "address": "82 Galston Rd, Hornsby Heights",
    "suburb": "Hornsby",
    "state": "NSW",
    "lat": -33.6829621,
    "lng": 151.0966356,
    "place_id": "ChIJQ8vYSLpZDWsRuQYCx62Mv78",
    "maps_url": "https://www.google.com/maps/place/?q=place_id:ChIJQ8vYSLpZDWsRuQYCx62Mv78",
    "rating": 5,
    "total_ratings": 33
  },
  {
    "name": "Little Zak's Academy Hornsby",
    "address": "511/1C Burdett St, Hornsby",
    "suburb": "Hornsby",
    "state": "NSW",
    "lat": -33.7021327,
    "lng": 151.1002142,
    "place_id": "ChIJjafqroanEmsRhR5eHi017xA",
    "maps_url": "https://www.google.com/maps/place/?q=place_id:ChIJjafqroanEmsRhR5eHi017xA",
    "rating": 4.9,
    "total_ratings": 92
  },
  {
    "name": "Pennant Hills War Memorial Children's Centre",
    "address": "3-7 Shields Ln, Pennant Hills",
    "suburb": "Hornsby",
    "state": "NSW",
    "lat": -33.7362796,
    "lng": 151.0723561,
    "place_id": "ChIJuZv6zuCmEmsRffCtnt9Q1gA",
    "maps_url": "https://www.google.com/maps/place/?q=place_id:ChIJuZv6zuCmEmsRffCtnt9Q1gA",
    "rating": 4.9,
    "total_ratings": 17
  },
  {
    "name": "Wonder Years Cherrybrook Early Learning Centre",
    "address": "81-83 New Line Rd, Cherrybrook",
    "suburb": "Hornsby",
    "state": "NSW",
    "lat": -33.7365851,
    "lng": 151.0458747,
    "place_id": "ChIJA8VJmhahEmsR-1k4FqVITF0",
    "maps_url": "https://www.google.com/maps/place/?q=place_id:ChIJA8VJmhahEmsR-1k4FqVITF0",
    "rating": 4.3,
    "total_ratings": 36
  },
  {
    "name": "Shine Preschool Carlingford",
    "address": "54 Dryden Ave, Carlingford",
    "suburb": "Hornsby",
    "state": "NSW",
    "lat": -33.765296,
    "lng": 151.040708,
    "place_id": "ChIJOw7H5f2jEmsRIacInX7qGAU",
    "maps_url": "https://www.google.com/maps/place/?q=place_id:ChIJOw7H5f2jEmsRIacInX7qGAU",
    "rating": 4.6,
    "total_ratings": 28
  },
  {
    "name": "Alphabet Cottage ELC and Childcare",
    "address": "30-32 Brisbane Rd, Castle Hill",
    "suburb": "Hornsby",
    "state": "NSW",
    "lat": -33.7334479,
    "lng": 151.0122662,
    "place_id": "ChIJW9gFeBKhEmsRom4rGuRkkd4",
    "maps_url": "https://www.google.com/maps/place/?q=place_id:ChIJW9gFeBKhEmsRom4rGuRkkd4",
    "rating": 4.6,
    "total_ratings": 22
  },
  {
    "name": "Neighbourhood Early Learning Centre",
    "address": "9 Stuart Ave, Normanhurst",
    "suburb": "Hornsby",
    "state": "NSW",
    "lat": -33.7251213,
    "lng": 151.0911044,
    "place_id": "ChIJzx6btx2nEmsRrYPoAm8FHb0",
    "maps_url": "https://www.google.com/maps/place/?q=place_id:ChIJzx6btx2nEmsRrYPoAm8FHb0",
    "rating": 5,
    "total_ratings": 11
  },
  {
    "name": "Little Steps Early Learning Epping",
    "address": "U10/26 Cambridge St, Epping",
    "suburb": "Hornsby",
    "state": "NSW",
    "lat": -33.7689999,
    "lng": 151.0823005,
    "place_id": "ChIJ7byKJpOnEmsR8lDVawi6ZdE",
    "maps_url": "https://www.google.com/maps/place/?q=place_id:ChIJ7byKJpOnEmsR8lDVawi6ZdE",
    "rating": 5,
    "total_ratings": 5
  },
  {
    "name": "Kinder Academy Early Learning Centre",
    "address": "109 Sherbrook Rd, Asquith",
    "suburb": "Hornsby",
    "state": "NSW",
    "lat": -33.690975,
    "lng": 151.108759,
    "place_id": "ChIJLTc6tnFYDWsR8IjsOSuHdEk",
    "maps_url": "https://www.google.com/maps/place/?q=place_id:ChIJLTc6tnFYDWsR8IjsOSuHdEk",
    "rating": 4.5,
    "total_ratings": 57
  },
  {
    "name": "Pennant Hills Preschool",
    "address": "1 Fulbourne Ave, Pennant Hills",
    "suburb": "Hornsby",
    "state": "NSW",
    "lat": -33.734391,
    "lng": 151.075154,
    "place_id": "ChIJ3deYmuGmEmsRUIFPs_gY6_s",
    "maps_url": "https://www.google.com/maps/place/?q=place_id:ChIJ3deYmuGmEmsRUIFPs_gY6_s",
    "rating": 5,
    "total_ratings": 20
  },
  {
    "name": "Koter Early Learning",
    "address": "76 King Rd, Hornsby",
    "suburb": "Hornsby",
    "state": "NSW",
    "lat": -33.7005085,
    "lng": 151.1144954,
    "place_id": "ChIJMQ1oQWxZDWsRtIKcWanNMUU",
    "maps_url": "https://www.google.com/maps/place/?q=place_id:ChIJMQ1oQWxZDWsRtIKcWanNMUU",
    "rating": 5,
    "total_ratings": 32
  },
  {
    "name": "Learning Blocks Dural Preschool and Early Learning",
    "address": "Level 1/242 New Line Rd, Dural",
    "suburb": "Hornsby",
    "state": "NSW",
    "lat": -33.703511,
    "lng": 151.0270484,
    "place_id": "ChIJOwt6GXihEmsR9wWANv33X1U",
    "maps_url": "https://www.google.com/maps/place/?q=place_id:ChIJOwt6GXihEmsR9wWANv33X1U",
    "rating": 5,
    "total_ratings": 68
  },
  {
    "name": "Wiggles and Giggles Dural Childcare Centre",
    "address": "31 Kenthurst Rd, Dural",
    "suburb": "Hornsby",
    "state": "NSW",
    "lat": -33.6881286,
    "lng": 151.0139846,
    "place_id": "ChIJ45X_Hh-hEmsR2QpeoyP1FyA",
    "maps_url": "https://www.google.com/maps/place/?q=place_id:ChIJ45X_Hh-hEmsR2QpeoyP1FyA",
    "rating": 4.7,
    "total_ratings": 27
  },
  {
    "name": "Normanhurst Child Care Centre",
    "address": "66 Denman Parade, Normanhurst",
    "suburb": "Hornsby",
    "state": "NSW",
    "lat": -33.7211234,
    "lng": 151.0984072,
    "place_id": "ChIJkY07bKGnEmsRsSa9AdoGVRQ",
    "maps_url": "https://www.google.com/maps/place/?q=place_id:ChIJkY07bKGnEmsRsSa9AdoGVRQ",
    "rating": 4.7,
    "total_ratings": 15
  },
  {
    "name": "Childcare Centre",
    "address": "41 Denison St, Hornsby",
    "suburb": "Hornsby",
    "state": "NSW",
    "lat": -33.6963522,
    "lng": 151.1059388,
    "place_id": "ChIJ38-4eN9ZDWsRLDQmcKUm6Es",
    "maps_url": "https://www.google.com/maps/place/?q=place_id:ChIJ38-4eN9ZDWsRLDQmcKUm6Es",
    "rating": 4,
    "total_ratings": 2
  },
  {
    "name": "Little Lion Early Learning Centre | Wahroonga",
    "address": "1558 Pacific Hwy, Wahroonga",
    "suburb": "Hornsby",
    "state": "NSW",
    "lat": -33.7253749,
    "lng": 151.1190321,
    "place_id": "ChIJjTNUH2-nEmsRQWcxem43N2U",
    "maps_url": "https://www.google.com/maps/place/?q=place_id:ChIJjTNUH2-nEmsRQWcxem43N2U",
    "rating": 5,
    "total_ratings": 8
  },
  {
    "name": "Just for Kids Preschool & Long Daycare Centre",
    "address": "28 Ramsay Rd, Pennant Hills",
    "suburb": "Hornsby",
    "state": "NSW",
    "lat": -33.7357058,
    "lng": 151.0698354,
    "place_id": "ChIJsSC1Bd6mEmsRg6_QKaEcC_c",
    "maps_url": "https://www.google.com/maps/place/?q=place_id:ChIJsSC1Bd6mEmsRg6_QKaEcC_c",
    "rating": 4.7,
    "total_ratings": 42
  },
  {
    "name": "St Ives Chase Kindergarten",
    "address": "120 Warrimoo Ave, St Ives",
    "suburb": "Hornsby",
    "state": "NSW",
    "lat": -33.7148693,
    "lng": 151.1590193,
    "place_id": "ChIJd7axZh6oEmsRbQUI6xBcr88",
    "maps_url": "https://www.google.com/maps/place/?q=place_id:ChIJd7axZh6oEmsRbQUI6xBcr88",
    "rating": 4.8,
    "total_ratings": 24
  },
  {
    "name": "Treewood Early Learning Centre",
    "address": "26 Kelvin Rd, St Ives",
    "suburb": "Hornsby",
    "state": "NSW",
    "lat": -33.7393132,
    "lng": 151.1714188,
    "place_id": "ChIJIZZiGSypEmsR6_yiBFj1gWo",
    "maps_url": "https://www.google.com/maps/place/?q=place_id:ChIJIZZiGSypEmsR6_yiBFj1gWo",
    "rating": 5,
    "total_ratings": 10
  },
  {
    "name": "Ku-ring-gai Kindergarten",
    "address": "162 Kissing Point Rd, Turramurra",
    "suburb": "Hornsby",
    "state": "NSW",
    "lat": -33.743946,
    "lng": 151.113792,
    "place_id": "ChIJH0aXHEumEmsRZJvurX0-rao",
    "maps_url": "https://www.google.com/maps/place/?q=place_id:ChIJH0aXHEumEmsRZJvurX0-rao",
    "rating": 5,
    "total_ratings": 13
  },
  {
    "name": "Little Lion Early Learning Macquarie Park",
    "address": "112 Talavera Rd, Macquarie Park",
    "suburb": "Hornsby",
    "state": "NSW",
    "lat": -33.7735907,
    "lng": 151.1200125,
    "place_id": "ChIJVV5Ve4KnEmsRrY9L9UfR2sM",
    "maps_url": "https://www.google.com/maps/place/?q=place_id:ChIJVV5Ve4KnEmsRrY9L9UfR2sM",
    "rating": 4.5,
    "total_ratings": 37
  },
  {
    "name": "Wonder Years Beecroft Early Learning Centre",
    "address": "109 Copeland Rd, Beecroft",
    "suburb": "Hornsby",
    "state": "NSW",
    "lat": -33.7514462,
    "lng": 151.0613255,
    "place_id": "ChIJ86cDVLimEmsRUvbCwBmgqs8",
    "maps_url": "https://www.google.com/maps/place/?q=place_id:ChIJ86cDVLimEmsRUvbCwBmgqs8",
    "rating": 4.5,
    "total_ratings": 45
  },
  {
    "name": "Wahroonga Long Day Care Centre",
    "address": "37 Hewitt Ave, Wahroonga",
    "suburb": "Hornsby",
    "state": "NSW",
    "lat": -33.722829,
    "lng": 151.106758,
    "place_id": "ChIJQfeT3bynEmsR16dLVGZ6xOc",
    "maps_url": "https://www.google.com/maps/place/?q=place_id:ChIJQfeT3bynEmsR16dLVGZ6xOc",
    "rating": 4.7,
    "total_ratings": 13
  },
  {
    "name": "Banksia Cottage",
    "address": "8 Link Rd, Macquarie Park",
    "suburb": "Hornsby",
    "state": "NSW",
    "lat": -33.7752254,
    "lng": 151.1090476,
    "place_id": "ChIJU4lnF3GmEmsRHZ_lCildsJw",
    "maps_url": "https://www.google.com/maps/place/?q=place_id:ChIJU4lnF3GmEmsRHZ_lCildsJw",
    "rating": 3.2,
    "total_ratings": 27
  },
  {
    "name": "Little Gumnuts Early Learning Group | West Pymble",
    "address": "57/59 Kendall St, West Pymble",
    "suburb": "Hornsby",
    "state": "NSW",
    "lat": -33.76037000000001,
    "lng": 151.1307714,
    "place_id": "ChIJpc6jHnmnEmsRdUQrNgWDKMw",
    "maps_url": "https://www.google.com/maps/place/?q=place_id:ChIJpc6jHnmnEmsRdUQrNgWDKMw",
    "rating": 5,
    "total_ratings": 16
  },
  {
    "name": "Goodstart Early Learning North Ryde",
    "address": "197/223 Herring Rd, Macquarie Park",
    "suburb": "Hornsby",
    "state": "NSW",
    "lat": -33.776241,
    "lng": 151.121452,
    "place_id": "ChIJEwiEjg2mEmsRD4ZocvGzHR8",
    "maps_url": "https://www.google.com/maps/place/?q=place_id:ChIJEwiEjg2mEmsRD4ZocvGzHR8",
    "rating": 4.8,
    "total_ratings": 67
  },
  {
    "name": "Appleseed Childcare",
    "address": "96 Ray Rd, Epping",
    "suburb": "Hornsby",
    "state": "NSW",
    "lat": -33.76635100000001,
    "lng": 151.072034,
    "place_id": "ChIJRVssx5imEmsRyePmeXTwTzI",
    "maps_url": "https://www.google.com/maps/place/?q=place_id:ChIJRVssx5imEmsRyePmeXTwTzI",
    "rating": 4.8,
    "total_ratings": 20
  },
  {
    "name": "Little Blessings Sarah’s Place Early Learning Centre",
    "address": "24 William St, Hornsby",
    "suburb": "Hornsby",
    "state": "NSW",
    "lat": -33.7031309,
    "lng": 151.0946761,
    "place_id": "ChIJSeVMcIKnEmsRWij0dhZvqM8",
    "maps_url": "https://www.google.com/maps/place/?q=place_id:ChIJSeVMcIKnEmsRWij0dhZvqM8",
    "rating": 4.6,
    "total_ratings": 10
  },
  {
    "name": "Dooral Early Learning Centre",
    "address": "774 Old Northern Rd, Middle Dural",
    "suburb": "Hornsby",
    "state": "NSW",
    "lat": -33.6465583,
    "lng": 151.020983,
    "place_id": "ChIJXVONfz5fDWsRtzYmWO3-OjA",
    "maps_url": "https://www.google.com/maps/place/?q=place_id:ChIJXVONfz5fDWsRtzYmWO3-OjA",
    "rating": 5,
    "total_ratings": 13
  },
  {
    "name": "Lilybelle Early Education Centre",
    "address": "269A New Line Rd, Dural",
    "suburb": "Hornsby",
    "state": "NSW",
    "lat": -33.69936,
    "lng": 151.027704,
    "place_id": "ChIJ7RoOdr-gEmsRxu8WedG0rf8",
    "maps_url": "https://www.google.com/maps/place/?q=place_id:ChIJ7RoOdr-gEmsRxu8WedG0rf8",
    "rating": 5,
    "total_ratings": 13
  },
  {
    "name": "The Love Heart Early Education Turramurra",
    "address": "15 Canberra Ave, Turramurra",
    "suburb": "Hornsby",
    "state": "NSW",
    "lat": -33.726018,
    "lng": 151.1411844,
    "place_id": "ChIJuXcu7YGpEmsRUheMrZ5Z0MA",
    "maps_url": "https://www.google.com/maps/place/?q=place_id:ChIJuXcu7YGpEmsRUheMrZ5Z0MA",
    "rating": 5,
    "total_ratings": 21
  },
  {
    "name": "Smart Cookies Early Learning Centre Beecroft",
    "address": "23A Wongala Cres, Beecroft",
    "suburb": "Hornsby",
    "state": "NSW",
    "lat": -33.7481189,
    "lng": 151.0658302,
    "place_id": "ChIJHfiT4MCmEmsR2vkyNWTdsHo",
    "maps_url": "https://www.google.com/maps/place/?q=place_id:ChIJHfiT4MCmEmsR2vkyNWTdsHo",
    "rating": 5,
    "total_ratings": 29
  },
  {
    "name": "Heritage House Pennant Hills Early Education Centre",
    "address": "2A Albion St, Pennant Hills",
    "suburb": "Hornsby",
    "state": "NSW",
    "lat": -33.7364718,
    "lng": 151.0758049,
    "place_id": "ChIJrwtIQ-GmEmsRtv_8UAGcZOY",
    "maps_url": "https://www.google.com/maps/place/?q=place_id:ChIJrwtIQ-GmEmsRtv_8UAGcZOY",
    "rating": 4.6,
    "total_ratings": 54
  },
  {
    "name": "Learn & Laugh children's centre Hornsby",
    "address": "335 Somerville Rd, Hornsby Heights",
    "suburb": "Hornsby",
    "state": "NSW",
    "lat": -33.6465797,
    "lng": 151.1079661,
    "place_id": "ChIJ-RFg8LpZDWsR6WETCazgedE",
    "maps_url": "https://www.google.com/maps/place/?q=place_id:ChIJ-RFg8LpZDWsR6WETCazgedE",
    "rating": 4.8,
    "total_ratings": 20
  },
  {
    "name": "Daystars Early Learning Killara",
    "address": "18 Fiddens Wharf Rd, Killara",
    "suburb": "Hornsby",
    "state": "NSW",
    "lat": -33.7715118,
    "lng": 151.1581778,
    "place_id": "ChIJQ4Ka05WoEmsR_tjr2UL2OlU",
    "maps_url": "https://www.google.com/maps/place/?q=place_id:ChIJQ4Ka05WoEmsR_tjr2UL2OlU",
    "rating": 5,
    "total_ratings": 23
  },
  {
    "name": "Curious Minds Early Learning Centre",
    "address": "220 West St, Crows Nest",
    "suburb": "Manly",
    "state": "NSW",
    "lat": -33.82558,
    "lng": 151.2069236,
    "place_id": "ChIJz87Ee1avEmsRIwN2lD-4VLM",
    "maps_url": "https://www.google.com/maps/place/?q=place_id:ChIJz87Ee1avEmsRIwN2lD-4VLM",
    "rating": 5,
    "total_ratings": 12
  },
  {
    "name": "Little Lane Early Learning Manly",
    "address": "239 Pittwater Rd, Manly",
    "suburb": "Manly",
    "state": "NSW",
    "lat": -33.7871923,
    "lng": 151.2829448,
    "place_id": "ChIJMwAHUwCrEmsRITJ8nHuDgR0",
    "maps_url": "https://www.google.com/maps/place/?q=place_id:ChIJMwAHUwCrEmsRITJ8nHuDgR0",
    "rating": 4.7,
    "total_ratings": 29
  },
  {
    "name": "Tree of Life Early Learning School - Willoughby",
    "address": "2 Artarmon Rd, Willoughby",
    "suburb": "Manly",
    "state": "NSW",
    "lat": -33.8114203,
    "lng": 151.1988577,
    "place_id": "ChIJzyUvHc6uEmsRBI7T5g0eaCQ",
    "maps_url": "https://www.google.com/maps/place/?q=place_id:ChIJzyUvHc6uEmsRBI7T5g0eaCQ",
    "rating": 5,
    "total_ratings": 44
  },
  {
    "name": "Frenchs Forest Early Learning Centre - Check out our reviews below!",
    "address": "9/25 Frenchs Forest Rd E, Frenchs Forest",
    "suburb": "Manly",
    "state": "NSW",
    "lat": -33.7517171,
    "lng": 151.2435765,
    "place_id": "ChIJGU0z4pyrEmsRQb0GW4S7Gr4",
    "maps_url": "https://www.google.com/maps/place/?q=place_id:ChIJGU0z4pyrEmsRQb0GW4S7Gr4",
    "rating": 5,
    "total_ratings": 24
  },
  {
    "name": "iSTEAM AHEAD Early Learning Centre",
    "address": "724 Pittwater Rd, Brookvale",
    "suburb": "Manly",
    "state": "NSW",
    "lat": -33.7614471,
    "lng": 151.2728656,
    "place_id": "ChIJ_xLXOoSrEmsR2VcU_oEBnsA",
    "maps_url": "https://www.google.com/maps/place/?q=place_id:ChIJ_xLXOoSrEmsR2VcU_oEBnsA",
    "rating": 4.9,
    "total_ratings": 58
  },
  {
    "name": "Orchard Early Learning Centre Forestville",
    "address": "725 Warringah Rd, Forestville",
    "suburb": "Manly",
    "state": "NSW",
    "lat": -33.7604164,
    "lng": 151.2133177,
    "place_id": "ChIJQ3_L3eipEmsRlzbbEdJ4ugM",
    "maps_url": "https://www.google.com/maps/place/?q=place_id:ChIJQ3_L3eipEmsRlzbbEdJ4ugM",
    "rating": 4.7,
    "total_ratings": 11
  },
  {
    "name": "Wonder Garden ELC - The Rocks",
    "address": "Level 4/111 Harrington St, The Rocks",
    "suburb": "Manly",
    "state": "NSW",
    "lat": -33.8616492,
    "lng": 151.2069285,
    "place_id": "ChIJk_o5OQCvEmsRrOC65xOQaJ8",
    "maps_url": "https://www.google.com/maps/place/?q=place_id:ChIJk_o5OQCvEmsRrOC65xOQaJ8",
    "rating": 5,
    "total_ratings": 18
  },
  {
    "name": "Senses Early Learning Centre Milsons Point",
    "address": "48-50 Alfred St S, Milsons Point",
    "suburb": "Manly",
    "state": "NSW",
    "lat": -33.8473874,
    "lng": 151.211436,
    "place_id": "ChIJcQuX2YWvEmsRAz7Q3qph2TA",
    "maps_url": "https://www.google.com/maps/place/?q=place_id:ChIJcQuX2YWvEmsRAz7Q3qph2TA",
    "rating": 4.2,
    "total_ratings": 46
  },
  {
    "name": "Dee Why Kindergarten - Childcare Dee Why",
    "address": "2 Clarence Ave, Dee Why",
    "suburb": "Manly",
    "state": "NSW",
    "lat": -33.751307,
    "lng": 151.2899246,
    "place_id": "ChIJ3QcshYSqEmsRr8QV4dugCwg",
    "maps_url": "https://www.google.com/maps/place/?q=place_id:ChIJ3QcshYSqEmsRr8QV4dugCwg",
    "rating": 4.6,
    "total_ratings": 28
  },
  {
    "name": "Oxford Falls Early Learning Centre",
    "address": "1039A Oxford Falls Rd, Oxford Falls",
    "suburb": "Manly",
    "state": "NSW",
    "lat": -33.7329097,
    "lng": 151.2403609,
    "place_id": "ChIJYQSLsfhVDWsRuWZHLGwYmt4",
    "maps_url": "https://www.google.com/maps/place/?q=place_id:ChIJYQSLsfhVDWsRuWZHLGwYmt4",
    "rating": 5,
    "total_ratings": 8
  },
  {
    "name": "The Lookout Early Education Centre",
    "address": "131 Suakin Dr, Mosman",
    "suburb": "Manly",
    "state": "NSW",
    "lat": -33.8359088,
    "lng": 151.2575796,
    "place_id": "ChIJH3x6QWusEmsRBtlOG-YWao8",
    "maps_url": "https://www.google.com/maps/place/?q=place_id:ChIJH3x6QWusEmsRBtlOG-YWao8",
    "rating": 4.9,
    "total_ratings": 21
  },
  {
    "name": "Froebel St Leonards Early Learning Centre",
    "address": "454-456 Pacific Hwy, St Leonards",
    "suburb": "Manly",
    "state": "NSW",
    "lat": -33.8248064,
    "lng": 151.1978633,
    "place_id": "ChIJF7OAV92uEmsRYGApWa-A4aU",
    "maps_url": "https://www.google.com/maps/place/?q=place_id:ChIJF7OAV92uEmsRYGApWa-A4aU",
    "rating": 4.9,
    "total_ratings": 21
  },
  {
    "name": "Little Lane Early Learning",
    "address": "40 Chard Rd, Brookvale",
    "suburb": "Manly",
    "state": "NSW",
    "lat": -33.7632231,
    "lng": 151.2757926,
    "place_id": "ChIJxWDJaLarEmsRJeoHpEJB-kM",
    "maps_url": "https://www.google.com/maps/place/?q=place_id:ChIJxWDJaLarEmsRJeoHpEJB-kM",
    "rating": 4.9,
    "total_ratings": 43
  },
  {
    "name": "WillowBee Early Learning Centre",
    "address": "Level 2/354 Eastern Valley Way, Chatswood",
    "suburb": "Manly",
    "state": "NSW",
    "lat": -33.787666,
    "lng": 151.2015247,
    "place_id": "ChIJ4doTVTypEmsROgxvjUluE0g",
    "maps_url": "https://www.google.com/maps/place/?q=place_id:ChIJ4doTVTypEmsROgxvjUluE0g",
    "rating": 4.6,
    "total_ratings": 31
  },
  {
    "name": "Kindalin @ Frenchs Forest",
    "address": "18 Aquatic Dr, Frenchs Forest",
    "suburb": "Manly",
    "state": "NSW",
    "lat": -33.7545097,
    "lng": 151.235626,
    "place_id": "ChIJwSHBWiCqEmsR5ifEZUqosP4",
    "maps_url": "https://www.google.com/maps/place/?q=place_id:ChIJwSHBWiCqEmsR5ifEZUqosP4",
    "rating": 5,
    "total_ratings": 32
  },
  {
    "name": "Mowbray Place Early Learning Centre",
    "address": "77 Mowbray Pl, Willoughby",
    "suburb": "Manly",
    "state": "NSW",
    "lat": -33.8042939,
    "lng": 151.2067043,
    "place_id": "ChIJ25JA-DSpEmsRVIF01axrKK8",
    "maps_url": "https://www.google.com/maps/place/?q=place_id:ChIJ25JA-DSpEmsRVIF01axrKK8",
    "rating": 5,
    "total_ratings": 1
  },
  {
    "name": "Guardian Childcare Freshwater",
    "address": "4-8 Waine St, Freshwater",
    "suburb": "Manly",
    "state": "NSW",
    "lat": -33.7802652,
    "lng": 151.2780019,
    "place_id": "ChIJmyOI5mUT_gMRnGx1P5VZqJ0",
    "maps_url": "https://www.google.com/maps/place/?q=place_id:ChIJmyOI5mUT_gMRnGx1P5VZqJ0",
    "rating": 4.9,
    "total_ratings": 45
  },
  {
    "name": "Bond Street Montessori Early Learning Centre",
    "address": "6 Bond St, Mosman",
    "suburb": "Manly",
    "state": "NSW",
    "lat": -33.8230826,
    "lng": 151.2374599,
    "place_id": "ChIJ2RRdEwOsEmsRfbGf-YCwvHA",
    "maps_url": "https://www.google.com/maps/place/?q=place_id:ChIJ2RRdEwOsEmsRfbGf-YCwvHA",
    "rating": 5,
    "total_ratings": 6
  },
  {
    "name": "White Rabbit Child Care Centre",
    "address": "35/37 Merrenburn Ave, Naremburn",
    "suburb": "Manly",
    "state": "NSW",
    "lat": -33.8185698,
    "lng": 151.2017979,
    "place_id": "ChIJVQq9UcSuEmsRbSdt2KYPnhA",
    "maps_url": "https://www.google.com/maps/place/?q=place_id:ChIJVQq9UcSuEmsRbSdt2KYPnhA",
    "rating": 5,
    "total_ratings": 10
  },
  {
    "name": "Global Explorers Early Learning",
    "address": "127 Old Pittwater Rd, Brookvale",
    "suburb": "Manly",
    "state": "NSW",
    "lat": -33.7672561,
    "lng": 151.2630789,
    "place_id": "ChIJEygwyxWrEmsR-tEhBUA-CwM",
    "maps_url": "https://www.google.com/maps/place/?q=place_id:ChIJEygwyxWrEmsR-tEhBUA-CwM",
    "rating": 5,
    "total_ratings": 28
  },
  {
    "name": "Giraffe Childcare Warringah",
    "address": "3 James St, Allambie Heights",
    "suburb": "Manly",
    "state": "NSW",
    "lat": -33.775641,
    "lng": 151.2657648,
    "place_id": "ChIJfxd5gFWrEmsRH_MTKx-mwdg",
    "maps_url": "https://www.google.com/maps/place/?q=place_id:ChIJfxd5gFWrEmsRH_MTKx-mwdg",
    "rating": 5,
    "total_ratings": 13
  },
  {
    "name": "Crows Nest Kindergarten",
    "address": "82 Hayberry St, Crows Nest",
    "suburb": "Manly",
    "state": "NSW",
    "lat": -33.8289953,
    "lng": 151.2046957,
    "place_id": "ChIJu5Q5K-quEmsRyM3JutHY_W8",
    "maps_url": "https://www.google.com/maps/place/?q=place_id:ChIJu5Q5K-quEmsRyM3JutHY_W8",
    "rating": 5,
    "total_ratings": 7
  },
  {
    "name": "Ekidna Dee Why School of Early Learning",
    "address": "63 Lynwood Ave, Dee Why",
    "suburb": "Manly",
    "state": "NSW",
    "lat": -33.7447954,
    "lng": 151.2848917,
    "place_id": "ChIJ_0dk4YGqEmsRc02rJ0b21h4",
    "maps_url": "https://www.google.com/maps/place/?q=place_id:ChIJ_0dk4YGqEmsRc02rJ0b21h4",
    "rating": 4.7,
    "total_ratings": 49
  },
  {
    "name": "Kelly’s Place Children's Centre",
    "address": "Hume St, Crows Nest",
    "suburb": "Manly",
    "state": "NSW",
    "lat": -33.8251869,
    "lng": 151.1998439,
    "place_id": "ChIJu080ocKuEmsRRS_FoUvt3AY",
    "maps_url": "https://www.google.com/maps/place/?q=place_id:ChIJu080ocKuEmsRRS_FoUvt3AY",
    "rating": 4.7,
    "total_ratings": 13
  },
  {
    "name": "Making A Difference Child Care Beacon Hill",
    "address": "Willandra &, Tristram Rd, Beacon Hill",
    "suburb": "Manly",
    "state": "NSW",
    "lat": -33.7524013,
    "lng": 151.2612759,
    "place_id": "ChIJ5aTZRmyqEmsRFp-haWpRkIY",
    "maps_url": "https://www.google.com/maps/place/?q=place_id:ChIJ5aTZRmyqEmsRFp-haWpRkIY",
    "rating": 5,
    "total_ratings": 15
  },
  {
    "name": "Peek-A-Boo Cottage",
    "address": "1B Magarra Pl, Seaforth",
    "suburb": "Manly",
    "state": "NSW",
    "lat": -33.7990092,
    "lng": 151.2504258,
    "place_id": "ChIJ_ww4jumrEmsR1-nKHynUZNA",
    "maps_url": "https://www.google.com/maps/place/?q=place_id:ChIJ_ww4jumrEmsR1-nKHynUZNA",
    "rating": 4.9,
    "total_ratings": 28
  },
  {
    "name": "Reggio Emilia Dee Why",
    "address": "Suite 17, Level 1/888 Pittwater Rd, Dee Why",
    "suburb": "Manly",
    "state": "NSW",
    "lat": -33.7531553,
    "lng": 151.2880499,
    "place_id": "ChIJ_XE9ciCrEmsRIe94Q4uhdmI",
    "maps_url": "https://www.google.com/maps/place/?q=place_id:ChIJ_XE9ciCrEmsRIe94Q4uhdmI",
    "rating": 4.7,
    "total_ratings": 97
  },
  {
    "name": "Giraffe Child Care",
    "address": "29 The Crescent, Mosman",
    "suburb": "Manly",
    "state": "NSW",
    "lat": -33.8259887,
    "lng": 151.2423628,
    "place_id": "ChIJ2dtVKhusEmsRHrMgyc_4Q9M",
    "maps_url": "https://www.google.com/maps/place/?q=place_id:ChIJ2dtVKhusEmsRHrMgyc_4Q9M",
    "rating": 4.9,
    "total_ratings": 27
  },
  {
    "name": "Busy Bees at Killarney Heights",
    "address": "22 Tramore Pl, Killarney Heights",
    "suburb": "Manly",
    "state": "NSW",
    "lat": -33.7759746,
    "lng": 151.2178821,
    "place_id": "ChIJL9m2oPapEmsRIBjZzeDof2o",
    "maps_url": "https://www.google.com/maps/place/?q=place_id:ChIJL9m2oPapEmsRIBjZzeDof2o",
    "rating": 4.4,
    "total_ratings": 26
  },
  {
    "name": "Stellar Start Early Learning",
    "address": "38A Stella St, Collaroy Plateau",
    "suburb": "Manly",
    "state": "NSW",
    "lat": -33.7290186,
    "lng": 151.2903774,
    "place_id": "ChIJTXG7kJRVDWsRSL673uoLHOI",
    "maps_url": "https://www.google.com/maps/place/?q=place_id:ChIJTXG7kJRVDWsRSL673uoLHOI",
    "rating": 5,
    "total_ratings": 2
  },
  {
    "name": "Mindchamps - Early Learning | Kindergarten | Child Care Frenchs Forest",
    "address": "4 Tilley Ln, Frenchs Forest",
    "suburb": "Manly",
    "state": "NSW",
    "lat": -33.7539682,
    "lng": 151.2355314,
    "place_id": "ChIJjdLAI2yrEmsRINIwZOB1aik",
    "maps_url": "https://www.google.com/maps/place/?q=place_id:ChIJjdLAI2yrEmsRINIwZOB1aik",
    "rating": 4.9,
    "total_ratings": 29
  },
  {
    "name": "Atchison Cottage",
    "address": "96 Atchison St, Crows Nest",
    "suburb": "Manly",
    "state": "NSW",
    "lat": -33.822811,
    "lng": 151.201706,
    "place_id": "ChIJiZ70qMOuEmsRPGQ7soCCuzc",
    "maps_url": "https://www.google.com/maps/place/?q=place_id:ChIJiZ70qMOuEmsRPGQ7soCCuzc",
    "rating": 4.6,
    "total_ratings": 22
  },
  {
    "name": "Making A Difference Child Care Frenchs Forest",
    "address": "10 Ann St, Frenchs Forest",
    "suburb": "Manly",
    "state": "NSW",
    "lat": -33.752006,
    "lng": 151.225191,
    "place_id": "ChIJIyp9-4ypEmsRw2NWrrMK4UE",
    "maps_url": "https://www.google.com/maps/place/?q=place_id:ChIJIyp9-4ypEmsRw2NWrrMK4UE",
    "rating": 5,
    "total_ratings": 22
  },
  {
    "name": "Tarella House Early Learning Centre Cammeray",
    "address": "3 Amherst St, Cammeray",
    "suburb": "Manly",
    "state": "NSW",
    "lat": -33.8233536,
    "lng": 151.2087416,
    "place_id": "ChIJVVWFx8CuEmsRMdwOAzKp3io",
    "maps_url": "https://www.google.com/maps/place/?q=place_id:ChIJVVWFx8CuEmsRMdwOAzKp3io",
    "rating": 4.2,
    "total_ratings": 13
  },
  {
    "name": "Belrose Children's Centre",
    "address": "Forest Way, Frenchs Forest",
    "suburb": "Manly",
    "state": "NSW",
    "lat": -33.7414228,
    "lng": 151.2199387,
    "place_id": "ChIJPZHeNu6pEmsRCN4nEGOROMo",
    "maps_url": "https://www.google.com/maps/place/?q=place_id:ChIJPZHeNu6pEmsRCN4nEGOROMo",
    "rating": 4.2,
    "total_ratings": 18
  },
  {
    "name": "Mosman Early Learning Centre",
    "address": "8 Central Ave, Mosman",
    "suburb": "Manly",
    "state": "NSW",
    "lat": -33.8142609,
    "lng": 151.2427814,
    "place_id": "ChIJEajL2carEmsRtl_AtlE505E",
    "maps_url": "https://www.google.com/maps/place/?q=place_id:ChIJEajL2carEmsRtl_AtlE505E",
    "rating": 4.8,
    "total_ratings": 12
  },
  {
    "name": "Jack & Jill Kindergarten",
    "address": "2A Alexander Ave, Mosman",
    "suburb": "Manly",
    "state": "NSW",
    "lat": -33.8344187,
    "lng": 151.2483233,
    "place_id": "ChIJM0X8BBesEmsRJDkoywFlRDg",
    "maps_url": "https://www.google.com/maps/place/?q=place_id:ChIJM0X8BBesEmsRJDkoywFlRDg",
    "rating": 5,
    "total_ratings": 9
  },
  {
    "name": "Roundhouse Child Care Centre",
    "address": "26 Balgowlah Rd, Manly",
    "suburb": "Manly",
    "state": "NSW",
    "lat": -33.7907512,
    "lng": 151.2765143,
    "place_id": "ChIJwYw2BqmrEmsRm-Dfptkra9M",
    "maps_url": "https://www.google.com/maps/place/?q=place_id:ChIJwYw2BqmrEmsRm-Dfptkra9M",
    "rating": 5,
    "total_ratings": 1
  },
  {
    "name": "Little Zak's Academy Brookvale Childcare",
    "address": "10 Victor Rd, Brookvale",
    "suburb": "Manly",
    "state": "NSW",
    "lat": -33.7603079,
    "lng": 151.2767608,
    "place_id": "ChIJszzBAmGqEmsRaEGnkqnX8-Y",
    "maps_url": "https://www.google.com/maps/place/?q=place_id:ChIJszzBAmGqEmsRaEGnkqnX8-Y",
    "rating": 4.7,
    "total_ratings": 83
  },
  {
    "name": "Forestville Early Learning Centre",
    "address": "2 Violet Ave, Forestville",
    "suburb": "Manly",
    "state": "NSW",
    "lat": -33.762727,
    "lng": 151.2145839,
    "place_id": "ChIJ6wemyp6pEmsRqPmlUnNwAhM",
    "maps_url": "https://www.google.com/maps/place/?q=place_id:ChIJ6wemyp6pEmsRqPmlUnNwAhM",
    "rating": 5,
    "total_ratings": 22
  },
  {
    "name": "Kidz Place Early Learning Centre",
    "address": "119 Old Northern Rd, Baulkham Hills",
    "suburb": "Parramatta",
    "state": "NSW",
    "lat": -33.7506301,
    "lng": 150.9944558,
    "place_id": "ChIJ75ZrLYehEmsRi-Z63dXg-CU",
    "maps_url": "https://www.google.com/maps/place/?q=place_id:ChIJ75ZrLYehEmsRi-Z63dXg-CU",
    "rating": 4.9,
    "total_ratings": 46
  },
  {
    "name": "St John’s Preschool & Long Day Care - SCECS Auburn Childcare Centre",
    "address": "77 Queen St, Auburn",
    "suburb": "Parramatta",
    "state": "NSW",
    "lat": -33.8481788,
    "lng": 151.0301472,
    "place_id": "ChIJAekUbQq9EmsRUN53HXezJcc",
    "maps_url": "https://www.google.com/maps/place/?q=place_id:ChIJAekUbQq9EmsRUN53HXezJcc",
    "rating": 5,
    "total_ratings": 17
  },
  {
    "name": "Next Generation Kindergarten - Chester Hill Barbers Rd",
    "address": "1 Barbers Rd, Chester Hill",
    "suburb": "Parramatta",
    "state": "NSW",
    "lat": -33.8661837,
    "lng": 150.9921813,
    "place_id": "ChIJLars4wS9EmsRSHJM3niNrzY",
    "maps_url": "https://www.google.com/maps/place/?q=place_id:ChIJLars4wS9EmsRSHJM3niNrzY",
    "rating": 4.9,
    "total_ratings": 62
  },
  {
    "name": "Little Bees Childcare Parramatta CBD",
    "address": "Level 3/118 Church St, Parramatta",
    "suburb": "Parramatta",
    "state": "NSW",
    "lat": -33.818563,
    "lng": 151.0041269,
    "place_id": "ChIJLys4ryGjEmsRGjYVlkgVvbI",
    "maps_url": "https://www.google.com/maps/place/?q=place_id:ChIJLys4ryGjEmsRGjYVlkgVvbI",
    "rating": 4.6,
    "total_ratings": 71
  },
  {
    "name": "Rainbow Village Childcare Centre",
    "address": "42 Weston St, Harris Park",
    "suburb": "Parramatta",
    "state": "NSW",
    "lat": -33.8226028,
    "lng": 151.0169155,
    "place_id": "ChIJ_csE6DyjEmsRrdby5pTZiN0",
    "maps_url": "https://www.google.com/maps/place/?q=place_id:ChIJ_csE6DyjEmsRrdby5pTZiN0",
    "rating": 4.8,
    "total_ratings": 35
  },
  {
    "name": "Little Leapers Childcare Centre South Wentworthville",
    "address": "10 Currong St, South Wentworthville",
    "suburb": "Parramatta",
    "state": "NSW",
    "lat": -33.8225147,
    "lng": 150.9672835,
    "place_id": "ChIJw6KpubujEmsRo-34cxocATI",
    "maps_url": "https://www.google.com/maps/place/?q=place_id:ChIJw6KpubujEmsRo-34cxocATI",
    "rating": 5,
    "total_ratings": 1
  },
  {
    "name": "Binalong Cottage Kindergarten",
    "address": "24 Binalong Rd, Pendle Hill",
    "suburb": "Parramatta",
    "state": "NSW",
    "lat": -33.800782,
    "lng": 150.962478,
    "place_id": "ChIJEYn1fpmiEmsRmMGOk3FYgko",
    "maps_url": "https://www.google.com/maps/place/?q=place_id:ChIJEYn1fpmiEmsRmMGOk3FYgko",
    "rating": 5,
    "total_ratings": 114
  },
  {
    "name": "First Academy Childcare and Preschool",
    "address": "35 Carinya Rd, Girraween",
    "suburb": "Parramatta",
    "state": "NSW",
    "lat": -33.7937197,
    "lng": 150.9501108,
    "place_id": "ChIJSwE8E3eYEmsRdGqymXE9uCo",
    "maps_url": "https://www.google.com/maps/place/?q=place_id:ChIJSwE8E3eYEmsRdGqymXE9uCo",
    "rating": 4.9,
    "total_ratings": 14
  },
  {
    "name": "Start Strong Early Learning Centre South Wentworthville",
    "address": "13 Hampden Rd, South Wentworthville",
    "suburb": "Parramatta",
    "state": "NSW",
    "lat": -33.8186838,
    "lng": 150.9642522,
    "place_id": "ChIJp3udya-iEmsRJ_fENU77KtY",
    "maps_url": "https://www.google.com/maps/place/?q=place_id:ChIJp3udya-iEmsRJ_fENU77KtY",
    "rating": 4.8,
    "total_ratings": 38
  },
  {
    "name": "Golden Seeds Early Learning and Preschool Carlingford",
    "address": "28 Post Office St, Carlingford",
    "suburb": "Parramatta",
    "state": "NSW",
    "lat": -33.7793631,
    "lng": 151.0484203,
    "place_id": "ChIJLSyjsBelEmsR_Fefx3BX2NA",
    "maps_url": "https://www.google.com/maps/place/?q=place_id:ChIJLSyjsBelEmsR_Fefx3BX2NA",
    "rating": 4.9,
    "total_ratings": 30
  },
  {
    "name": "Greenleaf Early Learning Centre",
    "address": "21 Greenleaf St, Constitution Hill",
    "suburb": "Parramatta",
    "state": "NSW",
    "lat": -33.790742,
    "lng": 150.973248,
    "place_id": "ChIJi82FtIuiEmsRfDgnZNJ1o2s",
    "maps_url": "https://www.google.com/maps/place/?q=place_id:ChIJi82FtIuiEmsRfDgnZNJ1o2s",
    "rating": 5,
    "total_ratings": 35
  },
  {
    "name": "Pre-Kinder Academy Long Day Child care centre",
    "address": "101 Wigram St, Harris Park",
    "suburb": "Parramatta",
    "state": "NSW",
    "lat": -33.8199969,
    "lng": 151.0096137,
    "place_id": "ChIJp9xa-SKjEmsRfh2Zf84T2FM",
    "maps_url": "https://www.google.com/maps/place/?q=place_id:ChIJp9xa-SKjEmsRfh2Zf84T2FM",
    "rating": 4.9,
    "total_ratings": 40
  },
  {
    "name": "It's A Small World Childcare | Long Day Care & Child Care Seven Hills",
    "address": "1 Williamson Ave, Seven Hills",
    "suburb": "Parramatta",
    "state": "NSW",
    "lat": -33.7698438,
    "lng": 150.9397592,
    "place_id": "ChIJX7MK0o-YEmsRs1fWcjbkG_w",
    "maps_url": "https://www.google.com/maps/place/?q=place_id:ChIJX7MK0o-YEmsRs1fWcjbkG_w",
    "rating": 4.8,
    "total_ratings": 33
  },
  {
    "name": "Whiz Kidz Early Learning Centre and Preschool Baulkham Hills",
    "address": "49 Jasper Rd, Baulkham Hills",
    "suburb": "Parramatta",
    "state": "NSW",
    "lat": -33.7549436,
    "lng": 150.9782431,
    "place_id": "ChIJdY7QbCKiEmsRsMuEJFD_krg",
    "maps_url": "https://www.google.com/maps/place/?q=place_id:ChIJdY7QbCKiEmsRsMuEJFD_krg",
    "rating": 4.9,
    "total_ratings": 34
  },
  {
    "name": "Total Care Early Learning Centre",
    "address": "27 Eldridge Rd, Greystanes",
    "suburb": "Parramatta",
    "state": "NSW",
    "lat": -33.8309256,
    "lng": 150.9508967,
    "place_id": "ChIJ8QG7P0KXEmsRINqLGTwaW24",
    "maps_url": "https://www.google.com/maps/place/?q=place_id:ChIJ8QG7P0KXEmsRINqLGTwaW24",
    "rating": 5,
    "total_ratings": 23
  },
  {
    "name": "Victoria Avenue Children's Centre",
    "address": "64 Victoria Ave, Concord West",
    "suburb": "Parramatta",
    "state": "NSW",
    "lat": -33.8479596,
    "lng": 151.0830979,
    "place_id": "ChIJyW16F9CkEmsRFDV_vz-9mTQ",
    "maps_url": "https://www.google.com/maps/place/?q=place_id:ChIJyW16F9CkEmsRFDV_vz-9mTQ",
    "rating": 5,
    "total_ratings": 2
  },
  {
    "name": "Guardian Childcare & Education Homebush",
    "address": "Quad 4, 10 Parkview Dr, Sydney Olympic Park",
    "suburb": "Parramatta",
    "state": "NSW",
    "lat": -33.84537340000001,
    "lng": 151.074615,
    "place_id": "ChIJTTLDmcikEmsRM1TQr8pdZtc",
    "maps_url": "https://www.google.com/maps/place/?q=place_id:ChIJTTLDmcikEmsRM1TQr8pdZtc",
    "rating": 4.6,
    "total_ratings": 94
  },
  {
    "name": "Alfred Street Early Education Centre - Childcare in Granville",
    "address": "20-22 Alfred St, Granville",
    "suburb": "Parramatta",
    "state": "NSW",
    "lat": -33.8305808,
    "lng": 151.0147494,
    "place_id": "ChIJu7suYTCjEmsRNYlzZo30VEI",
    "maps_url": "https://www.google.com/maps/place/?q=place_id:ChIJu7suYTCjEmsRNYlzZo30VEI",
    "rating": 4.2,
    "total_ratings": 79
  },
  {
    "name": "Rise & Shine Kindergarten Rydalmere Childcare Service",
    "address": "Unit 30/38-46 South St, Rydalmere",
    "suburb": "Parramatta",
    "state": "NSW",
    "lat": -33.8158022,
    "lng": 151.0397369,
    "place_id": "ChIJgxnvCZqjEmsRoy9tqPMgLoQ",
    "maps_url": "https://www.google.com/maps/place/?q=place_id:ChIJgxnvCZqjEmsRoy9tqPMgLoQ",
    "rating": 5,
    "total_ratings": 17
  },
  {
    "name": "Reggio Emilia Early Learning Centre & Childcare Parramatta CBD",
    "address": "100 George St, Parramatta",
    "suburb": "Parramatta",
    "state": "NSW",
    "lat": -33.8141334,
    "lng": 151.0068283,
    "place_id": "ChIJ27V5KxmjEmsRVnHtPAwza0I",
    "maps_url": "https://www.google.com/maps/place/?q=place_id:ChIJ27V5KxmjEmsRVnHtPAwza0I",
    "rating": 4.6,
    "total_ratings": 89
  },
  {
    "name": "Betty Elaine Kindergarten",
    "address": "93 Platform St, Lidcombe",
    "suburb": "Parramatta",
    "state": "NSW",
    "lat": -33.8544306,
    "lng": 151.053375,
    "place_id": "ChIJM0LJ_VO7EmsR6hnAlIM21G4",
    "maps_url": "https://www.google.com/maps/place/?q=place_id:ChIJM0LJ_VO7EmsR6hnAlIM21G4",
    "rating": 4.9,
    "total_ratings": 34
  },
  {
    "name": "Garfield Childcare Centre",
    "address": "61/63 Garfield St, Wentworthville",
    "suburb": "Parramatta",
    "state": "NSW",
    "lat": -33.8117088,
    "lng": 150.9682593,
    "place_id": "ChIJITpKg7yiEmsRdbH0hZqBoFU",
    "maps_url": "https://www.google.com/maps/place/?q=place_id:ChIJITpKg7yiEmsRdbH0hZqBoFU",
    "rating": 4.2,
    "total_ratings": 68
  },
  {
    "name": "My Planet Childcare Centre",
    "address": "25 Talbot Rd, Guildford",
    "suburb": "Parramatta",
    "state": "NSW",
    "lat": -33.8536571,
    "lng": 150.9876817,
    "place_id": "ChIJr4uw5xe9EmsRQC-Wfkp-BH4",
    "maps_url": "https://www.google.com/maps/place/?q=place_id:ChIJr4uw5xe9EmsRQC-Wfkp-BH4",
    "rating": 4.4,
    "total_ratings": 47
  },
  {
    "name": "Rose of Sharon Child Care & Preschool",
    "address": "167 Stephen St, Blacktown",
    "suburb": "Parramatta",
    "state": "NSW",
    "lat": -33.765357,
    "lng": 150.9196173,
    "place_id": "ChIJnb-LCPCYEmsR31Y6b4PdAEw",
    "maps_url": "https://www.google.com/maps/place/?q=place_id:ChIJnb-LCPCYEmsR31Y6b4PdAEw",
    "rating": 4.8,
    "total_ratings": 32
  },
  {
    "name": "Wonder Years Auburn Early Learning Centre",
    "address": "75 Macquarie Rd, Auburn",
    "suburb": "Parramatta",
    "state": "NSW",
    "lat": -33.8432789,
    "lng": 151.0366228,
    "place_id": "ChIJNXbZ2eGjEmsRpxHdxSCchAY",
    "maps_url": "https://www.google.com/maps/place/?q=place_id:ChIJNXbZ2eGjEmsRpxHdxSCchAY",
    "rating": 4.9,
    "total_ratings": 33
  },
  {
    "name": "Hills Day Care & Learning Centre",
    "address": "1 Cliff Ave, Winston Hills",
    "suburb": "Parramatta",
    "state": "NSW",
    "lat": -33.7835374,
    "lng": 150.988583,
    "place_id": "ChIJ_zUHnVqiEmsRZC_6pzQvQZo",
    "maps_url": "https://www.google.com/maps/place/?q=place_id:ChIJ_zUHnVqiEmsRZC_6pzQvQZo",
    "rating": 5,
    "total_ratings": 4
  },
  {
    "name": "Little Angels: Early Learning & Childcare Baulkham Hills",
    "address": "1-5 Mullane Ave, Baulkham Hills",
    "suburb": "Parramatta",
    "state": "NSW",
    "lat": -33.7635587,
    "lng": 150.9743992,
    "place_id": "ChIJPYuPMxSiEmsRujLOz_Jy9_0",
    "maps_url": "https://www.google.com/maps/place/?q=place_id:ChIJPYuPMxSiEmsRujLOz_Jy9_0",
    "rating": 4.5,
    "total_ratings": 15
  },
  {
    "name": "Angels Childcare Early learning Centre Rosehill",
    "address": "29 Prospect St, Rosehill",
    "suburb": "Parramatta",
    "state": "NSW",
    "lat": -33.8234946,
    "lng": 151.0188111,
    "place_id": "ChIJCWgYkD6jEmsRGS-l9gVbNBA",
    "maps_url": "https://www.google.com/maps/place/?q=place_id:ChIJCWgYkD6jEmsRGS-l9gVbNBA",
    "rating": 4.6,
    "total_ratings": 16
  },
  {
    "name": "Inspire & Innovate Childcare",
    "address": "44 Kalimna Dr, Baulkham Hills",
    "suburb": "Parramatta",
    "state": "NSW",
    "lat": -33.7491629,
    "lng": 150.9746667,
    "place_id": "ChIJc9BgsR-iEmsRjKn5YEVs_h8",
    "maps_url": "https://www.google.com/maps/place/?q=place_id:ChIJc9BgsR-iEmsRjKn5YEVs_h8",
    "rating": 4.6,
    "total_ratings": 28
  },
  {
    "name": "Colour My World Children's Centre",
    "address": "47 Winbourne St, West Ryde",
    "suburb": "Parramatta",
    "state": "NSW",
    "lat": -33.80258,
    "lng": 151.068596,
    "place_id": "ChIJc__422ekEmsRll_FmfaC9wU",
    "maps_url": "https://www.google.com/maps/place/?q=place_id:ChIJc__422ekEmsRll_FmfaC9wU",
    "rating": 4.8,
    "total_ratings": 19
  },
  {
    "name": "Scribbles & Giggles Childcare Centre",
    "address": "7 Myrtle St, Rydalmere",
    "suburb": "Parramatta",
    "state": "NSW",
    "lat": -33.810769,
    "lng": 151.0412,
    "place_id": "ChIJvwES_3ujEmsR-xfWKPLQoiI",
    "maps_url": "https://www.google.com/maps/place/?q=place_id:ChIJvwES_3ujEmsR-xfWKPLQoiI",
    "rating": 4.6,
    "total_ratings": 33
  },
  {
    "name": "Angel Babies Childcare Centre Parramatta",
    "address": "68 Thomas St, Parramatta",
    "suburb": "Parramatta",
    "state": "NSW",
    "lat": -33.8118364,
    "lng": 151.0157084,
    "place_id": "ChIJRSFGBhGjEmsRIV1FsENc2Hc",
    "maps_url": "https://www.google.com/maps/place/?q=place_id:ChIJRSFGBhGjEmsRIV1FsENc2Hc",
    "rating": 4.7,
    "total_ratings": 12
  },
  {
    "name": "Children First Blacktown",
    "address": "217/221 Blacktown Rd, Blacktown",
    "suburb": "Parramatta",
    "state": "NSW",
    "lat": -33.7898083,
    "lng": 150.9194878,
    "place_id": "ChIJoU04B0aYEmsRy_S1E-z-_KY",
    "maps_url": "https://www.google.com/maps/place/?q=place_id:ChIJoU04B0aYEmsRy_S1E-z-_KY",
    "rating": 4.8,
    "total_ratings": 39
  },
  {
    "name": "St Marina Early Learning Centre",
    "address": "3 Grandview St, Parramatta",
    "suburb": "Parramatta",
    "state": "NSW",
    "lat": -33.8102192,
    "lng": 151.0187939,
    "place_id": "ChIJO_j1BRKjEmsRGnm8162O9-A",
    "maps_url": "https://www.google.com/maps/place/?q=place_id:ChIJO_j1BRKjEmsRGnm8162O9-A",
    "rating": 4.9,
    "total_ratings": 58
  },
  {
    "name": "Jungle Cubs Childcare – Early Learning Centre Seven Hills",
    "address": "19 Fuller St, Seven Hills",
    "suburb": "Parramatta",
    "state": "NSW",
    "lat": -33.78205730000001,
    "lng": 150.9428624,
    "place_id": "ChIJsUXOMX2YEmsRLecOfKAnJLk",
    "maps_url": "https://www.google.com/maps/place/?q=place_id:ChIJsUXOMX2YEmsRLecOfKAnJLk",
    "rating": 4.8,
    "total_ratings": 54
  },
  {
    "name": "Hostia Childcare Centre",
    "address": "47 Clarence St, Merrylands",
    "suburb": "Parramatta",
    "state": "NSW",
    "lat": -33.8299058,
    "lng": 150.9834989,
    "place_id": "ChIJa_jEm8yiEmsRlpxhuxyJjhs",
    "maps_url": "https://www.google.com/maps/place/?q=place_id:ChIJa_jEm8yiEmsRlpxhuxyJjhs",
    "rating": 4.8,
    "total_ratings": 19
  },
  {
    "name": "Regents Park Preschool Long Day Care",
    "address": "52 Amy St, Regents Park",
    "suburb": "Parramatta",
    "state": "NSW",
    "lat": -33.8844157,
    "lng": 151.0273047,
    "place_id": "ChIJPcHFz2G8EmsRz9E9aGH1vKk",
    "maps_url": "https://www.google.com/maps/place/?q=place_id:ChIJPcHFz2G8EmsRz9E9aGH1vKk",
    "rating": 5,
    "total_ratings": 93
  },
  {
    "name": "The Hills Little Learners - Childcare Seven Hills",
    "address": "56 Pioneer St, Seven Hills",
    "suburb": "Parramatta",
    "state": "NSW",
    "lat": -33.7700822,
    "lng": 150.9314794,
    "place_id": "ChIJe5qC2oyYEmsRUX4pIAY8uLs",
    "maps_url": "https://www.google.com/maps/place/?q=place_id:ChIJe5qC2oyYEmsRUX4pIAY8uLs",
    "rating": 4.6,
    "total_ratings": 12
  },
  {
    "name": "Munchkin Manor Early Learning Center",
    "address": "19 Gozo Rd, Greystanes",
    "suburb": "Parramatta",
    "state": "NSW",
    "lat": -33.8203825,
    "lng": 150.9371568,
    "place_id": "ChIJOwUPD_aXEmsRRwHwcW1qjps",
    "maps_url": "https://www.google.com/maps/place/?q=place_id:ChIJOwUPD_aXEmsRRwHwcW1qjps",
    "rating": 4.8,
    "total_ratings": 24
  },
  {
    "name": "Kinda-Mindi Early Learning Centre - Homebush",
    "address": "Cnr Plaza &, Level 1/250 Parramatta Rd, Homebush",
    "suburb": "Parramatta",
    "state": "NSW",
    "lat": -33.860407,
    "lng": 151.0732927,
    "place_id": "ChIJp0hfJTe7EmsRM4WigCmDsn8",
    "maps_url": "https://www.google.com/maps/place/?q=place_id:ChIJp0hfJTe7EmsRM4WigCmDsn8",
    "rating": 4.8,
    "total_ratings": 34
  },
  {
    "name": "Whiz Kidz Early Learning Centre and Preschool Pendle Hill",
    "address": "163 Bungaree Rd, Pendle Hill",
    "suburb": "Parramatta",
    "state": "NSW",
    "lat": -33.8007504,
    "lng": 150.9592654,
    "place_id": "ChIJmQv21bGjEmsROTTeKryk9nI",
    "maps_url": "https://www.google.com/maps/place/?q=place_id:ChIJmQv21bGjEmsROTTeKryk9nI",
    "rating": 5,
    "total_ratings": 34
  },
  {
    "name": "Twinklestar Childcare Early Learning Centre",
    "address": "89 Good St, Granville",
    "suburb": "Parramatta",
    "state": "NSW",
    "lat": -33.8286852,
    "lng": 151.0130386,
    "place_id": "ChIJ4UaR6Y-JtAERpuBB9ZWsXOk",
    "maps_url": "https://www.google.com/maps/place/?q=place_id:ChIJ4UaR6Y-JtAERpuBB9ZWsXOk",
    "rating": 4.2,
    "total_ratings": 21
  },
  {
    "name": "Whiz Kidz Early Learning Centre & Preschool Northmead & Prep",
    "address": "Unit 2 & 6/185 Briens Rd, Northmead",
    "suburb": "Parramatta",
    "state": "NSW",
    "lat": -33.7983344,
    "lng": 150.9822433,
    "place_id": "ChIJ_cVALfKiEmsRdhVlBUOpKAk",
    "maps_url": "https://www.google.com/maps/place/?q=place_id:ChIJ_cVALfKiEmsRdhVlBUOpKAk",
    "rating": 4.9,
    "total_ratings": 59
  },
  {
    "name": "Hilltop Childcare Centre - 38 Hilltop Road",
    "address": "38 Hilltop Rd, Merrylands",
    "suburb": "Parramatta",
    "state": "NSW",
    "lat": -33.8263603,
    "lng": 150.9778978,
    "place_id": "ChIJPclhPmyjEmsRVbMnJSm2bRA",
    "maps_url": "https://www.google.com/maps/place/?q=place_id:ChIJPclhPmyjEmsRVbMnJSm2bRA",
    "rating": 4.6,
    "total_ratings": 25
  },
  {
    "name": "Midson Road Child Care Centre",
    "address": "87 Chesterfield Rd, Epping",
    "suburb": "Parramatta",
    "state": "NSW",
    "lat": -33.7805928,
    "lng": 151.073552,
    "place_id": "ChIJXfWHACOkEmsRumT6VX8Kw8c",
    "maps_url": "https://www.google.com/maps/place/?q=place_id:ChIJXfWHACOkEmsRumT6VX8Kw8c",
    "rating": 4.4,
    "total_ratings": 35
  },
  {
    "name": "Creative Garden Early Learning Centre Holroyd",
    "address": "32 Walpole St, Holroyd",
    "suburb": "Parramatta",
    "state": "NSW",
    "lat": -33.830107,
    "lng": 150.993714,
    "place_id": "ChIJL7LOjc2iEmsRcaJ0YbCWzCw",
    "maps_url": "https://www.google.com/maps/place/?q=place_id:ChIJL7LOjc2iEmsRcaJ0YbCWzCw",
    "rating": 4.3,
    "total_ratings": 54
  },
  {
    "name": "Pinnacle Early Education",
    "address": "24 Auburn Rd, Berala",
    "suburb": "Parramatta",
    "state": "NSW",
    "lat": -33.8688192,
    "lng": 151.0287373,
    "place_id": "ChIJm7eYCw29EmsRMZaNvVavEGM",
    "maps_url": "https://www.google.com/maps/place/?q=place_id:ChIJm7eYCw29EmsRMZaNvVavEGM",
    "rating": 5,
    "total_ratings": 20
  },
  {
    "name": "Woodstock Early Learning Centre",
    "address": "3 Brushbox St, Sydney Olympic Park",
    "suburb": "Parramatta",
    "state": "NSW",
    "lat": -33.8483235,
    "lng": 151.0747742,
    "place_id": "ChIJy6xna9ClEmsR8s2mPbJTT0E",
    "maps_url": "https://www.google.com/maps/place/?q=place_id:ChIJy6xna9ClEmsR8s2mPbJTT0E",
    "rating": 4,
    "total_ratings": 19
  },
  {
    "name": "Guardian Childcare & Education Seven Hills",
    "address": "32/38 Himalaya Cres, Seven Hills",
    "suburb": "Parramatta",
    "state": "NSW",
    "lat": -33.7905301,
    "lng": 150.921844,
    "place_id": "ChIJZyiHhYmZEmsRWeWwdA2oJgk",
    "maps_url": "https://www.google.com/maps/place/?q=place_id:ChIJZyiHhYmZEmsRWeWwdA2oJgk",
    "rating": 4.5,
    "total_ratings": 66
  },
  {
    "name": "Little Stars Preschool & Long Day Childcare Toongabbie",
    "address": "102 Metella Rd, Toongabbie",
    "suburb": "Parramatta",
    "state": "NSW",
    "lat": -33.7932228,
    "lng": 150.9380674,
    "place_id": "ChIJYQiulW6YEmsRQ8AYAMxEdos",
    "maps_url": "https://www.google.com/maps/place/?q=place_id:ChIJYQiulW6YEmsRQ8AYAMxEdos",
    "rating": 5,
    "total_ratings": 60
  },
  {
    "name": "Toongabbie Children’s Early Learning Centre",
    "address": "23 Barangaroo Rd, Toongabbie",
    "suburb": "Parramatta",
    "state": "NSW",
    "lat": -33.7882562,
    "lng": 150.9547904,
    "place_id": "ChIJpaDBAoKiEmsRlkKKUE4UU8U",
    "maps_url": "https://www.google.com/maps/place/?q=place_id:ChIJpaDBAoKiEmsRlkKKUE4UU8U",
    "rating": 4.8,
    "total_ratings": 68
  },
  {
    "name": "Guardian Childcare and Education Parramatta",
    "address": "163 George St, Parramatta",
    "suburb": "Parramatta",
    "state": "NSW",
    "lat": -33.8171972,
    "lng": 151.0141507,
    "place_id": "ChIJIzGJtcWjEmsRH0NqGOHjCGM",
    "maps_url": "https://www.google.com/maps/place/?q=place_id:ChIJIzGJtcWjEmsRH0NqGOHjCGM",
    "rating": 4.5,
    "total_ratings": 50
  },
  {
    "name": "Monash Preschool and Early Learning (Short St.) | Day Care & Child Care Wentworthville",
    "address": "5 Short St, Wentworthville",
    "suburb": "Parramatta",
    "state": "NSW",
    "lat": -33.8063385,
    "lng": 150.9739423,
    "place_id": "ChIJ-ZjUwFOjEmsRLYtCnAZ1ajk",
    "maps_url": "https://www.google.com/maps/place/?q=place_id:ChIJ-ZjUwFOjEmsRLYtCnAZ1ajk",
    "rating": 5,
    "total_ratings": 15
  },
  {
    "name": "Lighthouse Childcare North Strathfield",
    "address": "13 George St, North Strathfield",
    "suburb": "Parramatta",
    "state": "NSW",
    "lat": -33.8605462,
    "lng": 151.0876237,
    "place_id": "ChIJ7TgWgiy7EmsRUHJSuqTlsAg",
    "maps_url": "https://www.google.com/maps/place/?q=place_id:ChIJ7TgWgiy7EmsRUHJSuqTlsAg",
    "rating": 4.2,
    "total_ratings": 63
  },
  {
    "name": "That Little Kindy",
    "address": "30 Bulli Rd, Toongabbie",
    "suburb": "Parramatta",
    "state": "NSW",
    "lat": -33.791091,
    "lng": 150.959309,
    "place_id": "ChIJVXNJjIOiEmsRhjEzjDZO4G0",
    "maps_url": "https://www.google.com/maps/place/?q=place_id:ChIJVXNJjIOiEmsRhjEzjDZO4G0",
    "rating": 5,
    "total_ratings": 18
  },
  {
    "name": "Dundas Child Care Centre",
    "address": "79 Calder Rd, Rydalmere",
    "suburb": "Parramatta",
    "state": "NSW",
    "lat": -33.8061832,
    "lng": 151.0433671,
    "place_id": "ChIJR2XkYn-jEmsR9_jLhrXw8Uk",
    "maps_url": "https://www.google.com/maps/place/?q=place_id:ChIJR2XkYn-jEmsR9_jLhrXw8Uk",
    "rating": 4.3,
    "total_ratings": 6
  },
  {
    "name": "Trendi Tots Kindergarten",
    "address": "97 Richmond St, Merrylands",
    "suburb": "Parramatta",
    "state": "NSW",
    "lat": -33.8241507,
    "lng": 150.9719097,
    "place_id": "ChIJ39ZFCLSiEmsR8kjNfQCrR38",
    "maps_url": "https://www.google.com/maps/place/?q=place_id:ChIJ39ZFCLSiEmsR8kjNfQCrR38",
    "rating": 5,
    "total_ratings": 16
  },
  {
    "name": "Crocodile Kids Early Education Centre & Childcare Doonside",
    "address": "47 Birdwood Ave, Doonside",
    "suburb": "Blacktown",
    "state": "NSW",
    "lat": -33.7706946,
    "lng": 150.8779022,
    "place_id": "ChIJYW0FgpSZEmsRbv_ZjnNSE-s",
    "maps_url": "https://www.google.com/maps/place/?q=place_id:ChIJYW0FgpSZEmsRbv_ZjnNSE-s",
    "rating": 5,
    "total_ratings": 11
  },
  {
    "name": "Pearls of Wisdom Early Learning Centre",
    "address": "7 Lookout Cct, Stanhope Gardens",
    "suburb": "Blacktown",
    "state": "NSW",
    "lat": -33.7189242,
    "lng": 150.9180079,
    "place_id": "ChIJCe1zTtOfEmsRA7sIbqrmuqA",
    "maps_url": "https://www.google.com/maps/place/?q=place_id:ChIJCe1zTtOfEmsRA7sIbqrmuqA",
    "rating": 4.9,
    "total_ratings": 50
  },
  {
    "name": "Learning Blocks ChildCare Centre - Early Learning - Daycare - Pre-School Lalor Rd Quakers Hill",
    "address": "28 Lalor Rd, Quakers Hill",
    "suburb": "Blacktown",
    "state": "NSW",
    "lat": -33.72698889999999,
    "lng": 150.8888983,
    "place_id": "ChIJSxAGlDSZEmsR8A3RK6EQjwc",
    "maps_url": "https://www.google.com/maps/place/?q=place_id:ChIJSxAGlDSZEmsR8A3RK6EQjwc",
    "rating": 5,
    "total_ratings": 28
  },
  {
    "name": "Kindalin @ Kellyville Ridge",
    "address": "21 Conrad Rd, Kellyville Ridge",
    "suburb": "Blacktown",
    "state": "NSW",
    "lat": -33.715786,
    "lng": 150.91728,
    "place_id": "ChIJ_VVOFCOfEmsROY0YF_RnAfU",
    "maps_url": "https://www.google.com/maps/place/?q=place_id:ChIJ_VVOFCOfEmsROY0YF_RnAfU",
    "rating": 4.9,
    "total_ratings": 11
  },