[
  {
    "name": "JB Hi-Fi City - World Square",
    "address": "World Square Shopping Centre Store 9.42, Lower Ground Level, 644 George St, Sydney NSW 2000, Australia",
    "suburb": "Lower Ground Level",
    "state": "NSW",
    "rating": 4.2,
    "reviews": 3094,
    "lat": -33.8774582,
    "lng": 151.2072834,
    "place_id": "ChIJmwPYyTyuEmsRn5FgZNCzEK8",
    "maps_url": "https://www.google.com/maps/place/?q=place_id:ChIJmwPYyTyuEmsRn5FgZNCzEK8"
  },
  {
    "name": "Jaycar Electronics Sydney City",
    "address": "Opposite Qvb, Opposite QVB, 127 York St, Sydney NSW 2000, Australia",
    "suburb": "Opposite QVB",
    "state": "NSW",
    "rating": 4.2,
    "reviews": 189,
    "lat": -33.8719051,
    "lng": 151.2062828,
    "place_id": "ChIJu7dTkz6uEmsR9K39SawT5xA",
    "maps_url": "https://www.google.com/maps/place/?q=place_id:ChIJu7dTkz6uEmsR9K39SawT5xA"
  },
  {
    "name": "Apple Sydney",
    "address": "367 George St, Sydney NSW 2000, Australia",
    "suburb": "Sydney NSW 2000",
    "state": "NSW",
    "rating": 3.8,
    "reviews": 6043,
    "lat": -33.869,
    "lng": 151.20666,
    "place_id": "ChIJAeHDcT-uEmsRTUNVCmZk3qg",
    "maps_url": "https://www.google.com/maps/place/?q=place_id:ChIJAeHDcT-uEmsRTUNVCmZk3qg"
  },
  {
    "name": "Technocity",
    "address": "shop 28/730/742 George St, Haymarket NSW 2000, Australia",
    "suburb": "Haymarket NSW 2000",
    "state": "NSW",
    "rating": 4,
    "reviews": 128,
    "lat": -33.8791601,
    "lng": 151.2054552,
    "place_id": "ChIJpY_eGWm4EmsReHk2qy3Py-o",
    "maps_url": "https://www.google.com/maps/place/?q=place_id:ChIJpY_eGWm4EmsReHk2qy3Py-o"
  },
  {
    "name": "digiDirect Sydney",
    "address": "Shop 3/75 King St, Sydney NSW 2000, Australia",
    "suburb": "Sydney NSW 2000",
    "state": "NSW",
    "rating": 4,
    "reviews": 1339,
    "lat": -33.8687464,
    "lng": 151.2063756,
    "place_id": "ChIJz6Z6bz-uEmsRNDpdSFfoGLE",
    "maps_url": "https://www.google.com/maps/place/?q=place_id:ChIJz6Z6bz-uEmsRNDpdSFfoGLE"
  },
  {
    "name": "DJI World Square Sydney | Authorised Retail Store",
    "address": "Shop 10.47/644 George St, Sydney NSW 2000, Australia",
    "suburb": "Sydney NSW 2000",
    "state": "NSW",
    "rating": 4.9,
    "reviews": 1435,
    "lat": -33.8776669,
    "lng": 151.2070203,
    "place_id": "ChIJ9dm5wMKvEmsRs-J67ZhZC3w",
    "maps_url": "https://www.google.com/maps/place/?q=place_id:ChIJ9dm5wMKvEmsRs-J67ZhZC3w"
  },
  {
    "name": "JB Hi-Fi City - Westfield Sydney",
    "address": "Westfield Sydney Shopping Centre Store 6010, Level 6 Corner Pitt &, Market St, Sydney NSW 2000, Australia",
    "suburb": "Level 6 Corner Pitt &",
    "state": "NSW",
    "rating": 4.2,
    "reviews": 2261,
    "lat": -33.8696581,
    "lng": 151.208421,
    "place_id": "ChIJXYArsj-uEmsRIv08izlBCik",
    "maps_url": "https://www.google.com/maps/place/?q=place_id:ChIJXYArsj-uEmsRIv08izlBCik"
  },
  {
    "name": "JB Hi-Fi City - Galeries",
    "address": "The Galeries, Store Rlg23/500 George St, Sydney NSW 2000, Australia",
    "suburb": "Store Rlg23/500 George St",
    "state": "NSW",
    "rating": 4.2,
    "reviews": 1778,
    "lat": -33.8725576,
    "lng": 151.2073138,
    "place_id": "ChIJRzzaXz6uEmsRnNxaZgaUQ1k",
    "maps_url": "https://www.google.com/maps/place/?q=place_id:ChIJRzzaXz6uEmsRnNxaZgaUQ1k"
  },
  {
    "name": "JB Hi-Fi City - Strand Arcade Pitt St Mall",
    "address": "412-414 George St, Sydney NSW 2000, Australia",
    "suburb": "Sydney NSW 2000",
    "state": "NSW",
    "rating": 4.2,
    "reviews": 2435,
    "lat": -33.8694487,
    "lng": 151.2076488,
    "place_id": "ChIJL1zhdD-uEmsRUfZU7xxRuBM",
    "maps_url": "https://www.google.com/maps/place/?q=place_id:ChIJL1zhdD-uEmsRUfZU7xxRuBM"
  },
  {
    "name": "JB Hi-Fi Broadway",
    "address": "The Broadway Shopping Centre, Store 207, Level 2/1 Bay St, Ultimo NSW 2007, Australia",
    "suburb": "Store 207",
    "state": "NSW",
    "rating": 4,
    "reviews": 2633,
    "lat": -33.88413,
    "lng": 151.1946698,
    "place_id": "ChIJ7SwOuymuEmsRTWrSEXy6OtQ",
    "maps_url": "https://www.google.com/maps/place/?q=place_id:ChIJ7SwOuymuEmsRTWrSEXy6OtQ"
  },
  {
    "name": "JB Hi-Fi North Sydney",
    "address": "99 Mount St, North Sydney NSW 2060, Australia",
    "suburb": "North Sydney NSW 2060",
    "state": "NSW",
    "rating": 4.2,
    "reviews": 1123,
    "lat": -33.8392895,
    "lng": 151.2085324,
    "place_id": "ChIJNzszlPKuEmsRRaUR9uLBYlU",
    "maps_url": "https://www.google.com/maps/place/?q=place_id:ChIJNzszlPKuEmsRRaUR9uLBYlU"
  },
  {
    "name": "Samsung Experience Store George St",
    "address": "450 George St, Sydney NSW 2000, Australia",
    "suburb": "Sydney NSW 2000",
    "state": "NSW",
    "rating": 3.6,
    "reviews": 2961,
    "lat": -33.8703856,
    "lng": 151.2071261,
    "place_id": "ChIJHSx2Bz-uEmsRLhN1FR9t2a8",
    "maps_url": "https://www.google.com/maps/place/?q=place_id:ChIJHSx2Bz-uEmsRLhN1FR9t2a8"
  },
  {
    "name": "Ted's World Of Imaging",
    "address": "317 Pitt St, Sydney NSW 2000, Australia",
    "suburb": "Sydney NSW 2000",
    "state": "NSW",
    "rating": 4.1,
    "reviews": 846,
    "lat": -33.8739629,
    "lng": 151.2078981,
    "place_id": "ChIJe5-K0D2uEmsRu_k5Y4ZTITM",
    "maps_url": "https://www.google.com/maps/place/?q=place_id:ChIJe5-K0D2uEmsRu_k5Y4ZTITM"
  },
  {
    "name": "DJI Westfield Sydney",
    "address": "Westfield Sydney, Shop 1023A Level 1/188 Pitt St, Sydney NSW 2000, Australia",
    "suburb": "Shop 1023A Level 1/188 Pitt St",
    "state": "NSW",
    "rating": 5,
    "reviews": 1129,
    "lat": -33.8701109,
    "lng": 151.2089071,
    "place_id": "ChIJB2ztGRavEmsRNDl7uYb-O-k",
    "maps_url": "https://www.google.com/maps/place/?q=place_id:ChIJB2ztGRavEmsRNDl7uYb-O-k"
  },
  {
    "name": "IT Cave",
    "address": "T9-10, level 1,730/742 George St, Haymarket NSW 2000, Australia",
    "suburb": "level 1",
    "state": "NSW",
    "rating": 4.4,
    "reviews": 34,
    "lat": -33.87918810000001,
    "lng": 151.2056157,
    "place_id": "ChIJV1HmFCOuEmsRmGZUwrnn0Qc",
    "maps_url": "https://www.google.com/maps/place/?q=place_id:ChIJV1HmFCOuEmsRmGZUwrnn0Qc"
  },
  {
    "name": "JB Hi-Fi Sydney Domestic Airport",
    "address": "Virgin & Jetstar Terminals, Sydney Domestic Airport, 2A-218, Terminal 2 Keith Smith Ave, Mascot NSW 2020, Australia",
    "suburb": "Sydney Domestic Airport",
    "state": "NSW",
    "rating": 3.9,
    "reviews": 79,
    "lat": -33.9352792,
    "lng": 151.1795152,
    "place_id": "ChIJr9bwHOWwEmsRn_vxvh0chYo",
    "maps_url": "https://www.google.com/maps/place/?q=place_id:ChIJr9bwHOWwEmsRn_vxvh0chYo"
  },
  {
    "name": "Myer Sydney City",
    "address": "436 George St, Sydney NSW 2000, Australia",
    "suburb": "Sydney NSW 2000",
    "state": "NSW",
    "rating": 4.1,
    "reviews": 7303,
    "lat": -33.8703149,
    "lng": 151.2076166,
    "place_id": "ChIJB4ndBj-uEmsR_oeCmFxxhh4",
    "maps_url": "https://www.google.com/maps/place/?q=place_id:ChIJB4ndBj-uEmsR_oeCmFxxhh4"
  },
  {
    "name": "Officeworks Pitt St, Sydney",
    "address": "242 Pitt St, Sydney NSW 2000, Australia",
    "suburb": "Sydney NSW 2000",
    "state": "NSW",
    "rating": 3.2,
    "reviews": 877,
    "lat": -33.8720482,
    "lng": 151.2083195,
    "place_id": "ChIJDV30ZT6uEmsRcwI2fR-tkP0",
    "maps_url": "https://www.google.com/maps/place/?q=place_id:ChIJDV30ZT6uEmsRcwI2fR-tkP0"
  },
  {
    "name": "Georges Cameras",
    "address": "387 George St, Sydney NSW 2000, Australia",
    "suburb": "Sydney NSW 2000",
    "state": "NSW",
    "rating": 4.2,
    "reviews": 3636,
    "lat": -33.8694926,
    "lng": 151.2068063,
    "place_id": "ChIJaS0LDT-uEmsRqK2jGC7wAH4",
    "maps_url": "https://www.google.com/maps/place/?q=place_id:ChIJaS0LDT-uEmsRqK2jGC7wAH4"
  },
  {
    "name": "Harvey Norman Broadway",
    "address": "Broadway Shopping Centre, level 1/1 Bay St, Glebe NSW 2007, Australia",
    "suburb": "level 1/1 Bay St",
    "state": "NSW",
    "rating": 3.4,
    "reviews": 871,
    "lat": -33.882942,
    "lng": 151.194119,
    "place_id": "ChIJn0QbQyiuEmsRA0yMHO4Cr8c",
    "maps_url": "https://www.google.com/maps/place/?q=place_id:ChIJn0QbQyiuEmsRA0yMHO4Cr8c"
  },
  {
    "name": "JB Hi-Fi Parramatta Westfield",
    "address": "Westfield Parramatta Shopping Centre, Store 5057b/159-175 Church St, Parramatta NSW 2150, Australia",
    "suburb": "Store 5057b/159-175 Church St",
    "state": "NSW",
    "rating": 4,
    "reviews": 5041,
    "lat": -33.8167682,
    "lng": 151.0016319,
    "place_id": "ChIJ1ffoQiCjEmsRqkOa56GuKEA",
    "maps_url": "https://www.google.com/maps/place/?q=place_id:ChIJ1ffoQiCjEmsRqkOa56GuKEA"
  },
  {
    "name": "CeX",
    "address": "Westfield Parramatta, Unit 2144/159-175 Church St, Parramatta NSW 2150, Australia",
    "suburb": "Unit 2144/159-175 Church St",
    "state": "NSW",
    "rating": 4,
    "reviews": 598,
    "lat": -33.8173782,
    "lng": 151.0016557,
    "place_id": "ChIJSd9aQiCjEmsRelBXYktH_1M",
    "maps_url": "https://www.google.com/maps/place/?q=place_id:ChIJSd9aQiCjEmsRelBXYktH_1M"
  },
  {
    "name": "Kmart Parramatta",
    "address": "Westfield Parramatta, 159-175 Church St, Parramatta NSW 2150, Australia",
    "suburb": "159-175 Church St",
    "state": "NSW",
    "rating": 4.1,
    "reviews": 5368,
    "lat": -33.8171388,
    "lng": 151.0008208,
    "place_id": "ChIJ1ffoQiCjEmsRVwcgR-HYceQ",
    "maps_url": "https://www.google.com/maps/place/?q=place_id:ChIJ1ffoQiCjEmsRVwcgR-HYceQ"
  },
  {
    "name": "Samsung Experience Store Parramatta",
    "address": "Level 2, Shop 2119 159/175 Church St, Parramatta NSW 2150, Australia",
    "suburb": "Shop 2119 159/175 Church St",
    "state": "NSW",
    "rating": 3.7,
    "reviews": 1058,
    "lat": -33.8179931,
    "lng": 151.002633,
    "place_id": "ChIJNwqwYCCjEmsRbtZOnNiu9xc",
    "maps_url": "https://www.google.com/maps/place/?q=place_id:ChIJNwqwYCCjEmsRbtZOnNiu9xc"
  },
  {
    "name": "Core Electronics",
    "address": "40 Aruma Pl, Cardiff NSW 2285, Australia",
    "suburb": "Cardiff NSW 2285",
    "state": "NSW",
    "rating": 5,
    "reviews": 6064,
    "lat": -32.938614,
    "lng": 151.63863,
    "place_id": "ChIJR9SsoeYVc2sRQchv4ZUjUd0",
    "maps_url": "https://www.google.com/maps/place/?q=place_id:ChIJR9SsoeYVc2sRQchv4ZUjUd0"
  },
  {
    "name": "Jaycar Electronics Newcastle",
    "address": "Unit 1/585 Maitland Rd, Mayfield West NSW 2304, Australia",
    "suburb": "Mayfield West NSW 2304",
    "state": "NSW",
    "rating": 4.5,
    "reviews": 128,
    "lat": -32.8802686,
    "lng": 151.718154,
    "place_id": "ChIJX8P3f0EVc2sRIGazx8MGeME",
    "maps_url": "https://www.google.com/maps/place/?q=place_id:ChIJX8P3f0EVc2sRIGazx8MGeME"
  },
  {
    "name": "Newcastle Custom Electronics",
    "address": "655 Hunter St, Newcastle West NSW 2302, Australia",
    "suburb": "Newcastle West NSW 2302",
    "state": "NSW",
    "rating": 1.9,
    "reviews": 103,
    "lat": -32.9267846,
    "lng": 151.7634148,
    "place_id": "ChIJyzWFuEQUc2sRpj62ATt8V14",
    "maps_url": "https://www.google.com/maps/place/?q=place_id:ChIJyzWFuEQUc2sRpj62ATt8V14"
  },
  {
    "name": "JB Hi-Fi Kotara - Westfield",
    "address": "Store 2020, Level 2 Northcott Dr, Kotara NSW 2289, Australia",
    "suburb": "Level 2 Northcott Dr",
    "state": "NSW",
    "rating": 4.3,
    "reviews": 1006,
    "lat": -32.9425929,
    "lng": 151.7121745,
    "place_id": "ChIJ6SraNOMVc2sRsEOmqwv8xvM",
    "maps_url": "https://www.google.com/maps/place/?q=place_id:ChIJ6SraNOMVc2sRsEOmqwv8xvM"
  },
  {
    "name": "CeX",
    "address": "Shop 1042, Westfield Kotara CNR Park Ave &, Northcott Dr, Kotara NSW 2289, Australia",
    "suburb": "Westfield Kotara CNR Park Ave &",
    "state": "NSW",
    "rating": 3.7,
    "reviews": 175,
    "lat": -32.9424607,
    "lng": 151.7113371,
    "place_id": "ChIJv7ozR-IVc2sRvqCfcGSwakw",
    "maps_url": "https://www.google.com/maps/place/?q=place_id:ChIJv7ozR-IVc2sRvqCfcGSwakw"
  },
  {
    "name": "JB Hi-Fi Kotara Homemaker Centre",
    "address": "Homemaker Centre, Store 5-7, Building/D 30 Northcott Dr, Kotara NSW 2289, Australia",
    "suburb": "Store 5-7",
    "state": "NSW",
    "rating": 4.3,
    "reviews": 1393,
    "lat": -32.9384123,
    "lng": 151.7111151,
    "place_id": "ChIJw3MDivwVc2sRzA2EqYHNbs0",
    "maps_url": "https://www.google.com/maps/place/?q=place_id:ChIJw3MDivwVc2sRzA2EqYHNbs0"
  },
  {
    "name": "Bing Lee Bennetts Green",
    "address": "9 Abdon Cl, Bennetts Green NSW 2290, Australia",
    "suburb": "Bennetts Green NSW 2290",
    "state": "NSW",
    "rating": 4.4,
    "reviews": 323,
    "lat": -32.9939335,
    "lng": 151.690146,
    "place_id": "ChIJJ2NUl2U9c2sRhzLoBM26Gc0",
    "maps_url": "https://www.google.com/maps/place/?q=place_id:ChIJJ2NUl2U9c2sRhzLoBM26Gc0"
  },
  {
    "name": "Dcomp",
    "address": "322 Maitland Rd, Mayfield NSW 2304, Australia",
    "suburb": "Mayfield NSW 2304",
    "state": "NSW",
    "rating": 4.5,
    "reviews": 421,
    "lat": -32.8960431,
    "lng": 151.7344785,
    "place_id": "ChIJrZNFJv0Vc2sRtHVRuNVE_2k",
    "maps_url": "https://www.google.com/maps/place/?q=place_id:ChIJrZNFJv0Vc2sRtHVRuNVE_2k"
  },
  {
    "name": "The Good Guys Kotara",
    "address": "Homemaker Centre, 12/150 Park Ave, Kotara NSW 2289, Australia",
    "suburb": "12/150 Park Ave",
    "state": "NSW",
    "rating": 3.5,
    "reviews": 559,
    "lat": -32.9389672,
    "lng": 151.7075044,
    "place_id": "ChIJQQeaUfsVc2sRwPvDBNOKJ2w",
    "maps_url": "https://www.google.com/maps/place/?q=place_id:ChIJQQeaUfsVc2sRwPvDBNOKJ2w"
  },
  {
    "name": "Jaycar Electronics Warners Bay",
    "address": "2/276 Macquarie Rd, Warners Bay NSW 2282, Australia",
    "suburb": "Warners Bay NSW 2282",
    "state": "NSW",
    "rating": 4.6,
    "reviews": 143,
    "lat": -32.965163,
    "lng": 151.6537999,
    "place_id": "ChIJJ6a5SlM8c2sRiNmLavSsiA8",
    "maps_url": "https://www.google.com/maps/place/?q=place_id:ChIJJ6a5SlM8c2sRiNmLavSsiA8"
  },
  {
    "name": "Audio Junction",
    "address": "Suite 4/74-84 Tudor St, Hamilton NSW 2303, Australia",
    "suburb": "Hamilton NSW 2303",
    "state": "NSW",
    "rating": 4.7,
    "reviews": 105,
    "lat": -32.9242433,
    "lng": 151.7490809,
    "place_id": "ChIJbzEyFk0Uc2sRxA56YQbTCGI",
    "maps_url": "https://www.google.com/maps/place/?q=place_id:ChIJbzEyFk0Uc2sRxA56YQbTCGI"
  },
  {
    "name": "Officeworks Newcastle West",
    "address": "Cnr Parry &, National Park St, Newcastle West NSW 2302, Australia",
    "suburb": "National Park St",
    "state": "NSW",
    "rating": 3.5,
    "reviews": 317,
    "lat": -32.928124,
    "lng": 151.7620702,
    "place_id": "ChIJafKkmEUUc2sRQCMmRFOSlmg",
    "maps_url": "https://www.google.com/maps/place/?q=place_id:ChIJafKkmEUUc2sRQCMmRFOSlmg"
  },
  {
    "name": "No Fuss Computer & Electronic Solutions",
    "address": "193 Pacific Hwy, Charlestown NSW 2290, Australia",
    "suburb": "Charlestown NSW 2290",
    "state": "NSW",
    "rating": 4.8,
    "reviews": 283,
    "lat": -32.96192910000001,
    "lng": 151.6964627,
    "place_id": "ChIJKfPzIxwWc2sRfERU6aQk1Yg",
    "maps_url": "https://www.google.com/maps/place/?q=place_id:ChIJKfPzIxwWc2sRfERU6aQk1Yg"
  },
  {
    "name": "Harvey Norman Bennetts Green",
    "address": "7 Abdon Cl, Bennetts Green NSW 2290, Australia",
    "suburb": "Bennetts Green NSW 2290",
    "state": "NSW",
    "rating": 4,
    "reviews": 1040,
    "lat": -32.994195,
    "lng": 151.6890103,
    "place_id": "ChIJT3jr5mU9c2sRLKse3FLSIsc",
    "maps_url": "https://www.google.com/maps/place/?q=place_id:ChIJT3jr5mU9c2sRLKse3FLSIsc"
  },
  {
    "name": "Newcastle Pro Sound",
    "address": "37 Blue Gum Rd, Jesmond NSW 2299, Australia",
    "suburb": "Jesmond NSW 2299",
    "state": "NSW",
    "rating": 4.7,
    "reviews": 329,
    "lat": -32.9023059,
    "lng": 151.6912496,
    "place_id": "ChIJ9fAz0C0-c2sR88jFscTYVn8",
    "maps_url": "https://www.google.com/maps/place/?q=place_id:ChIJ9fAz0C0-c2sR88jFscTYVn8"
  },
  {
    "name": "Harvey Norman - Clearance Centre Broadmeadow",
    "address": "35 Lambton Rd, Broadmeadow NSW 2292, Australia",
    "suburb": "Broadmeadow NSW 2292",
    "state": "NSW",
    "rating": 4,
    "reviews": 332,
    "lat": -32.9247222,
    "lng": 151.7341667,
    "place_id": "ChIJjR-clLkVc2sRWl5-1nDCTDw",
    "maps_url": "https://www.google.com/maps/place/?q=place_id:ChIJjR-clLkVc2sRWl5-1nDCTDw"
  },
  {
    "name": "Harvey Norman Kotara",
    "address": "Home, 18 Bradford Cl, Kotara NSW 2289, Australia",
    "suburb": "18 Bradford Cl",
    "state": "NSW",
    "rating": 4,
    "reviews": 493,
    "lat": -32.9379616,
    "lng": 151.7089365,
    "place_id": "ChIJWxQTq5YVc2sRieu0HZnMHfw",
    "maps_url": "https://www.google.com/maps/place/?q=place_id:ChIJWxQTq5YVc2sRieu0HZnMHfw"
  },
  {
    "name": "Bowe’s IT Solutions",
    "address": "Shop B/116 Elder St, Lambton NSW 2299, Australia",
    "suburb": "Lambton NSW 2299",
    "state": "NSW",
    "rating": 4.8,
    "reviews": 53,
    "lat": -32.911372,
    "lng": 151.707631,
    "place_id": "ChIJ4cl-7oUVc2sRESrCeWkNVE0",
    "maps_url": "https://www.google.com/maps/place/?q=place_id:ChIJ4cl-7oUVc2sRESrCeWkNVE0"
  },
  {
    "name": "Leading Edge Computers Charlestown",
    "address": "3/139 Pacific Hwy, Charlestown NSW 2290, Australia",
    "suburb": "Charlestown NSW 2290",
    "state": "NSW",
    "rating": 4.7,
    "reviews": 165,
    "lat": -32.963403,
    "lng": 151.6960815,
    "place_id": "ChIJlZRQkYs9c2sRq1_y5cvD36w",
    "maps_url": "https://www.google.com/maps/place/?q=place_id:ChIJlZRQkYs9c2sRq1_y5cvD36w"
  },
  {
    "name": "Camera House - Newcastle",
    "address": "2/14 Northcott Dr, Kotara NSW 2289, Australia",
    "suburb": "Kotara NSW 2289",
    "state": "NSW",
    "rating": 4.3,
    "reviews": 155,
    "lat": -32.9373081,
    "lng": 151.7113964,
    "place_id": "ChIJOxbyfmYUc2sR17vDhzozJi8",
    "maps_url": "https://www.google.com/maps/place/?q=place_id:ChIJOxbyfmYUc2sR17vDhzozJi8"
  },
  {
    "name": "JB Hi-Fi Wollongong Central HOME",
    "address": "Cnr of Crown St &, Wollongong Central Shopping Centre, Store W201, Level 3 Keira St, Wollongong NSW 2500, Australia",
    "suburb": "Wollongong Central Shopping Centre",
    "state": "NSW",
    "rating": 4.2,
    "reviews": 1439,
    "lat": -34.423902,
    "lng": 150.8923523,
    "place_id": "ChIJ841-06UZE2sRbUNCjwzRG10",
    "maps_url": "https://www.google.com/maps/place/?q=place_id:ChIJ841-06UZE2sRbUNCjwzRG10"
  },
  {
    "name": "CeX",
    "address": "Shop N125 Lv01, Central, 200 Crown St, Wollongong NSW 2500, Australia",
    "suburb": "Central",
    "state": "NSW",
    "rating": 3.9,
    "reviews": 161,
    "lat": -34.4247224,
    "lng": 150.893976,
    "place_id": "ChIJFen616UZE2sRy70jNIiqykU",
    "maps_url": "https://www.google.com/maps/place/?q=place_id:ChIJFen616UZE2sRy70jNIiqykU"
  },
  {
    "name": "Jaycar Electronics Wollongong",
    "address": "Unit 1/99 Princes Hwy, Fairy Meadow NSW 2519, Australia",
    "suburb": "Fairy Meadow NSW 2519",
    "state": "NSW",
    "rating": 4.6,
    "reviews": 97,
    "lat": -34.3998096,
    "lng": 150.891514,
    "place_id": "ChIJvQPRerkZE2sRbCJg2DVlAcc",
    "maps_url": "https://www.google.com/maps/place/?q=place_id:ChIJvQPRerkZE2sRbCJg2DVlAcc"
  },
  {
    "name": "Betta Wollongong",
    "address": "149-153 Keira St, Wollongong NSW 2500, Australia",
    "suburb": "Wollongong NSW 2500",
    "state": "NSW",
    "rating": 4.5,
    "reviews": 30,
    "lat": -34.4228274,
    "lng": 150.8941204,
    "place_id": "ChIJ5VTnlksZE2sRrGoAIj6FIp8",
    "maps_url": "https://www.google.com/maps/place/?q=place_id:ChIJ5VTnlksZE2sRrGoAIj6FIp8"
  },
  {
    "name": "MEGA FURNITURE & ELECTRICAL new&used",
    "address": "33 Flinders St, Wollongong NSW 2500, Australia",
    "suburb": "Wollongong NSW 2500",
    "state": "NSW",
    "rating": 5,
    "reviews": 39,
    "lat": -34.4178591,
    "lng": 150.8926728,
    "place_id": "ChIJv2JKX7cZE2sR8qJ5Ep2Jnv8",
    "maps_url": "https://www.google.com/maps/place/?q=place_id:ChIJv2JKX7cZE2sR8qJ5Ep2Jnv8"
  },
  {
    "name": "Sturmans Audio Visual",
    "address": "443 Crown St, West Wollongong NSW 2500, Australia",
    "suburb": "West Wollongong NSW 2500",
    "state": "NSW",
    "rating": 4.9,
    "reviews": 93,
    "lat": -34.4261644,
    "lng": 150.8782385,
    "place_id": "ChIJa7ZxrZAZE2sRdprVwd5-7P0",
    "maps_url": "https://www.google.com/maps/place/?q=place_id:ChIJa7ZxrZAZE2sRdprVwd5-7P0"
  },
  {
    "name": "JB Hi-Fi Erina HOME",
    "address": "Erina Fair Shopping Centre Store AXA02, Terrigal Dr, Erina NSW 2250, Australia",
    "suburb": "Terrigal Dr",
    "state": "NSW",
    "rating": 4.3,
    "reviews": 1824,
    "lat": -33.4356934,
    "lng": 151.3930255,
    "place_id": "ChIJqTwEMHLKcmsRRfS2mQXBeAA",
    "maps_url": "https://www.google.com/maps/place/?q=place_id:ChIJqTwEMHLKcmsRRfS2mQXBeAA"
  },
  {
    "name": "CeX",
    "address": "Westfield Tuggerah, Shop 2015/50 Wyong Rd, Tuggerah NSW 2259, Australia",
    "suburb": "Shop 2015/50 Wyong Rd",
    "state": "NSW",
    "rating": 3.8,
    "reviews": 199,
    "lat": -33.3080597,
    "lng": 151.4121565,
    "place_id": "ChIJg7-MZNzNcmsRiZzl6ws0lB8",
    "maps_url": "https://www.google.com/maps/place/?q=place_id:ChIJg7-MZNzNcmsRiZzl6ws0lB8"
  },
  {
    "name": "Bing Lee West Gosford",
    "address": "Shop T03/392-398 Manns Rd, West Gosford NSW 2250, Australia",
    "suburb": "West Gosford NSW 2250",
    "state": "NSW",
    "rating": 4.3,
    "reviews": 261,
    "lat": -33.42582340000001,
    "lng": 151.3204742,
    "place_id": "ChIJWbVFXnpLDWsRhIiPItBOi80",
    "maps_url": "https://www.google.com/maps/place/?q=place_id:ChIJWbVFXnpLDWsRhIiPItBOi80"
  },
  {
    "name": "JB Hi-Fi Tuggerah",
    "address": "Westfield Tuggerah Shopping Centre, Store 2029, Level 2/50 Wyong Rd, Tuggerah NSW 2259, Australia",
    "suburb": "Store 2029",
    "state": "NSW",
    "rating": 4.3,
    "reviews": 1509,
    "lat": -33.3087803,
    "lng": 151.4122588,
    "place_id": "ChIJqcxqQ9zNcmsRqRNe0EK6oU4",
    "maps_url": "https://www.google.com/maps/place/?q=place_id:ChIJqcxqQ9zNcmsRqRNe0EK6oU4"
  },
  {
    "name": "Harvey Norman Erina",
    "address": "Shopping Complex, 10 Karalta Ln, Erina NSW 2250, Australia",
    "suburb": "10 Karalta Ln",
    "state": "NSW",
    "rating": 3.9,
    "reviews": 681,
    "lat": -33.4367946,
    "lng": 151.3863965,
    "place_id": "ChIJCX9BW3fKcmsRZGLVpSXN3IE",
    "maps_url": "https://www.google.com/maps/place/?q=place_id:ChIJCX9BW3fKcmsRZGLVpSXN3IE"
  },
  {
    "name": "CeX",
    "address": "Shop KM004, Terrigal Dr, Erina NSW 2250, Australia",
    "suburb": "Terrigal Dr",
    "state": "NSW",
    "rating": 3.9,
    "reviews": 43,
    "lat": -33.4380278,
    "lng": 151.3915282,
    "place_id": "ChIJ9wWoTBbLcmsRnHVWvGDhyCM",
    "maps_url": "https://www.google.com/maps/place/?q=place_id:ChIJ9wWoTBbLcmsRnHVWvGDhyCM"
  },
  {
    "name": "Jaycar Electronics Erina",
    "address": "1 Aston Rd, Erina NSW 2250, Australia",
    "suburb": "Erina NSW 2250",
    "state": "NSW",
    "rating": 4.2,
    "reviews": 90,
    "lat": -33.4348748,
    "lng": 151.3845062,
    "place_id": "ChIJ6bDjDXrKcmsRuer1jxDrCBk",
    "maps_url": "https://www.google.com/maps/place/?q=place_id:ChIJ6bDjDXrKcmsRuer1jxDrCBk"
  },
  {
    "name": "The Good Guys Erina",
    "address": "Shop Axa 05, Erina Fair Shopping Centre, 620/658 Terrigal Dr, Erina NSW 2250, Australia",
    "suburb": "Erina Fair Shopping Centre",
    "state": "NSW",
    "rating": 3.8,
    "reviews": 437,
    "lat": -33.4353926,
    "lng": 151.3919838,
    "place_id": "ChIJUw0RbXfKcmsRFJGbU7b4i5o",
    "maps_url": "https://www.google.com/maps/place/?q=place_id:ChIJUw0RbXfKcmsRFJGbU7b4i5o"
  },
  {
    "name": "PCGAMER - PC Gaming on the Central Coast",
    "address": "Opposite Harvey Norman, 12b Karalta Ln, Erina NSW 2250, Australia",
    "suburb": "12b Karalta Ln",
    "state": "NSW",
    "rating": 5,
    "reviews": 119,
    "lat": -33.4372712,
    "lng": 151.3855484,
    "place_id": "ChIJK6S85OalEmsRJ3dGNpjfC1M",
    "maps_url": "https://www.google.com/maps/place/?q=place_id:ChIJK6S85OalEmsRJ3dGNpjfC1M"
  },
  {
    "name": "JB Hi-Fi Lake Haven",
    "address": "Lake Haven Shopping Centre, Shop 68/43 Lake Haven Dr, Lake Haven NSW 2263, Australia",
    "suburb": "Shop 68/43 Lake Haven Dr",
    "state": "NSW",
    "rating": 4.2,
    "reviews": 897,
    "lat": -33.2401659,
    "lng": 151.5035409,
    "place_id": "ChIJxYeKb6PQcmsRKhxKpgv7S-0",
    "maps_url": "https://www.google.com/maps/place/?q=place_id:ChIJxYeKb6PQcmsRKhxKpgv7S-0"
  },
  {
    "name": "Jaycar Electronics Tuggerah",
    "address": "118 Pacific Hwy, Tuggerah NSW 2259, Australia",
    "suburb": "Tuggerah NSW 2259",
    "state": "NSW",
    "rating": 4.8,
    "reviews": 98,
    "lat": -33.3044633,
    "lng": 151.4202325,
    "place_id": "ChIJbUKehArOcmsRhiZ5yBrnMFo",
    "maps_url": "https://www.google.com/maps/place/?q=place_id:ChIJbUKehArOcmsRhiZ5yBrnMFo"
  },
  {
    "name": "The Good Guys Tuggerah",
    "address": "Shops 4 & 5, Tuggerah Super Centre Corner Wyong Road &, Bryant Dr, Tuggerah NSW 2259, Australia",
    "suburb": "Tuggerah Super Centre Corner Wyong Road &",
    "state": "NSW",
    "rating": 3.6,
    "reviews": 453,
    "lat": -33.3088451,
    "lng": 151.4212667,
    "place_id": "ChIJYUGrDXbOcmsRSFmh40KaEVw",
    "maps_url": "https://www.google.com/maps/place/?q=place_id:ChIJYUGrDXbOcmsRSFmh40KaEVw"
  },
  {
    "name": "Harvey Norman @ Domayne West Gosford",
    "address": "Domayne, 400 Manns Rd, West Gosford NSW 2250, Australia",
    "suburb": "400 Manns Rd",
    "state": "NSW",
    "rating": 3.9,
    "reviews": 187,
    "lat": -33.4266158,
    "lng": 151.3194718,
    "place_id": "ChIJ2Qd9QcxLDWsRLto7BAS4mX0",
    "maps_url": "https://www.google.com/maps/place/?q=place_id:ChIJ2Qd9QcxLDWsRLto7BAS4mX0"
  },
  {
    "name": "Harvey Norman Lake Haven",
    "address": "59-83 Pacific Hwy, Charmhaven NSW 2263, Australia",
    "suburb": "Charmhaven NSW 2263",
    "state": "NSW",
    "rating": 3.9,
    "reviews": 661,
    "lat": -33.2378715,
    "lng": 151.5014738,
    "place_id": "ChIJB0gzWrzQcmsR63J8vgTd2zA",
    "maps_url": "https://www.google.com/maps/place/?q=place_id:ChIJB0gzWrzQcmsR63J8vgTd2zA"
  },
  {
    "name": "The Computer Guy",
    "address": "3/8 O'Hart Cl, Charmhaven NSW 2263, Australia",
    "suburb": "Charmhaven NSW 2263",
    "state": "NSW",
    "rating": 4.9,
    "reviews": 262,
    "lat": -33.2401252,
    "lng": 151.4955145,
    "place_id": "ChIJb3ubd77QcmsR34ERsnGzCeI",
    "maps_url": "https://www.google.com/maps/place/?q=place_id:ChIJb3ubd77QcmsR34ERsnGzCeI"
  },
  {
    "name": "Phaser Computers",
    "address": "1/80 Somersby Falls Rd, Somersby NSW 2250, Australia",
    "suburb": "Somersby NSW 2250",
    "state": "NSW",
    "rating": 4.8,
    "reviews": 106,
    "lat": -33.412343,
    "lng": 151.2826118,
    "place_id": "ChIJ25eBSKPKcmsRRUNbKb-alM4",
    "maps_url": "https://www.google.com/maps/place/?q=place_id:ChIJ25eBSKPKcmsRRUNbKb-alM4"
  },
  {
    "name": "iFix Electronics",
    "address": "3/221 The Entrance Rd, Erina NSW 2250, Australia",
    "suburb": "Erina NSW 2250",
    "state": "NSW",
    "rating": 4.9,
    "reviews": 146,
    "lat": -33.4348964,
    "lng": 151.3858737,
    "place_id": "ChIJAbV0FcHLcmsRdG4-4OrNYC8",
    "maps_url": "https://www.google.com/maps/place/?q=place_id:ChIJAbV0FcHLcmsRdG4-4OrNYC8"
  },
  {
    "name": "Albatross Computers",
    "address": "10 Blackwall Rd, Woy Woy NSW 2256, Australia",
    "suburb": "Woy Woy NSW 2256",
    "state": "NSW",
    "rating": 4.2,
    "reviews": 58,
    "lat": -33.4849077,
    "lng": 151.324398,
    "place_id": "ChIJEX6Y_DRLDWsRf9Au-4O2M90",
    "maps_url": "https://www.google.com/maps/place/?q=place_id:ChIJEX6Y_DRLDWsRf9Au-4O2M90"
  },
  {
    "name": "Domayne West Gosford",
    "address": "400 Manns Rd, West Gosford NSW 2250, Australia",
    "suburb": "West Gosford NSW 2250",
    "state": "NSW",
    "rating": 3.9,
    "reviews": 269,
    "lat": -33.4265847,
    "lng": 151.3195426,
    "place_id": "ChIJaSJI8abKcmsRGG70jzs4IvY",
    "maps_url": "https://www.google.com/maps/place/?q=place_id:ChIJaSJI8abKcmsRGG70jzs4IvY"
  },
  {
    "name": "Camera House - Erina",
    "address": "Fountain Plaza, Shop 15/148 The Entrance Rd, Erina NSW 2250, Australia",
    "suburb": "Shop 15/148 The Entrance Rd",
    "state": "NSW",
    "rating": 4.5,
    "reviews": 204,
    "lat": -33.4385329,
    "lng": 151.3829652,
    "place_id": "ChIJt4TDW3jKcmsRT3WF8mSdT0A",
    "maps_url": "https://www.google.com/maps/place/?q=place_id:ChIJt4TDW3jKcmsRT3WF8mSdT0A"
  },
  {
    "name": "Bing Lee Penrith",
    "address": "Home Consortium - Penrith, Shop T3/72-82 Mulgoa Rd, Penrith NSW 2750, Australia",
    "suburb": "Shop T3/72-82 Mulgoa Rd",
    "state": "NSW",
    "rating": 4.5,
    "reviews": 318,
    "lat": -33.7644573,
    "lng": 150.6826397,
    "place_id": "ChIJIa28-bSIEmsRCcyVjEjCnk8",
    "maps_url": "https://www.google.com/maps/place/?q=place_id:ChIJIa28-bSIEmsRCcyVjEjCnk8"
  },
  {
    "name": "JB Hi-Fi Penrith Westfield HOME",
    "address": "Store MM1/21-55 Station St, Penrith NSW 2750, Australia",
    "suburb": "Penrith NSW 2750",
    "state": "NSW",
    "rating": 4.2,
    "reviews": 2134,
    "lat": -33.7507887,
    "lng": 150.6953459,
    "place_id": "ChIJcf8fefOFEmsR1LXDj9cGJFc",
    "maps_url": "https://www.google.com/maps/place/?q=place_id:ChIJcf8fefOFEmsR1LXDj9cGJFc"
  },
  {
    "name": "Jaycar Electronics Penrith",
    "address": "20 Henry St, Penrith NSW 2750, Australia",
    "suburb": "Penrith NSW 2750",
    "state": "NSW",
    "rating": 4.3,
    "reviews": 127,
    "lat": -33.7543963,
    "lng": 150.7058147,
    "place_id": "ChIJ0RXYzo6FEmsR7N9OSINb-Ms",
    "maps_url": "https://www.google.com/maps/place/?q=place_id:ChIJ0RXYzo6FEmsR7N9OSINb-Ms"
  },
  {
    "name": "Harvey Norman Penrith",
    "address": "Cnr Wolseley St &, Penrith Homemaker Centre, Unit 1B Mulgoa Rd, Jamisontown NSW 2750, Australia",
    "suburb": "Penrith Homemaker Centre",
    "state": "NSW",
    "rating": 4,
    "reviews": 1220,
    "lat": -33.7714828,
    "lng": 150.6704555,
    "place_id": "ChIJFRPcQLWIEmsRcXT8qmngXvI",
    "maps_url": "https://www.google.com/maps/place/?q=place_id:ChIJFRPcQLWIEmsRcXT8qmngXvI"
  },
  {
    "name": "CeX",
    "address": "SP034, Nepean Village, Woodriff St, Penrith NSW 2750, Australia",
    "suburb": "Nepean Village",
    "state": "NSW",
    "rating": 3.8,
    "reviews": 252,
    "lat": -33.7569184,
    "lng": 150.6926895,
    "place_id": "ChIJ0yUIVF-PEmsR6pb6oLS4-A4",
    "maps_url": "https://www.google.com/maps/place/?q=place_id:ChIJ0yUIVF-PEmsR6pb6oLS4-A4"
  },
  {
    "name": "The Good Guys Penrith",
    "address": "88-90 Mulgoa Rd, Penrith NSW 2750, Australia",
    "suburb": "Penrith NSW 2750",
    "state": "NSW",
    "rating": 3.9,
    "reviews": 803,
    "lat": -33.7660198,
    "lng": 150.6804994,
    "place_id": "ChIJw0jBYIyFEmsRlH44sZDF6PM",
    "maps_url": "https://www.google.com/maps/place/?q=place_id:ChIJw0jBYIyFEmsRlH44sZDF6PM"
  },
  {
    "name": "Kmart Penrith",
    "address": "Nepean S/C Cnr Station & Reserve Sts, Reserve St, Penrith NSW 2750, Australia",
    "suburb": "Reserve St",
    "state": "NSW",
    "rating": 4.1,
    "reviews": 3057,
    "lat": -33.7572931,
    "lng": 150.6933227,
    "place_id": "ChIJ_63E5fWFEmsRQErp9cOjKJE",
    "maps_url": "https://www.google.com/maps/place/?q=place_id:ChIJ_63E5fWFEmsRQErp9cOjKJE"
  },
  {
    "name": "BIG W Penrith",
    "address": "569-595 High St, Penrith NSW 2750, Australia",
    "suburb": "Penrith NSW 2750",
    "state": "NSW",
    "rating": 4.1,
    "reviews": 1673,
    "lat": -33.7504681,
    "lng": 150.6907182,
    "place_id": "ChIJy7os__OFEmsRoaBXTqUVZdI",
    "maps_url": "https://www.google.com/maps/place/?q=place_id:ChIJy7os__OFEmsRoaBXTqUVZdI"
  },
  {
    "name": "Harvey Norman 2nds World Penrith",
    "address": "Penrith Homemaker Centre, 303 Mulgoa Rd, Jamisontown NSW 2750, Australia",
    "suburb": "303 Mulgoa Rd",
    "state": "NSW",
    "rating": 3.7,
    "reviews": 170,
    "lat": -33.7713927,
    "lng": 150.6702153,
    "place_id": "ChIJXdhruDiJEmsRlIHco_deMvw",
    "maps_url": "https://www.google.com/maps/place/?q=place_id:ChIJXdhruDiJEmsRlIHco_deMvw"
  },
  {
    "name": "JB Hi-Fi Jamisontown",
    "address": "Penrith Homemaker Centre Store 28 Corner Mulgoa Road &, Wolseley St, Jamisontown NSW 2750, Australia",
    "suburb": "Wolseley St",
    "state": "NSW",
    "rating": 4.3,
    "reviews": 913,
    "lat": -33.7701237,
    "lng": 150.6709934,
    "place_id": "ChIJxbvPaLWIEmsRO8S32BZ9E0s",
    "maps_url": "https://www.google.com/maps/place/?q=place_id:ChIJxbvPaLWIEmsRO8S32BZ9E0s"
  },
  {
    "name": "Officeworks Penrith",
    "address": "273 High St, South Penrith NSW 2750, Australia",
    "suburb": "South Penrith NSW 2750",
    "state": "NSW",
    "rating": 3.6,
    "reviews": 511,
    "lat": -33.7545779,
    "lng": 150.703191,
    "place_id": "ChIJm5bX9ouFEmsRSvrzSKbOrL4",
    "maps_url": "https://www.google.com/maps/place/?q=place_id:ChIJm5bX9ouFEmsRSvrzSKbOrL4"
  },
  {
    "name": "Apple Penrith",
    "address": "Westfield Penrith, 585 High St, Penrith NSW 2750, Australia",
    "suburb": "585 High St",
    "state": "NSW",
    "rating": 3.6,
    "reviews": 1245,
    "lat": -33.7513307,
    "lng": 150.6946215,
    "place_id": "ChIJPZ0Z_POFEmsR_Gf66eguCgU",
    "maps_url": "https://www.google.com/maps/place/?q=place_id:ChIJPZ0Z_POFEmsR_Gf66eguCgU"
  },
  {
    "name": "Domayne Penrith",
    "address": "Penrith Homemaker Centre, Mulgoa Rd, Jamisontown NSW 2750, Australia",
    "suburb": "Mulgoa Rd",
    "state": "NSW",
    "rating": 3.8,
    "reviews": 172,
    "lat": -33.7712874,
    "lng": 150.6719176,
    "place_id": "ChIJS4qLQLWIEmsRjyIXe_EN-w4",
    "maps_url": "https://www.google.com/maps/place/?q=place_id:ChIJS4qLQLWIEmsRjyIXe_EN-w4"
  },
  {
    "name": "Penrith Homemaker",
    "address": "Wolseley St, Jamisontown NSW 2749, Australia",
    "suburb": "Jamisontown NSW 2749",
    "state": "NSW",
    "rating": 4.3,
    "reviews": 2912,
    "lat": -33.76988170000001,
    "lng": 150.6708825,
    "place_id": "ChIJJ4VvxrWIEmsRiuFDLqM4hoc",
    "maps_url": "https://www.google.com/maps/place/?q=place_id:ChIJJ4VvxrWIEmsRiuFDLqM4hoc"
  },
  {
    "name": "Dcomp",
    "address": "2/251 High St, Penrith NSW 2750, Australia",
    "suburb": "Penrith NSW 2750",
    "state": "NSW",
    "rating": 4.5,
    "reviews": 277,
    "lat": -33.7548187,
    "lng": 150.7043837,
    "place_id": "ChIJIU2KU4mFEmsReQQZWDICoNk",
    "maps_url": "https://www.google.com/maps/place/?q=place_id:ChIJIU2KU4mFEmsReQQZWDICoNk"
  },
  {
    "name": "Westfield Penrith",
    "address": "585 High St, Penrith NSW 2750, Australia",
    "suburb": "Penrith NSW 2750",
    "state": "NSW",
    "rating": 4.3,
    "reviews": 8978,
    "lat": -33.7514526,
    "lng": 150.693523,
    "place_id": "ChIJ2aEGHvSFEmsReJIZRzg7TJM",
    "maps_url": "https://www.google.com/maps/place/?q=place_id:ChIJ2aEGHvSFEmsReJIZRzg7TJM"
  },
  {
    "name": "Myer Penrith",
    "address": "585 High St, Penrith NSW 2750, Australia",
    "suburb": "Penrith NSW 2750",
    "state": "NSW",
    "rating": 4,
    "reviews": 1471,
    "lat": -33.7513421,
    "lng": 150.6934793,
    "place_id": "ChIJ2aEGHvSFEmsRl1sn8w77iE4",
    "maps_url": "https://www.google.com/maps/place/?q=place_id:ChIJ2aEGHvSFEmsRl1sn8w77iE4"
  },
  {
    "name": "Computer Discounts Penrith",
    "address": "Shop 1A/269 High St, Penrith NSW 2750, Australia",
    "suburb": "Penrith NSW 2750",
    "state": "NSW",
    "rating": 4.4,
    "reviews": 57,
    "lat": -33.754589,
    "lng": 150.7036385,
    "place_id": "ChIJ37n8-ouFEmsRx_HvABiAtro",
    "maps_url": "https://www.google.com/maps/place/?q=place_id:ChIJ37n8-ouFEmsRx_HvABiAtro"
  },
  {
    "name": "Nepean Micro Computers",
    "address": "4/320 High St, Penrith NSW 2750, Australia",
    "suburb": "Penrith NSW 2750",
    "state": "NSW",
    "rating": 4.3,
    "reviews": 34,
    "lat": -33.7544884,
    "lng": 150.7006541,
    "place_id": "ChIJXafHdouFEmsRKrIGeSG3tnE",
    "maps_url": "https://www.google.com/maps/place/?q=place_id:ChIJXafHdouFEmsRKrIGeSG3tnE"
  },
  {
    "name": "Nepean Village",
    "address": "Woodriff St, Penrith NSW 2750, Australia",
    "suburb": "Penrith NSW 2750",
    "state": "NSW",
    "rating": 4.2,
    "reviews": 4208,
    "lat": -33.7570466,
    "lng": 150.6926263,
    "place_id": "ChIJo1DtTV-PEmsRkC7z-Wh9AQ8",
    "maps_url": "https://www.google.com/maps/place/?q=place_id:ChIJo1DtTV-PEmsRkC7z-Wh9AQ8"
  },
  {
    "name": "Jaycar Electronics Blacktown",
    "address": "Unit 2/102 Sunnyholt Rd, Blacktown NSW 2148, Australia",
    "suburb": "Blacktown NSW 2148",
    "state": "NSW",
    "rating": 4.4,
    "reviews": 139,
    "lat": -33.7576651,
    "lng": 150.9140821,
    "place_id": "ChIJO9NXAuSYEmsROvB_QmAMpFs",
    "maps_url": "https://www.google.com/maps/place/?q=place_id:ChIJO9NXAuSYEmsROvB_QmAMpFs"
  },
  {
    "name": "JB Hi-Fi Blacktown",
    "address": "Westpoint Blacktown Shopping Centre Store MM2077, Level 2/17 Patrick St, Blacktown NSW 2148, Australia",
    "suburb": "Level 2/17 Patrick St",
    "state": "NSW",
    "rating": 4.1,
    "reviews": 2635,
    "lat": -33.7699236,
    "lng": 150.9045794,
    "place_id": "ChIJTaC-f6qZEmsRmgxwk3S4Mwk",
    "maps_url": "https://www.google.com/maps/place/?q=place_id:ChIJTaC-f6qZEmsRmgxwk3S4Mwk"
  },
  {
    "name": "Bing Lee Blacktown",
    "address": "Blacktown Mega Centre, 3B/4B St Martins Cres, Blacktown NSW 2148, Australia",
    "suburb": "3B/4B St Martins Cres",
    "state": "NSW",
    "rating": 4.1,
    "reviews": 306,
    "lat": -33.7811566,
    "lng": 150.9191395,
    "place_id": "ChIJs4XFfFCYEmsRws4GzXgRkQk",
    "maps_url": "https://www.google.com/maps/place/?q=place_id:ChIJs4XFfFCYEmsRws4GzXgRkQk"
  },
  {
    "name": "CeX",
    "address": "Westpoint Shopping Centre, Shop 1030/17 Patrick St, Blacktown NSW 2148, Australia",
    "suburb": "Shop 1030/17 Patrick St",
    "state": "NSW",
    "rating": 3.8,
    "reviews": 226,
    "lat": -33.770303,
    "lng": 150.9066973,
    "place_id": "ChIJ3zMcEACZEmsReefORK78R_w",
    "maps_url": "https://www.google.com/maps/place/?q=place_id:ChIJ3zMcEACZEmsReefORK78R_w"
  },
  {
    "name": "Kmart Blacktown",
    "address": "28 Patrick St, Blacktown NSW 2148, Australia",
    "suburb": "Blacktown NSW 2148",
    "state": "NSW",
    "rating": 4.1,
    "reviews": 5925,
    "lat": -33.7725022,
    "lng": 150.9063131,
    "place_id": "ChIJFzaLvKqZEmsR6msgh_nIYX0",
    "maps_url": "https://www.google.com/maps/place/?q=place_id:ChIJFzaLvKqZEmsR6msgh_nIYX0"
  },
  {
    "name": "Harvey Norman Blacktown",
    "address": "Unit C5 Bungarribee Rd, Blacktown NSW 2148, Australia",
    "suburb": "Blacktown NSW 2148",
    "state": "NSW",
    "rating": 3.5,
    "reviews": 959,
    "lat": -33.78029739999999,
    "lng": 150.9185946,
    "place_id": "ChIJ8U8ijFCYEmsRjmdf7Mexl40",
    "maps_url": "https://www.google.com/maps/place/?q=place_id:ChIJ8U8ijFCYEmsRjmdf7Mexl40"
  },
  {
    "name": "The Good Guys Blacktown",
    "address": "Homebase Shopping Centre, shop 17/19 Stoddart Rd, Prospect NSW 2148, Australia",
    "suburb": "shop 17/19 Stoddart Rd",
    "state": "NSW",
    "rating": 3.7,
    "reviews": 772,
    "lat": -33.802326,
    "lng": 150.919479,
    "place_id": "ChIJtd-OgDCYEmsRWfvfnqLvuMg",
    "maps_url": "https://www.google.com/maps/place/?q=place_id:ChIJtd-OgDCYEmsRWfvfnqLvuMg"
  },
  {
    "name": "Blacktown Mega Centre",
    "address": "14 St Martins Cres, Blacktown NSW 2148, Australia",
    "suburb": "Blacktown NSW 2148",
    "state": "NSW",
    "rating": 4.1,
    "reviews": 2770,
    "lat": -33.7812024,
    "lng": 150.9189913,
    "place_id": "ChIJ2TDHe1qYEmsR0I1VSbQ1JNY",
    "maps_url": "https://www.google.com/maps/place/?q=place_id:ChIJ2TDHe1qYEmsR0I1VSbQ1JNY"
  },
  {
    "name": "Bing Lee Prospect",
    "address": "Shop 29, Homemaker Centre, 19 Stoddart Rd, Prospect NSW 2148, Australia",
    "suburb": "Homemaker Centre",
    "state": "NSW",
    "rating": 4.1,
    "reviews": 311,
    "lat": -33.8006517,
    "lng": 150.9199318,
    "place_id": "ChIJz5cAnjCYEmsRJmly1qqMpIE",
    "maps_url": "https://www.google.com/maps/place/?q=place_id:ChIJz5cAnjCYEmsRJmly1qqMpIE"
  },
  {
    "name": "CeX",
    "address": "Westfield Liverpool, Shop 155-56 Macquarie St, Liverpool NSW 2170, Australia",
    "suburb": "Shop 155-56 Macquarie St",
    "state": "NSW",
    "rating": 3.7,
    "reviews": 273,
    "lat": -33.9192344,
    "lng": 150.924421,
    "place_id": "ChIJ_9wrP7mVEmsROacz1zZjn2Q",
    "maps_url": "https://www.google.com/maps/place/?q=place_id:ChIJ_9wrP7mVEmsROacz1zZjn2Q"
  },
  {
    "name": "JB Hi-Fi Liverpool",
    "address": "Store 1024/1 Macquarie St, Liverpool NSW 2170, Australia",
    "suburb": "Liverpool NSW 2170",
    "state": "NSW",
    "rating": 4.2,
    "reviews": 2543,
    "lat": -33.9197468,
    "lng": 150.9237866,
    "place_id": "ChIJPfOwNMeVEmsR1EqunCKJSvc",
    "maps_url": "https://www.google.com/maps/place/?q=place_id:ChIJPfOwNMeVEmsR1EqunCKJSvc"
  },
  {
    "name": "Emporium Electronics",
    "address": "7 Secant St, Liverpool NSW 2170, Australia",
    "suburb": "Liverpool NSW 2170",
    "state": "NSW",
    "rating": 5,
    "reviews": 29,
    "lat": -33.9184381,
    "lng": 150.9214167,
    "place_id": "ChIJmaeWAbCVEmsRK_7Xyv9Wrsw",
    "maps_url": "https://www.google.com/maps/place/?q=place_id:ChIJmaeWAbCVEmsRK_7Xyv9Wrsw"
  },
  {
    "name": "Bing Lee Liverpool",
    "address": "The Grove Homemaker Centre Shop R31 2, 18 Orange Grove Rd, Liverpool NSW 2170, Australia",
    "suburb": "18 Orange Grove Rd",
    "state": "NSW",
    "rating": 3.8,
    "reviews": 262,
    "lat": -33.9065718,
    "lng": 150.9204039,
    "place_id": "ChIJ40EOxriVEmsRxfaB_hELytM",
    "maps_url": "https://www.google.com/maps/place/?q=place_id:ChIJ40EOxriVEmsRxfaB_hELytM"
  },
  {
    "name": "Harvey Norman Liverpool",
    "address": "Mega Centre, Shop R19/18 Orange Grove Rd, Liverpool NSW 2170, Australia",
    "suburb": "Shop R19/18 Orange Grove Rd",
    "state": "NSW",
    "rating": 3.8,
    "reviews": 1471,
    "lat": -33.9063548,
    "lng": 150.9192758,
    "place_id": "ChIJXWLWq9qVEmsRTryS0CGLx2E",
    "maps_url": "https://www.google.com/maps/place/?q=place_id:ChIJXWLWq9qVEmsRTryS0CGLx2E"
  },
  {
    "name": "Westfield Liverpool",
    "address": "Macquarie St, Liverpool NSW 2170, Australia",
    "suburb": "Liverpool NSW 2170",
    "state": "NSW",
    "rating": 4.2,
    "reviews": 11802,
    "lat": -33.9180354,
    "lng": 150.9242222,
    "place_id": "ChIJD21XvriVEmsRuplosG1AHNY",
    "maps_url": "https://www.google.com/maps/place/?q=place_id:ChIJD21XvriVEmsRuplosG1AHNY"
  },
  {
    "name": "Samsung Liverpool",
    "address": "Lvl 1 Shop 184 Westfields, Liverpool NSW 2170, Australia",
    "suburb": "Liverpool NSW 2170",
    "state": "NSW",
    "rating": 4.2,
    "reviews": 748,
    "lat": -33.9195964,
    "lng": 150.9245737,
    "place_id": "ChIJsa9qvLiVEmsRwc9vTTiY4-g",
    "maps_url": "https://www.google.com/maps/place/?q=place_id:ChIJsa9qvLiVEmsRwc9vTTiY4-g"
  },
  {
    "name": "The Grove Homemaker Centre",
    "address": "Shop R19/18 Orange Grove Rd, Liverpool NSW 2170, Australia",
    "suburb": "Liverpool NSW 2170",
    "state": "NSW",
    "rating": 4.1,
    "reviews": 2097,
    "lat": -33.9065734,
    "lng": 150.9204442,
    "place_id": "ChIJi_gSxNqVEmsR4C3z-Wh9AQ8",
    "maps_url": "https://www.google.com/maps/place/?q=place_id:ChIJi_gSxNqVEmsR4C3z-Wh9AQ8"
  },
  {
    "name": "Jaycar Electronics Hoxton Park",
    "address": "T8, Hoxton Park Central, 2 Lyn Parade, Prestons NSW 2170, Australia",
    "suburb": "Hoxton Park Central",
    "state": "NSW",
    "rating": 4.5,
    "reviews": 120,
    "lat": -33.928843,
    "lng": 150.888924,
    "place_id": "ChIJYxl7vrqVEmsRZRIOf53sPXE",
    "maps_url": "https://www.google.com/maps/place/?q=place_id:ChIJYxl7vrqVEmsRZRIOf53sPXE"
  },
  {
    "name": "CeX",
    "address": "54 Lord St, Liverpool L2 1TD, UK",
    "suburb": "Liverpool L2 1TD",
    "state": "NSW",
    "rating": 4,
    "reviews": 815,
    "lat": 53.4051126,
    "lng": -2.9872178,
    "place_id": "ChIJKwkRry8he0gR9rRRJioon0c",
    "maps_url": "https://www.google.com/maps/place/?q=place_id:ChIJKwkRry8he0gR9rRRJioon0c"
  },
  {
    "name": "Powerland Electronics",
    "address": "Unit 16/11 Sappho Rd, Warwick Farm NSW 2170, Australia",
    "suburb": "Warwick Farm NSW 2170",
    "state": "NSW",
    "rating": 4.4,
    "reviews": 517,
    "lat": -33.9078188,
    "lng": 150.939398,
    "place_id": "ChIJh4imbuSVEmsRO440ZUXY9Ds",
    "maps_url": "https://www.google.com/maps/place/?q=place_id:ChIJh4imbuSVEmsRO440ZUXY9Ds"
  },
  {
    "name": "CeX",
    "address": "Unit 9, Central Shopping Centre, Liverpool L1 1QE, UK",
    "suburb": "Central Shopping Centre",
    "state": "NSW",
    "rating": 4.1,
    "reviews": 201,
    "lat": 53.40463399999999,
    "lng": -2.979788,
    "place_id": "ChIJQXgV-CQhe0gReIOVzNbklyQ",
    "maps_url": "https://www.google.com/maps/place/?q=place_id:ChIJQXgV-CQhe0gReIOVzNbklyQ"
  },
  {
    "name": "Pacific Hi Fi",
    "address": "62 Macquarie St, Liverpool NSW 2170, Australia",
    "suburb": "Liverpool NSW 2170",
    "state": "NSW",
    "rating": 4.4,
    "reviews": 149,
    "lat": -33.9172222,
    "lng": 150.9248403,
    "place_id": "ChIJPfOwNMeVEmsRUlTuH9PxDvo",
    "maps_url": "https://www.google.com/maps/place/?q=place_id:ChIJPfOwNMeVEmsRUlTuH9PxDvo"
  },
  {
    "name": "DIRECT APPLIANCES",
    "address": "1 Speed St, Liverpool NSW 2170, Australia",
    "suburb": "Liverpool NSW 2170",
    "state": "NSW",
    "rating": 2.8,
    "reviews": 74,
    "lat": -33.925885,
    "lng": 150.9249198,
    "place_id": "ChIJkYtxo2CVEmsRr-TwiJYOdPM",
    "maps_url": "https://www.google.com/maps/place/?q=place_id:ChIJkYtxo2CVEmsRr-TwiJYOdPM"
  },
  {
    "name": "BIG W Liverpool",
    "address": "25 George St, Liverpool NSW 2170, Australia",
    "suburb": "Liverpool NSW 2170",
    "state": "NSW",
    "rating": 4.1,
    "reviews": 1419,
    "lat": -33.9194644,
    "lng": 150.9225474,
    "place_id": "ChIJxXLDQ7mVEmsR89c-AWuX9VA",
    "maps_url": "https://www.google.com/maps/place/?q=place_id:ChIJxXLDQ7mVEmsR89c-AWuX9VA"
  },
  {
    "name": "Astron Electronics",
    "address": "2/62 Macquarie St, Liverpool NSW 2170, Australia",
    "suburb": "Liverpool NSW 2170",
    "state": "NSW",
    "rating": 4.4,
    "reviews": 53,
    "lat": -33.917239,
    "lng": 150.925082,
    "place_id": "ChIJPfOwNMeVEmsRrxrk1jl5_HY",
    "maps_url": "https://www.google.com/maps/place/?q=place_id:ChIJPfOwNMeVEmsRrxrk1jl5_HY"
  },
  {
    "name": "Wagner Electronics",
    "address": "84-90 Parramatta Rd, Summer Hill NSW 2130, Australia",
    "suburb": "Summer Hill NSW 2130",
    "state": "NSW",
    "rating": 4.8,
    "reviews": 1734,
    "lat": -33.8867703,
    "lng": 151.1396562,
    "place_id": "ChIJ-R_oGJi6EmsRJFI8SHZJkgQ",
    "maps_url": "https://www.google.com/maps/place/?q=place_id:ChIJ-R_oGJi6EmsRJFI8SHZJkgQ"
  },
  {
    "name": "Sydney Outlet Village [formerly Fashion Spree]",
    "address": "5 Viscount Pl, Warwick Farm NSW 2170, Australia",
    "suburb": "Warwick Farm NSW 2170",
    "state": "NSW",
    "rating": 4.2,
    "reviews": 3708,
    "lat": -33.9079106,
    "lng": 150.9220323,
    "place_id": "ChIJ99xSKMWVEmsRrBRQ1KNAEo0",
    "maps_url": "https://www.google.com/maps/place/?q=place_id:ChIJ99xSKMWVEmsRrBRQ1KNAEo0"
  },
  {
    "name": "Myer Liverpool",
    "address": "Macquarie St, Liverpool NSW 2170, Australia",
    "suburb": "Liverpool NSW 2170",
    "state": "NSW",
    "rating": 4.1,
    "reviews": 2447,
    "lat": -33.9188499,
    "lng": 150.9250336,
    "place_id": "ChIJX8M6U7-VEmsRux5zmakFSk0",
    "maps_url": "https://www.google.com/maps/place/?q=place_id:ChIJX8M6U7-VEmsRux5zmakFSk0"
  },
  {
    "name": "Coles Liverpool Westfield",
    "address": "Northumberland St &, Westfield Liverpool, Elizabeth Dr, Liverpool NSW 2170, Australia",
    "suburb": "Westfield Liverpool",
    "state": "NSW",
    "rating": 3.9,
    "reviews": 1418,
    "lat": -33.9194132,
    "lng": 150.9237788,
    "place_id": "ChIJh_sZV7iVEmsR6qWVFsnSYaA",
    "maps_url": "https://www.google.com/maps/place/?q=place_id:ChIJh_sZV7iVEmsR6qWVFsnSYaA"
  },
  {
    "name": "Jaycar Electronics Campbelltown",
    "address": "Unit 2/4 Rose St, Campbelltown NSW 2560, Australia",
    "suburb": "Campbelltown NSW 2560",
    "state": "NSW",
    "rating": 4.4,
    "reviews": 157,
    "lat": -34.0568541,
    "lng": 150.8186908,
    "place_id": "ChIJr-PKtfbuEmsRq0Z-XLXryoQ",
    "maps_url": "https://www.google.com/maps/place/?q=place_id:ChIJr-PKtfbuEmsRq0Z-XLXryoQ"
  },
  {
    "name": "S & S Electronics Campbelltown",
    "address": "189 Queen St, Campbelltown NSW 2560, Australia",
    "suburb": "Campbelltown NSW 2560",
    "state": "NSW",
    "rating": 5,
    "reviews": 10,
    "lat": -34.0672069,
    "lng": 150.8136749,
    "place_id": "ChIJ8XYve4TvEmsRIuCFW-QpuTc",
    "maps_url": "https://www.google.com/maps/place/?q=place_id:ChIJ8XYve4TvEmsRIuCFW-QpuTc"
  },
  {
    "name": "JB Hi-Fi Campbelltown",
    "address": "Macarthur Square Shopping Centre, Store L086, Level 2/200 Gilchrist Dr, Campbelltown NSW 2560, Australia",
    "suburb": "Store L086",
    "state": "NSW",
    "rating": 4.2,
    "reviews": 2947,
    "lat": -34.0733702,
    "lng": 150.796945,
    "place_id": "ChIJ26WTK7LvEmsRtExDQwMgGc4",
    "maps_url": "https://www.google.com/maps/place/?q=place_id:ChIJ26WTK7LvEmsRtExDQwMgGc4"
  },
  {
    "name": "Bing Lee Campbelltown",
    "address": "6/24 Blaxland Rd, Campbelltown NSW 2560, Australia",
    "suburb": "Campbelltown NSW 2560",
    "state": "NSW",
    "rating": 4.2,
    "reviews": 447,
    "lat": -34.0588381,
    "lng": 150.816884,
    "place_id": "ChIJ5ajr2PXuEmsRRAmEE42avVs",
    "maps_url": "https://www.google.com/maps/place/?q=place_id:ChIJ5ajr2PXuEmsRRAmEE42avVs"
  },
  {
    "name": "CeX",
    "address": "Campbelltown Mall, Shop U65/271 Queen St, Campbelltown NSW 2560, Australia",
    "suburb": "Shop U65/271 Queen St",
    "state": "NSW",
    "rating": 3.6,
    "reviews": 132,
    "lat": -34.0682928,
    "lng": 150.8098231,
    "place_id": "ChIJc9uer3zvEmsR6HLbBLygqOU",
    "maps_url": "https://www.google.com/maps/place/?q=place_id:ChIJc9uer3zvEmsR6HLbBLygqOU"
  },
  {
    "name": "Harvey Norman Campbelltown",
    "address": "22A Blaxland Rd, Campbelltown NSW 2560, Australia",
    "suburb": "Campbelltown NSW 2560",
    "state": "NSW",
    "rating": 3.9,
    "reviews": 1229,
    "lat": -34.0577563,
    "lng": 150.8182067,
    "place_id": "ChIJdwZBTPTuEmsRjYColO1NBC4",
    "maps_url": "https://www.google.com/maps/place/?q=place_id:ChIJdwZBTPTuEmsRjYColO1NBC4"
  },
  {
    "name": "The Good Guys Campbelltown",
    "address": "Unit 13-15 Homebase Campbelltown, 24 Blaxland Rd, Campbelltown NSW 2560, Australia",
    "suburb": "24 Blaxland Rd",
    "state": "NSW",
    "rating": 3.8,
    "reviews": 869,
    "lat": -34.0590647,
    "lng": 150.8158088,
    "place_id": "ChIJg2ipC_buEmsRYXMtSOrY6mM",
    "maps_url": "https://www.google.com/maps/place/?q=place_id:ChIJg2ipC_buEmsRYXMtSOrY6mM"
  },
  {
    "name": "Factory Plus",
    "address": "61 Blaxland Rd, Campbelltown NSW 2560, Australia",
    "suburb": "Campbelltown NSW 2560",
    "state": "NSW",
    "rating": 3.5,
    "reviews": 192,
    "lat": -34.0606917,
    "lng": 150.8114778,
    "place_id": "ChIJT8f0rFnuEmsR_5xPPUFxZCQ",
    "maps_url": "https://www.google.com/maps/place/?q=place_id:ChIJT8f0rFnuEmsR_5xPPUFxZCQ"
  },
  {
    "name": "Kmart Campbelltown",
    "address": "Campbelltown Mall S/C, 217/281 Queen St, Campbelltown NSW 2560, Australia",
    "suburb": "217/281 Queen St",
    "state": "NSW",
    "rating": 4.2,
    "reviews": 1926,
    "lat": -34.0694079,
    "lng": 150.8108865,
    "place_id": "ChIJdeuvV1TuEmsRzMTrKoa2t74",
    "maps_url": "https://www.google.com/maps/place/?q=place_id:ChIJdeuvV1TuEmsRzMTrKoa2t74"
  },
  {
    "name": "Macarthur Square",
    "address": "200 Gilchrist Dr, Campbelltown NSW 2560, Australia",
    "suburb": "Campbelltown NSW 2560",
    "state": "NSW",
    "rating": 4.4,
    "reviews": 9044,
    "lat": -34.0748527,
    "lng": 150.7979477,
    "place_id": "ChIJO9BXs7bvEmsRQC_z-Wh9AQ8",
    "maps_url": "https://www.google.com/maps/place/?q=place_id:ChIJO9BXs7bvEmsRQC_z-Wh9AQ8"
  },
  {
    "name": "Fans Computers",
    "address": "shop 2, 11/13 Dumaresq St, Campbelltown NSW 2560, Australia",
    "suburb": "11/13 Dumaresq St",
    "state": "NSW",
    "rating": 4.2,
    "reviews": 98,
    "lat": -34.0673012,
    "lng": 150.8120696,
    "place_id": "ChIJmZkMZVbuEmsRHNN8omB7OU4",
    "maps_url": "https://www.google.com/maps/place/?q=place_id:ChIJmZkMZVbuEmsRHNN8omB7OU4"
  },
  {
    "name": "Homebase Campbelltown",
    "address": "24 Blaxland Rd, Campbelltown NSW 2560, Australia",
    "suburb": "Campbelltown NSW 2560",
    "state": "NSW",
    "rating": 4.3,
    "reviews": 714,
    "lat": -34.0589879,
    "lng": 150.8166546,
    "place_id": "ChIJS5nD2PXuEmsRrGp9avkmprw",
    "maps_url": "https://www.google.com/maps/place/?q=place_id:ChIJS5nD2PXuEmsRrGp9avkmprw"
  },
  {
    "name": "Target Macarthur Square",
    "address": "200 Gilchrist Dr, Campbelltown NSW 2560, Australia",
    "suburb": "Campbelltown NSW 2560",
    "state": "NSW",
    "rating": 4,
    "reviews": 283,
    "lat": -34.0770165,
    "lng": 150.7983696,
    "place_id": "ChIJ8ftv9JPvEmsRLUjF-uw_6uk",
    "maps_url": "https://www.google.com/maps/place/?q=place_id:ChIJ8ftv9JPvEmsRLUjF-uw_6uk"
  },
  {
    "name": "BIG W Campbelltown",
    "address": "200 Gilchrist Dr, Campbelltown NSW 2560, Australia",
    "suburb": "Campbelltown NSW 2560",
    "state": "NSW",
    "rating": 4.2,
    "reviews": 1893,
    "lat": -34.0775735,
    "lng": 150.7980545,
    "place_id": "ChIJ757DNrLvEmsR3BJu2HIpygk",
    "maps_url": "https://www.google.com/maps/place/?q=place_id:ChIJ757DNrLvEmsR3BJu2HIpygk"
  },
  {
    "name": "Campbelltown Mall",
    "address": "271 Queen St, Campbelltown NSW 2560, Australia",
    "suburb": "Campbelltown NSW 2560",
    "state": "NSW",
    "rating": 4.1,
    "reviews": 4776,
    "lat": -34.0687739,
    "lng": 150.8101853,
    "place_id": "ChIJQ7dMS1TuEmsRPIcbmQC477g",
    "maps_url": "https://www.google.com/maps/place/?q=place_id:ChIJQ7dMS1TuEmsRPIcbmQC477g"
  },
  {
    "name": "Lawrence & Hanson Campbelltown",
    "address": "Unit 1 B/1 Rose St, Campbelltown NSW 2560, Australia",
    "suburb": "Campbelltown NSW 2560",
    "state": "NSW",
    "rating": 4.3,
    "reviews": 12,
    "lat": -34.0552304,
    "lng": 150.8184659,
    "place_id": "ChIJVTq3wPTuEmsRblgNZl2rA3k",
    "maps_url": "https://www.google.com/maps/place/?q=place_id:ChIJVTq3wPTuEmsRblgNZl2rA3k"
  },
  {
    "name": "Happytel Macarthur Square Mobile Accessories & Repairs (near Gloria Jeans Coffee)",
    "address": "KL04 Macarthur Square Shopping Centre, 200 Gilchrist Dr, Campbelltown NSW 2560, Australia",
    "suburb": "200 Gilchrist Dr",
    "state": "NSW",
    "rating": 4.8,
    "reviews": 618,
    "lat": -34.0748763,
    "lng": 150.7976685,
    "place_id": "ChIJFy8KNrLvEmsR7MjkFo_TCeA",
    "maps_url": "https://www.google.com/maps/place/?q=place_id:ChIJFy8KNrLvEmsR7MjkFo_TCeA"
  },
  {
    "name": "Elite Car Audio",
    "address": "4/6 Frost Rd, Campbelltown NSW 2560, Australia",
    "suburb": "Campbelltown NSW 2560",
    "state": "NSW",
    "rating": 4.5,
    "reviews": 117,
    "lat": -34.0589116,
    "lng": 150.8077453,
    "place_id": "ChIJJb_uuPbuEmsRnjLhQ_68JbM",
    "maps_url": "https://www.google.com/maps/place/?q=place_id:ChIJJb_uuPbuEmsRnjLhQ_68JbM"
  },
  {
    "name": "Autobarn Campbelltown",
    "address": "31 Blaxland Rd, Campbelltown NSW 2560, Australia",
    "suburb": "Campbelltown NSW 2560",
    "state": "NSW",
    "rating": 4.3,
    "reviews": 321,
    "lat": -34.0580095,
    "lng": 150.815082,
    "place_id": "ChIJkbasfbLvEmsRlh4ZIRcjA5g",
    "maps_url": "https://www.google.com/maps/place/?q=place_id:ChIJkbasfbLvEmsRlh4ZIRcjA5g"
  },
  {
    "name": "CeX",
    "address": "Bankstown Central, Shop SP157/1 North Terrace, Bankstown NSW 2200, Australia",
    "suburb": "Shop SP157/1 North Terrace",
    "state": "NSW",
    "rating": 4,
    "reviews": 266,
    "lat": -33.9167971,
    "lng": 151.037568,
    "place_id": "ChIJW24dhA-8EmsRk8GDlTJPGbQ",
    "maps_url": "https://www.google.com/maps/place/?q=place_id:ChIJW24dhA-8EmsRk8GDlTJPGbQ"
  },
  {
    "name": "JB Hi-Fi Bankstown",
    "address": "Store MM002/12/41 North Terrace, Bankstown NSW 2200, Australia",
    "suburb": "Bankstown NSW 2200",
    "state": "NSW",
    "rating": 4,
    "reviews": 2747,
    "lat": -33.9155358,
    "lng": 151.0393573,
    "place_id": "ChIJcVxPpw-8EmsRc1XuTSMkUks",
    "maps_url": "https://www.google.com/maps/place/?q=place_id:ChIJcVxPpw-8EmsRc1XuTSMkUks"
  },
  {
    "name": "Bing Lee Bankstown",
    "address": "Home Focus Bankstown, Unit 7/173 Canterbury Rd, Bankstown NSW 2200, Australia",
    "suburb": "Unit 7/173 Canterbury Rd",
    "state": "NSW",
    "rating": 4.2,
    "reviews": 596,
    "lat": -33.9335586,
    "lng": 151.0286418,
    "place_id": "ChIJ50QifaO-EmsRmJubUlUgU9M",
    "maps_url": "https://www.google.com/maps/place/?q=place_id:ChIJ50QifaO-EmsRmJubUlUgU9M"
  },
  {
    "name": "Jaycar Electronics Bankstown",
    "address": "Unit 1/165 Canterbury Rd, Bankstown NSW 2200, Australia",
    "suburb": "Bankstown NSW 2200",
    "state": "NSW",
    "rating": 4.4,
    "reviews": 118,
    "lat": -33.933746,
    "lng": 151.0314265,
    "place_id": "ChIJT7v4XqS-EmsRc6RwBrgPCh0",
    "maps_url": "https://www.google.com/maps/place/?q=place_id:ChIJT7v4XqS-EmsRc6RwBrgPCh0"
  },
  {
    "name": "JW Computers",
    "address": "16/9-49 Chapel Rd, Bankstown NSW 2200, Australia",
    "suburb": "Bankstown NSW 2200",
    "state": "NSW",
    "rating": 4.2,
    "reviews": 372,
    "lat": -33.9323542,
    "lng": 151.0300004,
    "place_id": "ChIJjf-DcaS-EmsR8Gvue0D2IY0",
    "maps_url": "https://www.google.com/maps/place/?q=place_id:ChIJjf-DcaS-EmsR8Gvue0D2IY0"
  },
  {
    "name": "The Good Guys Bankstown",
    "address": "Unit 4 & 5 9/67 Chapel Rd, Bankstown NSW 2200, Australia",
    "suburb": "Bankstown NSW 2200",
    "state": "NSW",
    "rating": 3.1,
    "reviews": 957,
    "lat": -33.93226170000001,
    "lng": 151.0288493,
    "place_id": "ChIJoZx3h6O-EmsR7dTyywzH97c",
    "maps_url": "https://www.google.com/maps/place/?q=place_id:ChIJoZx3h6O-EmsR7dTyywzH97c"
  },
  {
    "name": "JB Hi-Fi Chatswood Westfield",
    "address": "Store 500 Anderson St, Chatswood NSW 2067, Australia",
    "suburb": "Chatswood NSW 2067",
    "state": "NSW",
    "rating": 4.1,
    "reviews": 1715,
    "lat": -33.7972649,
    "lng": 151.1840375,
    "place_id": "ChIJ1zigotaoEmsRbbiwK0S6pgs",
    "maps_url": "https://www.google.com/maps/place/?q=place_id:ChIJ1zigotaoEmsRbbiwK0S6pgs"
  },
  {
    "name": "Jaycar Electronics Chatswood",
    "address": "Unit 1A/372 Eastern Valley Way, Chatswood NSW 2067, Australia",
    "suburb": "Chatswood NSW 2067",
    "state": "NSW",
    "rating": 4.4,
    "reviews": 149,
    "lat": -33.7857392,
    "lng": 151.2006447,
    "place_id": "ChIJhUurH-CuEmsRNczJgiKqG34",
    "maps_url": "https://www.google.com/maps/place/?q=place_id:ChIJhUurH-CuEmsRNczJgiKqG34"
  },
  {
    "name": "Chatswood Betta",
    "address": "2/1 Spring St, Chatswood NSW 2067, Australia",
    "suburb": "Chatswood NSW 2067",
    "state": "NSW",
    "rating": 4.3,
    "reviews": 221,
    "lat": -33.7970903,
    "lng": 151.1853391,
    "place_id": "ChIJp6R8UfKuEmsRl_6XtL27O9Q",
    "maps_url": "https://www.google.com/maps/place/?q=place_id:ChIJp6R8UfKuEmsRl_6XtL27O9Q"
  },
  {
    "name": "The Good Guys Chatswood",
    "address": "2/372 Eastern Valley Way, Chatswood NSW 2067, Australia",
    "suburb": "Chatswood NSW 2067",
    "state": "NSW",
    "rating": 3.3,
    "reviews": 587,
    "lat": -33.7851541,
    "lng": 151.2002497,
    "place_id": "ChIJKcR4Zj2pEmsRdxplGsTfcGA",
    "maps_url": "https://www.google.com/maps/place/?q=place_id:ChIJKcR4Zj2pEmsRdxplGsTfcGA"
  },
  {
    "name": "Apple Chatswood Chase",
    "address": "Chatswood Chase, 345 Victoria Ave, Chatswood NSW 2067, Australia",
    "suburb": "345 Victoria Ave",
    "state": "NSW",
    "rating": 3.5,
    "reviews": 1412,
    "lat": -33.7949063,
    "lng": 151.1862419,
    "place_id": "ChIJ5RsZGNSoEmsRVDpD4iYnJek",
    "maps_url": "https://www.google.com/maps/place/?q=place_id:ChIJ5RsZGNSoEmsRVDpD4iYnJek"
  },
  {
    "name": "Westfield Chatswood",
    "address": "1 Anderson St, Chatswood NSW 2067, Australia",
    "suburb": "Chatswood NSW 2067",
    "state": "NSW",
    "rating": 4.4,
    "reviews": 13468,
    "lat": -33.7965082,
    "lng": 151.1827496,
    "place_id": "ChIJj-yYy9WoEmsRqsttUM46JR4",
    "maps_url": "https://www.google.com/maps/place/?q=place_id:ChIJj-yYy9WoEmsRqsttUM46JR4"
  },
  {
    "name": "F1 Tech Computers",
    "address": "shop 19/47 Neridah St, Chatswood NSW 2067, Australia",
    "suburb": "Chatswood NSW 2067",
    "state": "NSW",
    "rating": 3.8,
    "reviews": 102,
    "lat": -33.7961784,
    "lng": 151.1876796,
    "place_id": "ChIJ5RsZGNSoEmsRz_7XbbrMsYE",
    "maps_url": "https://www.google.com/maps/place/?q=place_id:ChIJ5RsZGNSoEmsRz_7XbbrMsYE"
  },
  {
    "name": "Kmart Chatswood",
    "address": "Chatswood Chase S/C Cnr Victoria Ave &, Archer St, Chatswood NSW 2067, Australia",
    "suburb": "Archer St",
    "state": "NSW",
    "rating": 4.1,
    "reviews": 2302,
    "lat": -33.7951238,
    "lng": 151.1858439,
    "place_id": "ChIJv1eNctaoEmsRWcx4nuptHCU",
    "maps_url": "https://www.google.com/maps/place/?q=place_id:ChIJv1eNctaoEmsRWcx4nuptHCU"
  },
  {
    "name": "Chatswood Chase",
    "address": "345 Victoria Ave, Chatswood NSW 2067, Australia",
    "suburb": "Chatswood NSW 2067",
    "state": "NSW",
    "rating": 4.2,
    "reviews": 6555,
    "lat": -33.7942587,
    "lng": 151.1861126,
    "place_id": "ChIJT2OmMNaoEmsRXufbNT-tP14",
    "maps_url": "https://www.google.com/maps/place/?q=place_id:ChIJT2OmMNaoEmsRXufbNT-tP14"
  },
  {
    "name": "Minidisc",
    "address": "Entry via Courtyard, m3/465 Victoria Ave, Chatswood NSW 2067, Australia",
    "suburb": "m3/465 Victoria Ave",
    "state": "NSW",
    "rating": 4.9,
    "reviews": 376,
    "lat": -33.7968264,
    "lng": 151.1799926,
    "place_id": "ChIJFyYR7tOoEmsRRNfxjVwWqfM",
    "maps_url": "https://www.google.com/maps/place/?q=place_id:ChIJFyYR7tOoEmsRRNfxjVwWqfM"
  },
  {
    "name": "Chatswood Interchange",
    "address": "436 Victoria Ave, Chatswood NSW 2067, Australia",
    "suburb": "Chatswood NSW 2067",
    "state": "NSW",
    "rating": 4.3,
    "reviews": 2223,
    "lat": -33.7972929,
    "lng": 151.180802,
    "place_id": "ChIJ9wDjJNSoEmsRwE-oYnsEl98",
    "maps_url": "https://www.google.com/maps/place/?q=place_id:ChIJ9wDjJNSoEmsRwE-oYnsEl98"
  },
  {
    "name": "JB Hi-Fi Artarmon",
    "address": "Home HQ Homemaker Centre Store UG4, Upper Ground Floor, 1 Frederick St, Artarmon NSW 2064, Australia",
    "suburb": "Upper Ground Floor",
    "state": "NSW",
    "rating": 4.3,
    "reviews": 593,
    "lat": -33.8174081,
    "lng": 151.1894839,
    "place_id": "ChIJ2YCGx9iuEmsRp1MAMqMOyYE",
    "maps_url": "https://www.google.com/maps/place/?q=place_id:ChIJ2YCGx9iuEmsRp1MAMqMOyYE"
  },
  {
    "name": "Target Chatswood",
    "address": "Spring St, Chatswood NSW 2067, Australia",
    "suburb": "Chatswood NSW 2067",
    "state": "NSW",
    "rating": 4,
    "reviews": 1202,
    "lat": -33.7969902,
    "lng": 151.1841305,
    "place_id": "ChIJW1oU29WoEmsRTnILHfGfT8U",
    "maps_url": "https://www.google.com/maps/place/?q=place_id:ChIJW1oU29WoEmsRTnILHfGfT8U"
  },
  {
    "name": "City Electric Supply Pty Ltd Chatswood Branch",
    "address": "5c Gibbes St, Chatswood NSW 2067, Australia",
    "suburb": "Chatswood NSW 2067",
    "state": "NSW",
    "rating": 3.8,
    "reviews": 13,
    "lat": -33.7900199,
    "lng": 151.201065,
    "place_id": "ChIJtwPPfTupEmsRs4AIh9Kpz48",
    "maps_url": "https://www.google.com/maps/place/?q=place_id:ChIJtwPPfTupEmsRs4AIh9Kpz48"
  },
  {
    "name": "Myer Chatswood",
    "address": "Westfield, 49/59 Albert Ave, Chatswood NSW 2067, Australia",
    "suburb": "49/59 Albert Ave",
    "state": "NSW",
    "rating": 3.9,
    "reviews": 1880,
    "lat": -33.797908,
    "lng": 151.1830446,
    "place_id": "ChIJpdThnGGpEmsRzfE7ySL0jmA",
    "maps_url": "https://www.google.com/maps/place/?q=place_id:ChIJpdThnGGpEmsRzfE7ySL0jmA"
  },
  {
    "name": "Timezone Chatswood",
    "address": "1 Anderson St, Westfield, Shop 605, Level 6 Victoria Ave, Chatswood NSW 2067, Australia",
    "suburb": "Westfield",
    "state": "NSW",
    "rating": 4.7,
    "reviews": 2337,
    "lat": -33.7965025,
    "lng": 151.182949,
    "place_id": "ChIJb1PVN9SoEmsRX-e0Oni3tKM",
    "maps_url": "https://www.google.com/maps/place/?q=place_id:ChIJb1PVN9SoEmsRX-e0Oni3tKM"
  },
  {
    "name": "EB Games / ZiNG Pop Culture - Chatswood",
    "address": "1 Anderson St, Chatswood NSW 2067, Australia",
    "suburb": "Chatswood NSW 2067",
    "state": "NSW",
    "rating": 4,
    "reviews": 320,
    "lat": -33.7973188,
    "lng": 151.1844964,
    "place_id": "ChIJfeHeyNWoEmsRQmEsGD_a3lA",
    "maps_url": "https://www.google.com/maps/place/?q=place_id:ChIJfeHeyNWoEmsRQmEsGD_a3lA"
  },
  {
    "name": "Auptimal Experience Store (Chatswood)-Mobile, Watch, Tablets and Smart home products",
    "address": "391 Victoria Ave, Chatswood NSW 2067, Australia",
    "suburb": "Chatswood NSW 2067",
    "state": "NSW",
    "rating": 4.2,
    "reviews": 127,
    "lat": -33.7956435,
    "lng": 151.184667,
    "place_id": "ChIJkxUomUepEmsRoQNH3UEjX44",
    "maps_url": "https://www.google.com/maps/place/?q=place_id:ChIJkxUomUepEmsRoQNH3UEjX44"
  },
  {
    "name": "Sibnet Electronics",
    "address": "50/28 Barcoo St, Roseville NSW 2069, Australia",
    "suburb": "Roseville NSW 2069",
    "state": "NSW",
    "rating": 4.5,
    "reviews": 43,
    "lat": -33.7849057,
    "lng": 151.1963565,
    "place_id": "ChIJf6pYQyKpEmsRgQjxGxyC0Os",
    "maps_url": "https://www.google.com/maps/place/?q=place_id:ChIJf6pYQyKpEmsRgQjxGxyC0Os"
  },
  {
    "name": "Brilliant Tech",
    "address": "Albert Ave, Chatswood NSW 2067, Australia",
    "suburb": "Chatswood NSW 2067",
    "state": "NSW",
    "rating": 5,
    "reviews": 2,
    "lat": -33.7968445,
    "lng": 151.1838467,
    "place_id": "ChIJv9pINNSoEmsRGNsmzM7oS_s",
    "maps_url": "https://www.google.com/maps/place/?q=place_id:ChIJv9pINNSoEmsRGNsmzM7oS_s"
  },
  {
    "name": "JB Hi-Fi Hornsby",
    "address": "Westfield Hornsby Shopping Centre Store 3014-3015, Level 3/236 Pacific Hwy, Hornsby NSW 2077, Australia",
    "suburb": "Level 3/236 Pacific Hwy",
    "state": "NSW",
    "rating": 4.1,
    "reviews": 1652,
    "lat": -33.7052635,
    "lng": 151.0995902,
    "place_id": "ChIJVVhAgIOnEmsRySmCD5zRbvA",
    "maps_url": "https://www.google.com/maps/place/?q=place_id:ChIJVVhAgIOnEmsRySmCD5zRbvA"
  },
  {
    "name": "CeX",
    "address": "Shop 3065/236 Pacific Hwy, Hornsby NSW 2077, Australia",
    "suburb": "Hornsby NSW 2077",
    "state": "NSW",
    "rating": 4,
    "reviews": 224,
    "lat": -33.7037797,
    "lng": 151.102049,
    "place_id": "ChIJVVhAgIOnEmsRLuo9HHKfCbk",
    "maps_url": "https://www.google.com/maps/place/?q=place_id:ChIJVVhAgIOnEmsRLuo9HHKfCbk"
  },
  {
    "name": "Bing Lee Hornsby",
    "address": "Shop 1019/20 Hunter St, Hornsby NSW 2077, Australia",
    "suburb": "Hornsby NSW 2077",
    "state": "NSW",
    "rating": 4,
    "reviews": 380,
    "lat": -33.7040737,
    "lng": 151.0998437,
    "place_id": "ChIJGy4IE4SnEmsRudYNfmcWeys",
    "maps_url": "https://www.google.com/maps/place/?q=place_id:ChIJGy4IE4SnEmsRudYNfmcWeys"
  },
  {
    "name": "Jaycar Electronics Hornsby",
    "address": "1/67 Jersey St, Hornsby NSW 2077, Australia",
    "suburb": "Hornsby NSW 2077",
    "state": "NSW",
    "rating": 4.3,
    "reviews": 117,
    "lat": -33.6975167,
    "lng": 151.0988313,
    "place_id": "ChIJgcgVOoenEmsRdDXaUwE7G_k",
    "maps_url": "https://www.google.com/maps/place/?q=place_id:ChIJgcgVOoenEmsRdDXaUwE7G_k"
  },
  {
    "name": "Harvey Norman Hornsby",
    "address": "Westfield Hornsby, Level 3/18 Burdett St, Hornsby NSW 2077, Australia",
    "suburb": "Level 3/18 Burdett St",
    "state": "NSW",
    "rating": 3.6,
    "reviews": 277,
    "lat": -33.7030943,
    "lng": 151.1019108,
    "place_id": "ChIJZ77RlJKnEmsRC61ZK0p-crU",
    "maps_url": "https://www.google.com/maps/place/?q=place_id:ChIJZ77RlJKnEmsRC61ZK0p-crU"
  },
  {
    "name": "Bing Lee Balgowlah",
    "address": "214-216 Condamine St, Balgowlah NSW 2093, Australia",
    "suburb": "Balgowlah NSW 2093",
    "state": "NSW",
    "rating": 4.2,
    "reviews": 272,
    "lat": -33.7867805,
    "lng": 151.2669539,
    "place_id": "ChIJr-nskrGrEmsRzSQQI9E6XYc",
    "maps_url": "https://www.google.com/maps/place/?q=place_id:ChIJr-nskrGrEmsRzSQQI9E6XYc"
  },
  {
    "name": "Manly Computronics",
    "address": "119 Pittwater Rd, Manly NSW 2095, Australia",
    "suburb": "Manly NSW 2095",
    "state": "NSW",
    "rating": 4.9,
    "reviews": 170,
    "lat": -33.791056,
    "lng": 151.284978,
    "place_id": "ChIJAWczsgarEmsRFRcaD2UU5yE",
    "maps_url": "https://www.google.com/maps/place/?q=place_id:ChIJAWczsgarEmsRFRcaD2UU5yE"
  },
  {
    "name": "Harvey Norman Balgowlah",
    "address": "176 Condamine St, Balgowlah NSW 2093, Australia",
    "suburb": "Balgowlah NSW 2093",
    "state": "NSW",
    "rating": 3.9,
    "reviews": 794,
    "lat": -33.7893067,
    "lng": 151.2660729,
    "place_id": "ChIJVVfQTbCrEmsR6fOOLrBeijI",
    "maps_url": "https://www.google.com/maps/place/?q=place_id:ChIJVVfQTbCrEmsR6fOOLrBeijI"
  },
  {
    "name": "Jaycar Electronics Brookvale",
    "address": "208 Harbord Rd, Brookvale NSW 2100, Australia",
    "suburb": "Brookvale NSW 2100",
    "state": "NSW",
    "rating": 4.6,
    "reviews": 88,
    "lat": -33.7620263,
    "lng": 151.2796945,
    "place_id": "ChIJSydGJmCqEmsREo1pyfySjFA",
    "maps_url": "https://www.google.com/maps/place/?q=place_id:ChIJSydGJmCqEmsREo1pyfySjFA"
  },
  {
    "name": "PJL Electronics",
    "address": "Unit 11b/3-9 Kenneth Rd, Manly Vale NSW 2093, Australia",
    "suburb": "Manly Vale NSW 2093",
    "state": "NSW",
    "rating": 4.2,
    "reviews": 19,
    "lat": -33.7867207,
    "lng": 151.2654136,
    "place_id": "ChIJv5PUnLGrEmsRy1Xp-b36MUI",
    "maps_url": "https://www.google.com/maps/place/?q=place_id:ChIJv5PUnLGrEmsRy1Xp-b36MUI"
  },
  {
    "name": "Manly Laptops Sydney",
    "address": "Unit 9/97 Old Pittwater Rd, Brookvale NSW 2100, Australia",
    "suburb": "Brookvale NSW 2100",
    "state": "NSW",
    "rating": 4.9,
    "reviews": 593,
    "lat": -33.7652314,
    "lng": 151.2622068,
    "place_id": "ChIJ_06FljM28Q4R8Vcos_hvwrc",
    "maps_url": "https://www.google.com/maps/place/?q=place_id:ChIJ_06FljM28Q4R8Vcos_hvwrc"
  },
  {
    "name": "Manly Appliance and Electrical",
    "address": "Unit 5/4 Carlton St, Manly NSW 2095, Australia",
    "suburb": "Manly NSW 2095",
    "state": "NSW",
    "rating": 4.9,
    "reviews": 12,
    "lat": -33.7923879,
    "lng": 151.286321,
    "place_id": "ChIJdRjmIQSrEmsR3W0ZrDYDuE8",
    "maps_url": "https://www.google.com/maps/place/?q=place_id:ChIJdRjmIQSrEmsR3W0ZrDYDuE8"
  },
  {
    "name": "Fone Galaxy Manly",
    "address": "2a The Corso, Manly NSW 2095, Australia",
    "suburb": "Manly NSW 2095",
    "state": "NSW",
    "rating": 4.6,
    "reviews": 295,
    "lat": -33.7991873,
    "lng": 151.2847698,
    "place_id": "ChIJ56T_2AWrEmsR8A5l-6HtSiE",
    "maps_url": "https://www.google.com/maps/place/?q=place_id:ChIJ56T_2AWrEmsR8A5l-6HtSiE"
  },
  {
    "name": "Coles Manly Vale",
    "address": "12/14 Koorala St, Manly Vale NSW 2093, Australia",
    "suburb": "Manly Vale NSW 2093",
    "state": "NSW",
    "rating": 3.9,
    "reviews": 354,
    "lat": -33.7852215,
    "lng": 151.2687339,
    "place_id": "ChIJ_TSDC7KrEmsRhjXFhw_Ix0s",
    "maps_url": "https://www.google.com/maps/place/?q=place_id:ChIJ_TSDC7KrEmsRhjXFhw_Ix0s"
  },
  {
    "name": "Beacon Tech",
    "address": "331 Condamine St, Manly Vale NSW 2093, Australia",
    "suburb": "Manly Vale NSW 2093",
    "state": "NSW",
    "rating": 4.8,
    "reviews": 87,
    "lat": -33.78359220000001,
    "lng": 151.2671489,
    "place_id": "ChIJA5USSTc9ygEREu3aqzET66s",
    "maps_url": "https://www.google.com/maps/place/?q=place_id:ChIJA5USSTc9ygEREu3aqzET66s"
  },
  {
    "name": "Lywood Electronics",
    "address": "MOSMAN Shop1, 572/572-574 Military Rd, Mosman NSW 2088, Australia",
    "suburb": "572/572-574 Military Rd",
    "state": "NSW",
    "rating": 3.9,
    "reviews": 26,
    "lat": -33.8241078,
    "lng": 151.2370406,
    "place_id": "ChIJmQ4PLwOsEmsRwtl2EGthqVI",
    "maps_url": "https://www.google.com/maps/place/?q=place_id:ChIJmQ4PLwOsEmsRwtl2EGthqVI"
  },
  {
    "name": "Mwave",
    "address": "Building 2/34-48 Cosgrove Rd, Strathfield South NSW 2136, Australia",
    "suburb": "Strathfield South NSW 2136",
    "state": "NSW",
    "rating": 4.3,
    "reviews": 9493,
    "lat": -33.8920445,
    "lng": 151.0736315,
    "place_id": "ChIJGby-yVG7EmsRRZIWFIUtghg",
    "maps_url": "https://www.google.com/maps/place/?q=place_id:ChIJGby-yVG7EmsRRZIWFIUtghg"
  },
  {
    "name": "JB Hi-Fi Bondi",
    "address": "Westfield, Store 2026-2028, Level 2/500 Oxford St, Bondi Junction NSW 2022, Australia",
    "suburb": "Store 2026-2028",
    "state": "NSW",
    "rating": 4.1,
    "reviews": 1933,
    "lat": -33.8928252,
    "lng": 151.2499869,
    "place_id": "ChIJuWh-S_GtEmsR_BL3tbC0X4A",
    "maps_url": "https://www.google.com/maps/place/?q=place_id:ChIJuWh-S_GtEmsR_BL3tbC0X4A"
  },
  {
    "name": "Jaycar Electronics Bondi Junction",
    "address": "125 Bronte Rd, Queens Park NSW 2022, Australia",
    "suburb": "Queens Park NSW 2022",
    "state": "NSW",
    "rating": 4.4,
    "reviews": 98,
    "lat": -33.8962551,
    "lng": 151.2510435,
    "place_id": "ChIJh1yZBWGtEmsRR7s0ilgapIg",
    "maps_url": "https://www.google.com/maps/place/?q=place_id:ChIJh1yZBWGtEmsRR7s0ilgapIg"
  },
  {
    "name": "Harvey Norman Bondi Junction",
    "address": "Westfield, Shop 5016/500 Oxford St, Bondi Junction NSW 2022, Australia",
    "suburb": "Shop 5016/500 Oxford St",
    "state": "NSW",
    "rating": 3.6,
    "reviews": 580,
    "lat": -33.8928249,
    "lng": 151.2501392,
    "place_id": "ChIJ9erUg_GtEmsRcN6oulKmcUc",
    "maps_url": "https://www.google.com/maps/place/?q=place_id:ChIJ9erUg_GtEmsRcN6oulKmcUc"
  },
  {
    "name": "DJI Bondi Junction | Authorised Retail Store",
    "address": "Shop 3022, Level 3/500 Oxford St, Bondi Junction NSW 2022, Australia",
    "suburb": "Level 3/500 Oxford St",
    "state": "NSW",
    "rating": 5,
    "reviews": 293,
    "lat": -33.8929368,
    "lng": 151.2499967,
    "place_id": "ChIJ0dTOWzatEmsRVEGBzSjnpvE",
    "maps_url": "https://www.google.com/maps/place/?q=place_id:ChIJ0dTOWzatEmsRVEGBzSjnpvE"
  },
  {
    "name": "Apple Bondi",
    "address": "213 Oxford St, Bondi Junction NSW 2022, Australia",
    "suburb": "Bondi Junction NSW 2022",
    "state": "NSW",
    "rating": 3.2,
    "reviews": 1342,
    "lat": -33.8923854,
    "lng": 151.2502488,
    "place_id": "ChIJ_-28cPGtEmsR5WnOw2Xpe6Y",
    "maps_url": "https://www.google.com/maps/place/?q=place_id:ChIJ_-28cPGtEmsR5WnOw2Xpe6Y"
  },
  {
    "name": "Addicted To Audio Sydney",
    "address": "142 King St, Newtown NSW 2042, Australia",
    "suburb": "Newtown NSW 2042",
    "state": "NSW",
    "rating": 4.5,
    "reviews": 452,
    "lat": -33.8935914,
    "lng": 151.183612,
    "place_id": "ChIJM-OtZDKwEmsRUCvGuig6WAk",
    "maps_url": "https://www.google.com/maps/place/?q=place_id:ChIJM-OtZDKwEmsRUCvGuig6WAk"
  },
  {
    "name": "Fone Galaxy",
    "address": "179 King St, Newtown NSW 2042, Australia",
    "suburb": "Newtown NSW 2042",
    "state": "NSW",
    "rating": 4.8,
    "reviews": 1918,
    "lat": -33.8941915,
    "lng": 151.1824525,
    "place_id": "ChIJSz0RPzKwEmsRk4bIgLhWJkc",
    "maps_url": "https://www.google.com/maps/place/?q=place_id:ChIJSz0RPzKwEmsRk4bIgLhWJkc"
  },
  {
    "name": "Classic HiFi",
    "address": "550 King St, Newtown NSW 2042, Australia",
    "suburb": "Newtown NSW 2042",
    "state": "NSW",
    "rating": 4.6,
    "reviews": 150,
    "lat": -33.9034245,
    "lng": 151.1799676,
    "place_id": "ChIJIRpy60mwEmsRLt0-1NHm7hY",
    "maps_url": "https://www.google.com/maps/place/?q=place_id:ChIJIRpy60mwEmsRLt0-1NHm7hY"
  },
  {
    "name": "SydneySuper8",
    "address": "457 King St, Newtown NSW 2042, Australia",
    "suburb": "Newtown NSW 2042",
    "state": "NSW",
    "rating": 4.7,
    "reviews": 432,
    "lat": -33.9014977,
    "lng": 151.1784367,
    "place_id": "ChIJwXhHLDawEmsR6ERf8XDo7UU",
    "maps_url": "https://www.google.com/maps/place/?q=place_id:ChIJwXhHLDawEmsR6ERf8XDo7UU"
  },
  {
    "name": "Cheap Mobile Repair Newtown Phone and Laptop Repair Sydney",
    "address": "shop 1a/2 Enmore Rd, Newtown NSW 2042, Australia",
    "suburb": "Newtown NSW 2042",
    "state": "NSW",
    "rating": 4.9,
    "reviews": 1697,
    "lat": -33.898081,
    "lng": 151.178077,
    "place_id": "ChIJMSXU4TawEmsRggxwvyLYZ7Q",
    "maps_url": "https://www.google.com/maps/place/?q=place_id:ChIJMSXU4TawEmsRggxwvyLYZ7Q"
  },
  {
    "name": "iSpace Tech",
    "address": "Unit #1010 , 1010/20 Smidmore St, Marrickville NSW 2204, Australia",
    "suburb": "1010/20 Smidmore St",
    "state": "NSW",
    "rating": 4.2,
    "reviews": 51,
    "lat": -33.9081505,
    "lng": 151.171363,
    "place_id": "ChIJly8T8USwEmsR4Ous42oCKU8",
    "maps_url": "https://www.google.com/maps/place/?q=place_id:ChIJly8T8USwEmsR4Ous42oCKU8"
  },
  {
    "name": "Cult Cameras",
    "address": "459 King St, Newtown NSW 2042, Australia",
    "suburb": "Newtown NSW 2042",
    "state": "NSW",
    "rating": 5,
    "reviews": 9,
    "lat": -33.901567,
    "lng": 151.1784693,
    "place_id": "ChIJ7dbjztmxEmsRdBLdu5oziwk",
    "maps_url": "https://www.google.com/maps/place/?q=place_id:ChIJ7dbjztmxEmsRdBLdu5oziwk"
  },
  {
    "name": "Sunlite Mitre 10 - Newtown",
    "address": "267 King St, Newtown NSW 2042, Australia",
    "suburb": "Newtown NSW 2042",
    "state": "NSW",
    "rating": 4.8,
    "reviews": 327,
    "lat": -33.8961323,
    "lng": 151.1803253,
    "place_id": "ChIJk6msXDGwEmsRJYaw1xHwlfI",
    "maps_url": "https://www.google.com/maps/place/?q=place_id:ChIJk6msXDGwEmsRJYaw1xHwlfI"
  },
  {
    "name": "Nam’s Electronic Services",
    "address": "2/391 Enmore Rd, Marrickville NSW 2204, Australia",
    "suburb": "Marrickville NSW 2204",
    "state": "NSW",
    "rating": 4.7,
    "reviews": 70,
    "lat": -33.9047567,
    "lng": 151.1679329,
    "place_id": "ChIJP5ug3UOwEmsRKWLNAiObQIk",
    "maps_url": "https://www.google.com/maps/place/?q=place_id:ChIJP5ug3UOwEmsRKWLNAiObQIk"
  },
  {
    "name": "The Good Guys Alexandria",
    "address": "45/59 O'Riordan St, Alexandria NSW 2015, Australia",
    "suburb": "Alexandria NSW 2015",
    "state": "NSW",
    "rating": 3.4,
    "reviews": 724,
    "lat": -33.9140253,
    "lng": 151.194799,
    "place_id": "ChIJlR4ZtLGxEmsRF1IX49wgrwM",
    "maps_url": "https://www.google.com/maps/place/?q=place_id:ChIJlR4ZtLGxEmsRF1IX49wgrwM"
  },
  {
    "name": "Oldtown Tobacco",
    "address": "291 King St, Newtown NSW 2042, Australia",
    "suburb": "Newtown NSW 2042",
    "state": "NSW",
    "rating": 4.4,
    "reviews": 30,
    "lat": -33.89647,
    "lng": 151.1796818,
    "place_id": "ChIJ37gNSDGwEmsRdJ0BmGX4ZI4",
    "maps_url": "https://www.google.com/maps/place/?q=place_id:ChIJ37gNSDGwEmsRdJ0BmGX4ZI4"
  },
  {
    "name": "AK'S Appliances n more",
    "address": "176 Enmore Rd, Enmore NSW 2042, Australia",
    "suburb": "Enmore NSW 2042",
    "state": "NSW",
    "rating": 4.9,
    "reviews": 132,
    "lat": -33.899217,
    "lng": 151.1724851,
    "place_id": "ChIJmzazYTiwEmsRSKCjJQpD59E",
    "maps_url": "https://www.google.com/maps/place/?q=place_id:ChIJmzazYTiwEmsRSKCjJQpD59E"
  },
  {
    "name": "Personal Digital",
    "address": "13/36 O'Riordan St, Alexandria NSW 2015, Australia",
    "suburb": "Alexandria NSW 2015",
    "state": "NSW",
    "rating": 4.8,
    "reviews": 431,
    "lat": -33.9108921,
    "lng": 151.19855,
    "place_id": "ChIJjyFXfyiuEmsReFlYYGke9aQ",
    "maps_url": "https://www.google.com/maps/place/?q=place_id:ChIJjyFXfyiuEmsReFlYYGke9aQ"
  },
  {
    "name": "Hands - Lifestyle Gift & Homewares Store",
    "address": "279 Australia St, Newtown NSW 2042, Australia",
    "suburb": "Newtown NSW 2042",
    "state": "NSW",
    "rating": 4.9,
    "reviews": 389,
    "lat": -33.89706,
    "lng": 151.1783912,
    "place_id": "ChIJldaTHHexEmsRSZJfobAZjHw",
    "maps_url": "https://www.google.com/maps/place/?q=place_id:ChIJldaTHHexEmsRSZJfobAZjHw"
  },
  {
    "name": "Milligram Newtown",
    "address": "251 King St, Newtown NSW 2042, Australia",
    "suburb": "Newtown NSW 2042",
    "state": "NSW",
    "rating": 4.3,
    "reviews": 29,
    "lat": -33.8958752,
    "lng": 151.1808443,
    "place_id": "ChIJU6BdcXuxEmsRT50amEZzb38",
    "maps_url": "https://www.google.com/maps/place/?q=place_id:ChIJU6BdcXuxEmsRT50amEZzb38"
  },
  {
    "name": "Latest Tech",
    "address": "191 Crystal Palace Way, Leppington NSW 2179, Australia",
    "suburb": "Leppington NSW 2179",
    "state": "NSW",
    "rating": 4.9,
    "reviews": 170,
    "lat": -33.9616528,
    "lng": 150.8244676,
    "place_id": "ChIJu0BGrH0PqmQRSVfCJodltps",
    "maps_url": "https://www.google.com/maps/place/?q=place_id:ChIJu0BGrH0PqmQRSVfCJodltps"
  },
  {
    "name": "JB Hi-Fi Albury - Mates Centre",
    "address": "The Mates Centre, Basement Level, 569 Dean St, Albury NSW 2640, Australia",
    "suburb": "Basement Level",
    "state": "NSW",
    "rating": 4.3,
    "reviews": 1274,
    "lat": -36.0814476,
    "lng": 146.9157714,
    "place_id": "ChIJn8XM-mNfIWsRYi4sbgMZcjo",
    "maps_url": "https://www.google.com/maps/place/?q=place_id:ChIJn8XM-mNfIWsRYi4sbgMZcjo"
  },
  {
    "name": "Jaycar Electronics Albury",
    "address": "565 Hume St, Albury NSW 2640, Australia",
    "suburb": "Albury NSW 2640",
    "state": "NSW",
    "rating": 4.6,
    "reviews": 105,
    "lat": -36.084953,
    "lng": 146.913226,
    "place_id": "ChIJO8YPe2dfIWsR9tMG4lzg4CA",
    "maps_url": "https://www.google.com/maps/place/?q=place_id:ChIJO8YPe2dfIWsR9tMG4lzg4CA"
  },
  {
    "name": "Harvey Norman Albury",
    "address": "94 Borella Rd, East Albury NSW 2640, Australia",
    "suburb": "East Albury NSW 2640",
    "state": "NSW",
    "rating": 4,
    "reviews": 648,
    "lat": -36.0748377,
    "lng": 146.9452318,
    "place_id": "ChIJo6IdtkrgI2sRa26bnq0XNCk",
    "maps_url": "https://www.google.com/maps/place/?q=place_id:ChIJo6IdtkrgI2sRa26bnq0XNCk"
  },
  {
    "name": "Masterbuy Appliances",
    "address": "453-455 Smollett St, Albury NSW 2640, Australia",
    "suburb": "Albury NSW 2640",
    "state": "NSW",
    "rating": 4.5,
    "reviews": 67,
    "lat": -36.0836516,
    "lng": 146.9208976,
    "place_id": "ChIJm8ZJ099fIWsRmSsfR2s507U",
    "maps_url": "https://www.google.com/maps/place/?q=place_id:ChIJm8ZJ099fIWsRmSsfR2s507U"
  },
  {
    "name": "The Good Guys Albury",
    "address": "437 Young St, Albury NSW 2640, Australia",
    "suburb": "Albury NSW 2640",
    "state": "NSW",
    "rating": 4,
    "reviews": 450,
    "lat": -36.0851605,
    "lng": 146.9224865,
    "place_id": "ChIJt5MSC9_hI2sRupu2SWRLVzA",
    "maps_url": "https://www.google.com/maps/place/?q=place_id:ChIJt5MSC9_hI2sRupu2SWRLVzA"
  },
  {
    "name": "Computer tech 24/7",
    "address": "Albury NSW 2640, Australia",
    "suburb": "Australia",
    "state": "NSW",
    "rating": 3,
    "reviews": 2,
    "lat": -36.0737293,
    "lng": 146.9135418,
    "place_id": "ChIJdZsm30NfIWsRtBrjGk-wA8M",
    "maps_url": "https://www.google.com/maps/place/?q=place_id:ChIJdZsm30NfIWsRtBrjGk-wA8M"
  },
  {
    "name": "Bing Lee Wodonga",
    "address": "Homemaker Center 7, 285 Victoria Cross Parade, Wodonga VIC 3689, Australia",
    "suburb": "285 Victoria Cross Parade",
    "state": "NSW",
    "rating": 4.4,
    "reviews": 301,
    "lat": -36.1385398,
    "lng": 146.9091107,
    "place_id": "ChIJQ8Lyu4hYIWsRdl0VsZ1NXIk",
    "maps_url": "https://www.google.com/maps/place/?q=place_id:ChIJQ8Lyu4hYIWsRdl0VsZ1NXIk"
  },
  {
    "name": "Camera House - Albury",
    "address": "494 Dean St, Albury NSW 2640, Australia",
    "suburb": "Albury NSW 2640",
    "state": "NSW",
    "rating": 4.6,
    "reviews": 116,
    "lat": -36.0809298,
    "lng": 146.918891,
    "place_id": "ChIJBSbPSWJfIWsRAUjVQKCFTIs",
    "maps_url": "https://www.google.com/maps/place/?q=place_id:ChIJBSbPSWJfIWsRAUjVQKCFTIs"
  },
  {
    "name": "Exact Computers & Home Entertainment",
    "address": "1/10 South St, Wodonga VIC 3690, Australia",
    "suburb": "Wodonga VIC 3690",
    "state": "NSW",
    "rating": 4.8,
    "reviews": 249,
    "lat": -36.118927,
    "lng": 146.8908996,
    "place_id": "ChIJiYtWpelYIWsRafLHgeNrax4",
    "maps_url": "https://www.google.com/maps/place/?q=place_id:ChIJiYtWpelYIWsRafLHgeNrax4"
  },
  {
    "name": "EduCom IT Albury (Apple Authorised Service Provider)",
    "address": "Unit 3/580 Dean St, Albury NSW 2640, Australia",
    "suburb": "Albury NSW 2640",
    "state": "NSW",
    "rating": 4.7,
    "reviews": 89,
    "lat": -36.0803291,
    "lng": 146.915341,
    "place_id": "ChIJ0Vy1UmdfIWsRzoKOWxqXFaY",
    "maps_url": "https://www.google.com/maps/place/?q=place_id:ChIJ0Vy1UmdfIWsRzoKOWxqXFaY"
  },
  {
    "name": "Officeworks Albury",
    "address": "423 Smollett St, Albury NSW 2640, Australia",
    "suburb": "Albury NSW 2640",
    "state": "NSW",
    "rating": 4.1,
    "reviews": 137,
    "lat": -36.0841094,
    "lng": 146.9227595,
    "place_id": "ChIJMwacM9_hI2sRUOfUEdkdCmo",
    "maps_url": "https://www.google.com/maps/place/?q=place_id:ChIJMwacM9_hI2sRUOfUEdkdCmo"
  },
  {
    "name": "Kmart Albury",
    "address": "Townsend St, Albury NSW 2640, Australia",
    "suburb": "Albury NSW 2640",
    "state": "NSW",
    "rating": 4.1,
    "reviews": 688,
    "lat": -36.0819964,
    "lng": 146.9134327,
    "place_id": "ChIJRXfH-GZfIWsRym70E-oTZFM",
    "maps_url": "https://www.google.com/maps/place/?q=place_id:ChIJRXfH-GZfIWsRym70E-oTZFM"
  },
  {
    "name": "Rexel Electrical Supplies Albury",
    "address": "Shop 1/659 Young St, Albury NSW 2640, Australia",
    "suburb": "Albury NSW 2640",
    "state": "NSW",
    "rating": 3.7,
    "reviews": 3,
    "lat": -36.0734968,
    "lng": 146.924911,
    "place_id": "ChIJN7wMGNThI2sRvDSK-JvIHcI",
    "maps_url": "https://www.google.com/maps/place/?q=place_id:ChIJN7wMGNThI2sRvDSK-JvIHcI"
  },
  {
    "name": "Myer Albury",
    "address": "525 David St, Albury NSW 2640, Australia",
    "suburb": "Albury NSW 2640",
    "state": "NSW",
    "rating": 4,
    "reviews": 947,
    "lat": -36.0801816,
    "lng": 146.9201788,
    "place_id": "ChIJ-eoPhmJfIWsRExKvVfFO2Wg",
    "maps_url": "https://www.google.com/maps/place/?q=place_id:ChIJ-eoPhmJfIWsRExKvVfFO2Wg"
  },
  {
    "name": "Target Albury",
    "address": "Kiewa St, Albury NSW 2640, Australia",
    "suburb": "Albury NSW 2640",
    "state": "NSW",
    "rating": 4.1,
    "reviews": 415,
    "lat": -36.082346,
    "lng": 146.915752,
    "place_id": "ChIJt6nZNmdfIWsR83sZWjufF6E",
    "maps_url": "https://www.google.com/maps/place/?q=place_id:ChIJt6nZNmdfIWsR83sZWjufF6E"
  },
  {
    "name": "TRU HI-FI",
    "address": "760 Mate St, North Albury NSW 2640, Australia",
    "suburb": "North Albury NSW 2640",
    "state": "NSW",
    "rating": 4.5,
    "reviews": 15,
    "lat": -36.0686315,
    "lng": 146.9307924,
    "place_id": "ChIJZxWXAtjhI2sRXGHWXQfxUxY",
    "maps_url": "https://www.google.com/maps/place/?q=place_id:ChIJZxWXAtjhI2sRXGHWXQfxUxY"
  },
  {
    "name": "Albury Wodonga Computers",
    "address": "3 Main St, Chiltern VIC 3683, Australia",
    "suburb": "Chiltern VIC 3683",
    "state": "NSW",
    "rating": 4.9,
    "reviews": 9,
    "lat": -36.1563,
    "lng": 146.6072124,
    "place_id": "ChIJyzxpJi5ZIWsRwkh9OsN6qt4",
    "maps_url": "https://www.google.com/maps/place/?q=place_id:ChIJyzxpJi5ZIWsRwkh9OsN6qt4"
  },
  {
    "name": "Computer Wyse",
    "address": "602 Wyse St, Albury NSW 2640, Australia",
    "suburb": "Albury NSW 2640",
    "state": "NSW",
    "rating": 4.6,
    "reviews": 107,
    "lat": -36.0754149,
    "lng": 146.9126701,
    "place_id": "ChIJW7EPKntfIWsRS9dAzfFHPF8",
    "maps_url": "https://www.google.com/maps/place/?q=place_id:ChIJW7EPKntfIWsRS9dAzfFHPF8"
  },
  {
    "name": "The Essential Utensil",
    "address": "428 Swift St, Albury NSW 2640, Australia",
    "suburb": "Albury NSW 2640",
    "state": "NSW",
    "rating": 4.4,
    "reviews": 207,
    "lat": -36.079224,
    "lng": 146.923498,
    "place_id": "ChIJtfzrddfhI2sR4zNIat7Pi5U",
    "maps_url": "https://www.google.com/maps/place/?q=place_id:ChIJtfzrddfhI2sR4zNIat7Pi5U"
  },
  {
    "name": "Tung Tung sahur",
    "address": "Albury NSW 2640, Australia",
    "suburb": "Australia",
    "state": "NSW",
    "rating": 1,
    "reviews": 1,
    "lat": -36.0799407,
    "lng": 146.8925178,
    "place_id": "ChIJhcQObwBfIWsRdPra_jms8R0",
    "maps_url": "https://www.google.com/maps/place/?q=place_id:ChIJhcQObwBfIWsRdPra_jms8R0"
  },
  {
    "name": "JB Hi-Fi Wagga Wagga",
    "address": "75 Morgan St, Wagga Wagga NSW 2650, Australia",
    "suburb": "Wagga Wagga NSW 2650",
    "state": "NSW",
    "rating": 4.4,
    "reviews": 1133,
    "lat": -35.115879,
    "lng": 147.370324,
    "place_id": "ChIJRUFMbn6ZGGsRM1hn7w0svt4",
    "maps_url": "https://www.google.com/maps/place/?q=place_id:ChIJRUFMbn6ZGGsRM1hn7w0svt4"
  },
  {
    "name": "Jaycar Electronics Wagga Wagga",
    "address": "Unit 2/31-35 Hammond Ave, East Wagga Wagga NSW 2650, Australia",
    "suburb": "East Wagga Wagga NSW 2650",
    "state": "NSW",
    "rating": 4.4,
    "reviews": 72,
    "lat": -35.1203154,
    "lng": 147.3812795,
    "place_id": "ChIJRWFRoX-ZGGsRTBnDWeZqqH4",
    "maps_url": "https://www.google.com/maps/place/?q=place_id:ChIJRWFRoX-ZGGsRTBnDWeZqqH4"
  },
  {
    "name": "The Good Guys Wagga Wagga",
    "address": "1/12-20 Edward St, Wagga Wagga NSW 2650, Australia",
    "suburb": "Wagga Wagga NSW 2650",
    "state": "NSW",
    "rating": 4.2,
    "reviews": 292,
    "lat": -35.1203613,
    "lng": 147.3753357,
    "place_id": "ChIJiRQn_9abGGsRqmByV9m1LbQ",
    "maps_url": "https://www.google.com/maps/place/?q=place_id:ChIJiRQn_9abGGsRqmByV9m1LbQ"
  },
  {
    "name": "Harvey Norman Wagga Wagga",
    "address": "7/23 Hammond Ave, East Wagga Wagga NSW 2650, Australia",
    "suburb": "East Wagga Wagga NSW 2650",
    "state": "NSW",
    "rating": 4,
    "reviews": 436,
    "lat": -35.1196711,
    "lng": 147.3792019,
    "place_id": "ChIJT7fmZtGbGGsR_CoF-8mRpns",
    "maps_url": "https://www.google.com/maps/place/?q=place_id:ChIJT7fmZtGbGGsR_CoF-8mRpns"
  },
  {
    "name": "JB Hi-Fi Tamworth",
    "address": "Centrepoint Tamworth, Store 18, Ground Level/374 Peel St, Tamworth NSW 2340, Australia",
    "suburb": "Store 18",
    "state": "NSW",
    "rating": 4.3,
    "reviews": 770,
    "lat": -31.0900932,
    "lng": 150.9304748,
    "place_id": "ChIJNTrb_cmYCmsRN3k0MSX0pyQ",
    "maps_url": "https://www.google.com/maps/place/?q=place_id:ChIJNTrb_cmYCmsRN3k0MSX0pyQ"
  },
  {
    "name": "Jaycar Electronics Tamworth",
    "address": "454, Shop 1/456 Peel St, Tamworth NSW 2340, Australia",
    "suburb": "Shop 1/456 Peel St",
    "state": "NSW",
    "rating": 4.4,
    "reviews": 35,
    "lat": -31.0934524,
    "lng": 150.9326226,
    "place_id": "ChIJk_l8RrKZCmsR4Ak4q2wzHL4",
    "maps_url": "https://www.google.com/maps/place/?q=place_id:ChIJk_l8RrKZCmsR4Ak4q2wzHL4"
  },
  {
    "name": "Harvey Norman Tamworth",
    "address": "43 The Ringers Rd, Hillvue NSW 2340, Australia",
    "suburb": "Hillvue NSW 2340",
    "state": "NSW",
    "rating": 4.3,
    "reviews": 408,
    "lat": -31.1289749,
    "lng": 150.9200987,
    "place_id": "ChIJwbhk71mYCmsRN4VupI78GTo",
    "maps_url": "https://www.google.com/maps/place/?q=place_id:ChIJwbhk71mYCmsRN4VupI78GTo"
  },
  {
    "name": "The Good Guys Tamworth",
    "address": "Shop 1, Cnr New England Highway &, Greg Norman Dr, Tamworth NSW 2340, Australia",
    "suburb": "Cnr New England Highway &",
    "state": "NSW",
    "rating": 4.2,
    "reviews": 243,
    "lat": -31.12844699999999,
    "lng": 150.9230029,
    "place_id": "ChIJNxsDBVmYCmsRZj4ifmu8nnE",
    "maps_url": "https://www.google.com/maps/place/?q=place_id:ChIJNxsDBVmYCmsRZj4ifmu8nnE"
  },
  {
    "name": "Radio Shack Australia",
    "address": "2/150 Peel St, North Tamworth NSW 2340, Australia",
    "suburb": "North Tamworth NSW 2340",
    "state": "NSW",
    "rating": 4,
    "reviews": 18,
    "lat": -31.081448,
    "lng": 150.9215765,
    "place_id": "ChIJb_TP6LCYCmsRz8JYr5k8YNQ",
    "maps_url": "https://www.google.com/maps/place/?q=place_id:ChIJb_TP6LCYCmsRz8JYr5k8YNQ"
  },
  {
    "name": "JB Hi-Fi Orange",
    "address": "Orange Homemaker Centre, Tenancy 3/168 Lone Pine Ave, Orange NSW 2800, Australia",
    "suburb": "Tenancy 3/168 Lone Pine Ave",
    "state": "NSW",
    "rating": 4.8,
    "reviews": 19,
    "lat": -33.3008642,
    "lng": 149.1201135,
    "place_id": "ChIJG6ZWb0XTEWsRzfG7ir8fX8E",
    "maps_url": "https://www.google.com/maps/place/?q=place_id:ChIJG6ZWb0XTEWsRzfG7ir8fX8E"
  },
  {
    "name": "Jaycar Electronics Orange",
    "address": "168 Lone Pine Ave, Orange NSW 2800, Australia",
    "suburb": "Orange NSW 2800",
    "state": "NSW",
    "rating": 4.7,
    "reviews": 23,
    "lat": -33.3001319,
    "lng": 149.1191549,
    "place_id": "ChIJX0m4kTbTEWsRHP83uknhvNE",
    "maps_url": "https://www.google.com/maps/place/?q=place_id:ChIJX0m4kTbTEWsRHP83uknhvNE"
  },
  {
    "name": "Harvey Norman Orange",
    "address": "Cnr Lone Pine Avenue & Mitchell Highway Unit 1, Orange Grove Homemakers Centre, Orange NSW 2800, Australia",
    "suburb": "Orange Grove Homemakers Centre",
    "state": "NSW",
    "rating": 4.1,
    "reviews": 372,
    "lat": -33.2993744,
    "lng": 149.1191307,
    "place_id": "ChIJ79HSe9nSEWsRVczTJrfvji4",
    "maps_url": "https://www.google.com/maps/place/?q=place_id:ChIJ79HSe9nSEWsRVczTJrfvji4"
  },
  {
    "name": "Weily's Betta",
    "address": "43 William St, Orange NSW 2800, Australia",
    "suburb": "Orange NSW 2800",
    "state": "NSW",
    "rating": 4.8,
    "reviews": 29,
    "lat": -33.280998,
    "lng": 149.1061292,
    "place_id": "ChIJ73PckjLTEWsRAMxoGvvo8uE",
    "maps_url": "https://www.google.com/maps/place/?q=place_id:ChIJ73PckjLTEWsRAMxoGvvo8uE"
  },
  {
    "name": "My Tech Mate Orange",
    "address": "4/241 Lords Pl, Orange NSW 2800, Australia",
    "suburb": "Orange NSW 2800",
    "state": "NSW",
    "rating": 4.9,
    "reviews": 133,
    "lat": -33.2826173,
    "lng": 149.1008761,
    "place_id": "ChIJKwzW34MtEGsRoKTq1eqt648",
    "maps_url": "https://www.google.com/maps/place/?q=place_id:ChIJKwzW34MtEGsRoKTq1eqt648"
  },
  {
    "name": "Officeworks Orange",
    "address": "179/181 Byng St, Orange NSW 2800, Australia",
    "suburb": "Orange NSW 2800",
    "state": "NSW",
    "rating": 4,
    "reviews": 134,
    "lat": -33.2817441,
    "lng": 149.1058738,
    "place_id": "ChIJkUGWXi3TEWsRo7VK90X-MB4",
    "maps_url": "https://www.google.com/maps/place/?q=place_id:ChIJkUGWXi3TEWsRo7VK90X-MB4"
  },
  {
    "name": "Camera House - Orange",
    "address": "198 Anson St, Orange NSW 2800, Australia",
    "suburb": "Orange NSW 2800",
    "state": "NSW",
    "rating": 3.9,
    "reviews": 33,
    "lat": -33.2841444,
    "lng": 149.0988787,
    "place_id": "ChIJCcCna9EsEGsRFNBsoqZsXFE",
    "maps_url": "https://www.google.com/maps/place/?q=place_id:ChIJCcCna9EsEGsRFNBsoqZsXFE"
  },
  {
    "name": "JB Hi-Fi Dubbo HOME",
    "address": "Orana Mall Market Place, Mitchell Hwy, Dubbo NSW 2830, Australia",
    "suburb": "Mitchell Hwy",
    "state": "NSW",
    "rating": 4.2,
    "reviews": 518,
    "lat": -32.2552056,
    "lng": 148.6316259,
    "place_id": "ChIJLaCVfZBxD2sRrQpsmp-6ggE",
    "maps_url": "https://www.google.com/maps/place/?q=place_id:ChIJLaCVfZBxD2sRrQpsmp-6ggE"
  },
  {
    "name": "Jaycar Electronics Dubbo",
    "address": "68, Unit 2/74 Erskine St, Dubbo NSW 2830, Australia",
    "suburb": "Unit 2/74 Erskine St",
    "state": "NSW",
    "rating": 4,
    "reviews": 45,
    "lat": -32.2433407,
    "lng": 148.60863,
    "place_id": "ChIJeXEVKLdxD2sRiTv-IKG8Lcg",
    "maps_url": "https://www.google.com/maps/place/?q=place_id:ChIJeXEVKLdxD2sRiTv-IKG8Lcg"
  },
  {
    "name": "The Good Guys Dubbo",
    "address": "235/249 Cobra St, Dubbo NSW 2830, Australia",
    "suburb": "Dubbo NSW 2830",
    "state": "NSW",
    "rating": 4.1,
    "reviews": 211,
    "lat": -32.2583826,
    "lng": 148.6264981,
    "place_id": "ChIJTTDmIplxD2sRaN5F29xnQxg",
    "maps_url": "https://www.google.com/maps/place/?q=place_id:ChIJTTDmIplxD2sRaN5F29xnQxg"
  },
  {
    "name": "Harvey Norman Dubbo",
    "address": "223 Cobra St, Dubbo NSW 2830, Australia",
    "suburb": "Dubbo NSW 2830",
    "state": "NSW",
    "rating": 4,
    "reviews": 288,
    "lat": -32.2570532,
    "lng": 148.6226442,
    "place_id": "ChIJS9l8dqJxD2sRQpIp7H_df58",
    "maps_url": "https://www.google.com/maps/place/?q=place_id:ChIJS9l8dqJxD2sRQpIp7H_df58"
  },
  {
    "name": "BIG W Dubbo",
    "address": "Wheelers Ln, Dubbo NSW 2830, Australia",
    "suburb": "Dubbo NSW 2830",
    "state": "NSW",
    "rating": 4.2,
    "reviews": 846,
    "lat": -32.2553834,
    "lng": 148.6313636,
    "place_id": "ChIJBYLJL5pxD2sRL88ZWd8cTOY",
    "maps_url": "https://www.google.com/maps/place/?q=place_id:ChIJBYLJL5pxD2sRL88ZWd8cTOY"
  },
  {
    "name": "Tech Savvy Dubbo",
    "address": "Orana Mall Shopping Centre, Shop 101/56 Windsor Parade, Dubbo NSW 2830, Australia",
    "suburb": "Shop 101/56 Windsor Parade",
    "state": "NSW",
    "rating": 4.6,
    "reviews": 111,
    "lat": -32.2553546,
    "lng": 148.6304728,
    "place_id": "ChIJZUQDgJBxD2sRY3x4tkaia8k",
    "maps_url": "https://www.google.com/maps/place/?q=place_id:ChIJZUQDgJBxD2sRY3x4tkaia8k"
  },
  {
    "name": "Orana Mall Shopping Centre",
    "address": "56 Windsor Parade, Dubbo NSW 2830, Australia",
    "suburb": "Dubbo NSW 2830",
    "state": "NSW",
    "rating": 4.3,
    "reviews": 1787,
    "lat": -32.2556215,
    "lng": 148.6315143,
    "place_id": "ChIJv8adXZBxD2sRsFr_c7UJBg8",
    "maps_url": "https://www.google.com/maps/place/?q=place_id:ChIJv8adXZBxD2sRsFr_c7UJBg8"
  },
  {
    "name": "Leading Edge Computers",
    "address": "33 Macquarie St, Dubbo NSW 2830, Australia",
    "suburb": "Dubbo NSW 2830",
    "state": "NSW",
    "rating": 3.6,
    "reviews": 51,
    "lat": -32.2449873,
    "lng": 148.6015401,
    "place_id": "ChIJQysH3rJxD2sRUWgzFT5dkbs",
    "maps_url": "https://www.google.com/maps/place/?q=place_id:ChIJQysH3rJxD2sRUWgzFT5dkbs"
  },
  {
    "name": "Officeworks Dubbo",
    "address": "10 Erskine St, Dubbo NSW 2830, Australia",
    "suburb": "Dubbo NSW 2830",
    "state": "NSW",
    "rating": 4.1,
    "reviews": 118,
    "lat": -32.2426534,
    "lng": 148.6038022,
    "place_id": "ChIJF9wcCLRxD2sRKpG-X8Q0hUs",
    "maps_url": "https://www.google.com/maps/place/?q=place_id:ChIJF9wcCLRxD2sRKpG-X8Q0hUs"
  },
  {
    "name": "Kmart Dubbo",
    "address": "Macquarie St, Dubbo NSW 2830, Australia",
    "suburb": "Dubbo NSW 2830",
    "state": "NSW",
    "rating": 3.7,
    "reviews": 258,
    "lat": -32.25028,
    "lng": 148.5991673,
    "place_id": "ChIJ3VMgWPJxD2sR6N5UdyofEVY",
    "maps_url": "https://www.google.com/maps/place/?q=place_id:ChIJ3VMgWPJxD2sR6N5UdyofEVY"
  },