[
  {
    "name": "Moore Park Golf",
    "address": "Cleveland St, Moore Park NSW 2021, Australia",
    "suburb": "Moore Park NSW 2021",
    "state": "NSW",
    "rating": 4.3,
    "reviews": 830,
    "lat": -33.896277,
    "lng": 151.220519,
    "place_id": "ChIJ4SAe9uSxEmsRzzaeG73hJAg",
    "maps_url": "https://www.google.com/maps/place/?q=place_id:ChIJ4SAe9uSxEmsRzzaeG73hJAg"
  },
  {
    "name": "The Royal Sydney Golf Club",
    "address": "Kent Rd, Rose Bay NSW 2029, Australia",
    "suburb": "Rose Bay NSW 2029",
    "state": "NSW",
    "rating": 4.4,
    "reviews": 257,
    "lat": -33.8731263,
    "lng": 151.2661243,
    "place_id": "ChIJwVPNYrutEmsRsATw-Wh9AQ8",
    "maps_url": "https://www.google.com/maps/place/?q=place_id:ChIJwVPNYrutEmsRsATw-Wh9AQ8"
  },
  {
    "name": "Cammeray Golf Club",
    "address": "Park Ave, Cremorne NSW 2090, Australia",
    "suburb": "Cremorne NSW 2090",
    "state": "NSW",
    "rating": 4,
    "reviews": 134,
    "lat": -33.8262423,
    "lng": 151.216263,
    "place_id": "ChIJMxj_aryuEmsRAAdIfGI3DSc",
    "maps_url": "https://www.google.com/maps/place/?q=place_id:ChIJMxj_aryuEmsRAAdIfGI3DSc"
  },
  {
    "name": "The Australian Golf Club",
    "address": "53 Bannerman Cres, Rosebery NSW 2018, Australia",
    "suburb": "Rosebery NSW 2018",
    "state": "NSW",
    "rating": 4.6,
    "reviews": 261,
    "lat": -33.9181682,
    "lng": 151.2121,
    "place_id": "ChIJZdfA2OyxEmsRfhB0DAspxVE",
    "maps_url": "https://www.google.com/maps/place/?q=place_id:ChIJZdfA2OyxEmsRfhB0DAspxVE"
  },
  {
    "name": "Northbridge Golf Club",
    "address": "296C Sailors Bay Rd, Northbridge NSW 2063, Australia",
    "suburb": "Northbridge NSW 2063",
    "state": "NSW",
    "rating": 4.4,
    "reviews": 583,
    "lat": -33.8111345,
    "lng": 151.2216619,
    "place_id": "ChIJm2GudbOuEmsRPgZC8cxoHcs",
    "maps_url": "https://www.google.com/maps/place/?q=place_id:ChIJm2GudbOuEmsRPgZC8cxoHcs"
  },
  {
    "name": "New South Wales Golf Club",
    "address": "101 Henry Head Lane, Kamay Botany Bay National Park, La Perouse NSW 2036, Australia",
    "suburb": "Kamay Botany Bay National Park",
    "state": "NSW",
    "rating": 4.7,
    "reviews": 416,
    "lat": -33.9911926,
    "lng": 151.2403335,
    "place_id": "ChIJ101_hxq0EmsRIP3v-Wh9AQ8",
    "maps_url": "https://www.google.com/maps/place/?q=place_id:ChIJ101_hxq0EmsRIP3v-Wh9AQ8"
  },
  {
    "name": "Golf in the City",
    "address": "8 Spring St, Sydney NSW 2000, Australia",
    "suburb": "Sydney NSW 2000",
    "state": "NSW",
    "rating": 4,
    "reviews": 109,
    "lat": -33.8646241,
    "lng": 151.2093048,
    "place_id": "ChIJ47uu6EGuEmsR5jDGM5UHs94",
    "maps_url": "https://www.google.com/maps/place/?q=place_id:ChIJ47uu6EGuEmsR5jDGM5UHs94"
  },
  {
    "name": "Long Reef Golf Club",
    "address": "Anzac Ave, Collaroy NSW 2097, Australia",
    "suburb": "Collaroy NSW 2097",
    "state": "NSW",
    "rating": 4.5,
    "reviews": 1056,
    "lat": -33.7412595,
    "lng": 151.3090922,
    "place_id": "ChIJv9zHZltVDWsRQAPw-Wh9AQ8",
    "maps_url": "https://www.google.com/maps/place/?q=place_id:ChIJv9zHZltVDWsRQAPw-Wh9AQ8"
  },
  {
    "name": "Bonnie Doon Golf Club",
    "address": "Banks Ave, Pagewood NSW 2035, Australia",
    "suburb": "Pagewood NSW 2035",
    "state": "NSW",
    "rating": 4.7,
    "reviews": 77,
    "lat": -33.9331512,
    "lng": 151.2248992,
    "place_id": "ChIJFV-Ab4KxEmsRgVYtCr2NMiU",
    "maps_url": "https://www.google.com/maps/place/?q=place_id:ChIJFV-Ab4KxEmsRgVYtCr2NMiU"
  },
  {
    "name": "St. Michael's Golf Club",
    "address": "Jennifer St, Little Bay NSW 2036, Australia",
    "suburb": "Little Bay NSW 2036",
    "state": "NSW",
    "rating": 4.7,
    "reviews": 430,
    "lat": -33.984761,
    "lng": 151.2466315,
    "place_id": "ChIJcWRf_A60EmsRQPzv-Wh9AQ8",
    "maps_url": "https://www.google.com/maps/place/?q=place_id:ChIJcWRf_A60EmsRQPzv-Wh9AQ8"
  },
  {
    "name": "Woollahra Golf Club",
    "address": "50 O'Sullivan Rd, Rose Bay NSW 2029, Australia",
    "suburb": "Rose Bay NSW 2029",
    "state": "NSW",
    "rating": 4.4,
    "reviews": 212,
    "lat": -33.8792228,
    "lng": 151.2631327,
    "place_id": "ChIJO9wj3rutEmsRwP_v-Wh9AQ8",
    "maps_url": "https://www.google.com/maps/place/?q=place_id:ChIJO9wj3rutEmsRwP_v-Wh9AQ8"
  },
  {
    "name": "Eastlake Golf Club",
    "address": "67 Gardeners Rd, Daceyville NSW 2032, Australia",
    "suburb": "Daceyville NSW 2032",
    "state": "NSW",
    "rating": 4.3,
    "reviews": 345,
    "lat": -33.9257067,
    "lng": 151.2214546,
    "place_id": "ChIJVTOm1ZqxEmsRMeWz4BxHzvs",
    "maps_url": "https://www.google.com/maps/place/?q=place_id:ChIJVTOm1ZqxEmsRMeWz4BxHzvs"
  },
  {
    "name": "Terrey Hills Golf and Country Club",
    "address": "Kingfisher Drive, 116 Booralie Rd, Terrey Hills NSW 2084, Australia",
    "suburb": "116 Booralie Rd",
    "state": "NSW",
    "rating": 4.7,
    "reviews": 173,
    "lat": -33.6681222,
    "lng": 151.1970053,
    "place_id": "ChIJ112I6ORWDWsRAPzv-Wh9AQ8",
    "maps_url": "https://www.google.com/maps/place/?q=place_id:ChIJ112I6ORWDWsRAPzv-Wh9AQ8"
  },
  {
    "name": "Mona Vale Golf Club",
    "address": "3 Golf Ave, Mona Vale NSW 2103, Australia",
    "suburb": "Mona Vale NSW 2103",
    "state": "NSW",
    "rating": 4.5,
    "reviews": 452,
    "lat": -33.6796569,
    "lng": 151.3093109,
    "place_id": "ChIJOyoTOLxUDWsRoADw-Wh9AQ8",
    "maps_url": "https://www.google.com/maps/place/?q=place_id:ChIJOyoTOLxUDWsRoADw-Wh9AQ8"
  },
  {
    "name": "Holey Moley Golf Club Darlinghurst",
    "address": "82-94 Darlinghurst Rd, Potts Point NSW 2011, Australia",
    "suburb": "Potts Point NSW 2011",
    "state": "NSW",
    "rating": 4.5,
    "reviews": 1047,
    "lat": -33.8752503,
    "lng": 151.2224741,
    "place_id": "ChIJ1wshhQ2uEmsRLOuYXOcXlyA",
    "maps_url": "https://www.google.com/maps/place/?q=place_id:ChIJ1wshhQ2uEmsRLOuYXOcXlyA"
  },
  {
    "name": "Strathfield Golf Club",
    "address": "52 Weeroona Rd, Strathfield NSW 2135, Australia",
    "suburb": "Strathfield NSW 2135",
    "state": "NSW",
    "rating": 4.4,
    "reviews": 756,
    "lat": -33.8806413,
    "lng": 151.0636365,
    "place_id": "ChIJ_2TEEm27EmsRAATw-Wh9AQ8",
    "maps_url": "https://www.google.com/maps/place/?q=place_id:ChIJ_2TEEm27EmsRAATw-Wh9AQ8"
  },
  {
    "name": "Botany Golf Course",
    "address": "1434 Botany Rd, Botany NSW 2019, Australia",
    "suburb": "Botany NSW 2019",
    "state": "NSW",
    "rating": 4.1,
    "reviews": 131,
    "lat": -33.959041,
    "lng": 151.2078787,
    "place_id": "ChIJa07yTjixEmsRCuJSeMLypuY",
    "maps_url": "https://www.google.com/maps/place/?q=place_id:ChIJa07yTjixEmsRCuJSeMLypuY"
  },
  {
    "name": "Moore Park Golf Driving Range",
    "address": "Cnr Anzac Parade &, Cleveland St, Moore Park NSW 2021, Australia",
    "suburb": "Cleveland St",
    "state": "NSW",
    "rating": 3.9,
    "reviews": 292,
    "lat": -33.8965577,
    "lng": 151.2200684,
    "place_id": "ChIJ6-Uyc-OxEmsRoIP9bJcVzXo",
    "maps_url": "https://www.google.com/maps/place/?q=place_id:ChIJ6-Uyc-OxEmsRoIP9bJcVzXo"
  },
  {
    "name": "Emajin Golf",
    "address": "Suite 302/52 Alfred St S, Milsons Point NSW 2061, Australia",
    "suburb": "Milsons Point NSW 2061",
    "state": "NSW",
    "rating": 5,
    "reviews": 49,
    "lat": -33.8470165,
    "lng": 151.2110365,
    "place_id": "ChIJh3vMiPGtEmsRIPOrLQPAp6A",
    "maps_url": "https://www.google.com/maps/place/?q=place_id:ChIJh3vMiPGtEmsRIPOrLQPAp6A"
  },
  {
    "name": "Lane Cove Golf Club",
    "address": "180 River Rd, Lane Cove NSW 2066, Australia",
    "suburb": "Lane Cove NSW 2066",
    "state": "NSW",
    "rating": 3.8,
    "reviews": 164,
    "lat": -33.8247817,
    "lng": 151.1754899,
    "place_id": "ChIJBbAfBxqvEmsRNmJrJtbiiPE",
    "maps_url": "https://www.google.com/maps/place/?q=place_id:ChIJBbAfBxqvEmsRNmJrJtbiiPE"
  },
  {
    "name": "Ryde-Parramatta Golf Club",
    "address": "1156 Victoria Rd, West Ryde NSW 2114, Australia",
    "suburb": "West Ryde NSW 2114",
    "state": "NSW",
    "rating": 4.5,
    "reviews": 107,
    "lat": -33.8067349,
    "lng": 151.0725639,
    "place_id": "ChIJ_6I5PFykEmsRnWkWxnXWhqQ",
    "maps_url": "https://www.google.com/maps/place/?q=place_id:ChIJ_6I5PFykEmsRnWkWxnXWhqQ"
  },
  {
    "name": "Oatlands Golf Club",
    "address": "94 Bettington Rd, Oatlands NSW 2117, Australia",
    "suburb": "Oatlands NSW 2117",
    "state": "NSW",
    "rating": 4.1,
    "reviews": 389,
    "lat": -33.7941645,
    "lng": 151.0283245,
    "place_id": "ChIJ977OvJmjEmsRTpgyzrOv6GA",
    "maps_url": "https://www.google.com/maps/place/?q=place_id:ChIJ977OvJmjEmsRTpgyzrOv6GA"
  },
  {
    "name": "North Ryde Golf Club",
    "address": "Parking lot, Twin Rd, North Ryde NSW 2113, Australia",
    "suburb": "Twin Rd",
    "state": "NSW",
    "rating": 4.2,
    "reviews": 527,
    "lat": -33.7978824,
    "lng": 151.1192027,
    "place_id": "ChIJmbtRsOmlEmsRYP7v-Wh9AQ8",
    "maps_url": "https://www.google.com/maps/place/?q=place_id:ChIJmbtRsOmlEmsRYP7v-Wh9AQ8"
  },
  {
    "name": "Muirfield Golf Club",
    "address": "58 Barclay Rd, North Rocks NSW 2151, Australia",
    "suburb": "North Rocks NSW 2151",
    "state": "NSW",
    "rating": 4.2,
    "reviews": 293,
    "lat": -33.7654891,
    "lng": 151.0164785,
    "place_id": "ChIJv9LDRNujEmsR0ALw-Wh9AQ8",
    "maps_url": "https://www.google.com/maps/place/?q=place_id:ChIJv9LDRNujEmsR0ALw-Wh9AQ8"
  },
  {
    "name": "Newcastle Golf Club",
    "address": "4 Vardon Rd, Fern Bay NSW 2295, Australia",
    "suburb": "Fern Bay NSW 2295",
    "state": "NSW",
    "rating": 4.4,
    "reviews": 122,
    "lat": -32.8696708,
    "lng": 151.7944793,
    "place_id": "ChIJKZ-wEahsc2sRsyIoJm29NS0",
    "maps_url": "https://www.google.com/maps/place/?q=place_id:ChIJKZ-wEahsc2sRsyIoJm29NS0"
  },
  {
    "name": "Pacific Dunes",
    "address": "18 Hole Championship Golf Course, Huntingdale Pl, Medowie NSW 2318, Australia",
    "suburb": "Huntingdale Pl",
    "state": "NSW",
    "rating": 4.3,
    "reviews": 274,
    "lat": -32.7667175,
    "lng": 151.8679827,
    "place_id": "ChIJbyQWhM9vc2sRQAbw-Wh9AQ8",
    "maps_url": "https://www.google.com/maps/place/?q=place_id:ChIJbyQWhM9vc2sRQAbw-Wh9AQ8"
  },
  {
    "name": "Merewether Golf Club",
    "address": "40 King St, Adamstown NSW 2289, Australia",
    "suburb": "Adamstown NSW 2289",
    "state": "NSW",
    "rating": 4.2,
    "reviews": 229,
    "lat": -32.9396717,
    "lng": 151.7329918,
    "place_id": "ChIJTcY4J9sVc2sR-yogTED0xlU",
    "maps_url": "https://www.google.com/maps/place/?q=place_id:ChIJTcY4J9sVc2sR-yogTED0xlU"
  },
  {
    "name": "Charlestown Golf Club & Driving Range",
    "address": "1A Barker Ave, Hillsborough NSW 2290, Australia",
    "suburb": "Hillsborough NSW 2290",
    "state": "NSW",
    "rating": 4.2,
    "reviews": 282,
    "lat": -32.963272,
    "lng": 151.6704088,
    "place_id": "ChIJK6VUbrs9c2sRWC43_XRMaiU",
    "maps_url": "https://www.google.com/maps/place/?q=place_id:ChIJK6VUbrs9c2sRWC43_XRMaiU"
  },
  {
    "name": "Nelson Bay Golf Club",
    "address": "57 Dowling St, Nelson Bay NSW 2315, Australia",
    "suburb": "Nelson Bay NSW 2315",
    "state": "NSW",
    "rating": 4.4,
    "reviews": 769,
    "lat": -32.7246045,
    "lng": 152.1461757,
    "place_id": "ChIJySKBFuaDc2sRDIzMFFJnKrI",
    "maps_url": "https://www.google.com/maps/place/?q=place_id:ChIJySKBFuaDc2sRDIzMFFJnKrI"
  },
  {
    "name": "Shortland Waters Golf Club",
    "address": "90/Off Vale St, Shortland NSW 2307, Australia",
    "suburb": "Shortland NSW 2307",
    "state": "NSW",
    "rating": 4.2,
    "reviews": 258,
    "lat": -32.8877822,
    "lng": 151.6979466,
    "place_id": "ChIJYzHIkGEVc2sRoAHw-Wh9AQ8",
    "maps_url": "https://www.google.com/maps/place/?q=place_id:ChIJYzHIkGEVc2sRoAHw-Wh9AQ8"
  },
  {
    "name": "X-Golf Newcastle",
    "address": "4/110 Elizabeth St, Tighes Hill NSW 2297, Australia",
    "suburb": "Tighes Hill NSW 2297",
    "state": "NSW",
    "rating": 5,
    "reviews": 3,
    "lat": -32.9060804,
    "lng": 151.7592118,
    "place_id": "ChIJIdhG8McVc2sRKpe0XsGNzxI",
    "maps_url": "https://www.google.com/maps/place/?q=place_id:ChIJIdhG8McVc2sRKpe0XsGNzxI"
  },
  {
    "name": "Hawks Nest Golf Club",
    "address": "1 Sanderling Ave, Hawks Nest NSW 2324, Australia",
    "suburb": "Hawks Nest NSW 2324",
    "state": "NSW",
    "rating": 4.1,
    "reviews": 452,
    "lat": -32.6683692,
    "lng": 152.1831512,
    "place_id": "ChIJ812sPjiHc2sRIMf9c7UJBg8",
    "maps_url": "https://www.google.com/maps/place/?q=place_id:ChIJ812sPjiHc2sRIMf9c7UJBg8"
  },
  {
    "name": "Horizons Golf Resort",
    "address": "5 Horizons Dr, Salamander Bay NSW 2317, Australia",
    "suburb": "Salamander Bay NSW 2317",
    "state": "NSW",
    "rating": 4.2,
    "reviews": 418,
    "lat": -32.74188530000001,
    "lng": 152.0902101,
    "place_id": "ChIJ16VGE3yCc2sREATw-Wh9AQ8",
    "maps_url": "https://www.google.com/maps/place/?q=place_id:ChIJ16VGE3yCc2sREATw-Wh9AQ8"
  },
  {
    "name": "Belmont Golf & Bowls",
    "address": "801A Pacific Hwy, Marks Point NSW 2280, Australia",
    "suburb": "Marks Point NSW 2280",
    "state": "NSW",
    "rating": 4.4,
    "reviews": 285,
    "lat": -33.0558204,
    "lng": 151.65802,
    "place_id": "ChIJdb9HXqsjc2sRyA62a30YgJg",
    "maps_url": "https://www.google.com/maps/place/?q=place_id:ChIJdb9HXqsjc2sRyA62a30YgJg"
  },
  {
    "name": "Newcastle Golf Practice Centre (NGPC)",
    "address": "signs, Off Astra St, Shortland NSW 2307, Australia",
    "suburb": "Off Astra St",
    "state": "NSW",
    "rating": 4.8,
    "reviews": 117,
    "lat": -32.8682768,
    "lng": 151.699768,
    "place_id": "ChIJdwTkb1gVc2sR8Uvj4dUt_LM",
    "maps_url": "https://www.google.com/maps/place/?q=place_id:ChIJdwTkb1gVc2sR8Uvj4dUt_LM"
  },
  {
    "name": "Rippit Golf",
    "address": "20 Curley Rd, Broadmeadow NSW 2305, Australia",
    "suburb": "Broadmeadow NSW 2305",
    "state": "NSW",
    "rating": 4.7,
    "reviews": 142,
    "lat": -32.9233591,
    "lng": 151.7303832,
    "place_id": "ChIJM7popuoVc2sRF9mzdmW1fso",
    "maps_url": "https://www.google.com/maps/place/?q=place_id:ChIJM7popuoVc2sRF9mzdmW1fso"
  },
  {
    "name": "Toronto Golf Club & Driving Range",
    "address": "Golf Club, 122 Wangi Rd, Toronto NSW 2283, Australia",
    "suburb": "122 Wangi Rd",
    "state": "NSW",
    "rating": 4.1,
    "reviews": 132,
    "lat": -33.0297824,
    "lng": 151.5630673,
    "place_id": "ChIJpf8jZa0kc2sR9IdJB7nvd2A",
    "maps_url": "https://www.google.com/maps/place/?q=place_id:ChIJpf8jZa0kc2sR9IdJB7nvd2A"
  },
  {
    "name": "Beresfield Golf Course & Mini Golf",
    "address": "260 Anderson Dr, Beresfield NSW 2322, Australia",
    "suburb": "Beresfield NSW 2322",
    "state": "NSW",
    "rating": 3.8,
    "reviews": 172,
    "lat": -32.7996491,
    "lng": 151.6448213,
    "place_id": "ChIJ_xIYpxxBc2sRgxfZtGKShJU",
    "maps_url": "https://www.google.com/maps/place/?q=place_id:ChIJ_xIYpxxBc2sRgxfZtGKShJU"
  },
  {
    "name": "Tanilba Bay Golf Club",
    "address": "988 Lemon Tree Passage Rd, Tanilba Bay NSW 2319, Australia",
    "suburb": "Tanilba Bay NSW 2319",
    "state": "NSW",
    "rating": 4.4,
    "reviews": 104,
    "lat": -32.7403687,
    "lng": 151.9951641,
    "place_id": "ChIJE35-mZR5c2sR0P3v-Wh9AQ8",
    "maps_url": "https://www.google.com/maps/place/?q=place_id:ChIJE35-mZR5c2sR0P3v-Wh9AQ8"
  },
  {
    "name": "Hunter Valley Golf Club",
    "address": "430 Wine Country Dr, Lovedale NSW 2325, Australia",
    "suburb": "Lovedale NSW 2325",
    "state": "NSW",
    "rating": 4.3,
    "reviews": 181,
    "lat": -32.7811888,
    "lng": 151.3482256,
    "place_id": "ChIJm_DJE7lLc2sRxyH44nQ5HsM",
    "maps_url": "https://www.google.com/maps/place/?q=place_id:ChIJm_DJE7lLc2sRxyH44nQ5HsM"
  },
  {
    "name": "Waratah Golf Club",
    "address": "456 Lake Rd, Argenton NSW 2284, Australia",
    "suburb": "Argenton NSW 2284",
    "state": "NSW",
    "rating": 4.3,
    "reviews": 92,
    "lat": -32.9398953,
    "lng": 151.6241917,
    "place_id": "ChIJHZvbRBc8c2sR4SMKXoRu_LI",
    "maps_url": "https://www.google.com/maps/place/?q=place_id:ChIJHZvbRBc8c2sR4SMKXoRu_LI"
  },
  {
    "name": "Newcastle Supa Putt",
    "address": "284 Turton Rd, Broadmeadow NSW 2292, Australia",
    "suburb": "Broadmeadow NSW 2292",
    "state": "NSW",
    "rating": 4.5,
    "reviews": 217,
    "lat": -32.9164203,
    "lng": 151.7268033,
    "place_id": "ChIJQ0vNaaMVc2sRciQPyrASLDo",
    "maps_url": "https://www.google.com/maps/place/?q=place_id:ChIJQ0vNaaMVc2sRciQPyrASLDo"
  },
  {
    "name": "Sugar Valley Golf Club",
    "address": "Boundary Rd, West Wallsend NSW 2286, Australia",
    "suburb": "West Wallsend NSW 2286",
    "state": "NSW",
    "rating": 4.1,
    "reviews": 57,
    "lat": -32.9073989,
    "lng": 151.5759198,
    "place_id": "ChIJi-De1WM5c2sRUATw-Wh9AQ8",
    "maps_url": "https://www.google.com/maps/place/?q=place_id:ChIJi-De1WM5c2sRUATw-Wh9AQ8"
  },
  {
    "name": "RJ Golf Charlestown Golf Club",
    "address": "1A Barker Ave, Hillsborough NSW 2290, Australia",
    "suburb": "Hillsborough NSW 2290",
    "state": "NSW",
    "rating": 4.5,
    "reviews": 11,
    "lat": -32.9630887,
    "lng": 151.6705382,
    "place_id": "ChIJA987Fbs9c2sRw_avkF3l6ng",
    "maps_url": "https://www.google.com/maps/place/?q=place_id:ChIJA987Fbs9c2sRw_avkF3l6ng"
  },
  {
    "name": "Wollongong Golf Club",
    "address": "151-161 Corrimal St, Wollongong NSW 2500, Australia",
    "suburb": "Wollongong NSW 2500",
    "state": "NSW",
    "rating": 4.1,
    "reviews": 834,
    "lat": -34.430411,
    "lng": 150.8997414,
    "place_id": "ChIJfzmROa4ZE2sRMObVK2NX0rI",
    "maps_url": "https://www.google.com/maps/place/?q=place_id:ChIJfzmROa4ZE2sRMObVK2NX0rI"
  },
  {
    "name": "The Links Shell Cove",
    "address": "1 Golf Dr, Shell Cove NSW 2529, Australia",
    "suburb": "Shell Cove NSW 2529",
    "state": "NSW",
    "rating": 4.3,
    "reviews": 888,
    "lat": -34.5976041,
    "lng": 150.8488629,
    "place_id": "ChIJxSWKW30TE2sRCBqH8iVReCg",
    "maps_url": "https://www.google.com/maps/place/?q=place_id:ChIJxSWKW30TE2sRCBqH8iVReCg"
  },
  {
    "name": "The Nineteenth",
    "address": "151-161 Corrimal St, Wollongong NSW 2500, Australia",
    "suburb": "Wollongong NSW 2500",
    "state": "NSW",
    "rating": 3.9,
    "reviews": 119,
    "lat": -34.430285,
    "lng": 150.899587,
    "place_id": "ChIJe4c6BtEZE2sR5sZ6uZ2wdZM",
    "maps_url": "https://www.google.com/maps/place/?q=place_id:ChIJe4c6BtEZE2sR5sZ6uZ2wdZM"
  },
  {
    "name": "Calderwood Valley Golf Course",
    "address": "532 Calderwood Rd, Calderwood NSW 2527, Australia",
    "suburb": "Calderwood NSW 2527",
    "state": "NSW",
    "rating": 4.7,
    "reviews": 427,
    "lat": -34.55037799999999,
    "lng": 150.724806,
    "place_id": "ChIJN1bo-BwNE2sRdq9k9Q3vdrs",
    "maps_url": "https://www.google.com/maps/place/?q=place_id:ChIJN1bo-BwNE2sRdq9k9Q3vdrs"
  },
  {
    "name": "Russell Vale Golf Club",
    "address": "Hicks St, Russell Vale NSW 2517, Australia",
    "suburb": "Russell Vale NSW 2517",
    "state": "NSW",
    "rating": 4.3,
    "reviews": 151,
    "lat": -34.355971,
    "lng": 150.9000569,
    "place_id": "ChIJayDD9-YeE2sRnx3PpgA5adI",
    "maps_url": "https://www.google.com/maps/place/?q=place_id:ChIJayDD9-YeE2sRnx3PpgA5adI"
  },
  {
    "name": "Illawarra Golf Complex",
    "address": "71-91 Windang Rd, Windang NSW 2528, Australia",
    "suburb": "Windang NSW 2528",
    "state": "NSW",
    "rating": 4.3,
    "reviews": 183,
    "lat": -34.5209197,
    "lng": 150.8718719,
    "place_id": "ChIJKYWffLcWE2sRQqH-i-dKKw8",
    "maps_url": "https://www.google.com/maps/place/?q=place_id:ChIJKYWffLcWE2sRQqH-i-dKKw8"
  },
  {
    "name": "The Grange",
    "address": "Princes Highway, 10 Kembla Grange Pl, Kembla Grange NSW 2526, Australia",
    "suburb": "10 Kembla Grange Pl",
    "state": "NSW",
    "rating": 4.4,
    "reviews": 272,
    "lat": -34.4777491,
    "lng": 150.8116263,
    "place_id": "ChIJe9s6iVUQE2sRAALw-Wh9AQ8",
    "maps_url": "https://www.google.com/maps/place/?q=place_id:ChIJe9s6iVUQE2sRAALw-Wh9AQ8"
  },
  {
    "name": "Boomerang Public Golf Course",
    "address": "167 Old, 167 Princes Hwy, Maddens Plains NSW 2508, Australia",
    "suburb": "167 Princes Hwy",
    "state": "NSW",
    "rating": 4.4,
    "reviews": 109,
    "lat": -34.251035,
    "lng": 150.9456475,
    "place_id": "ChIJi8-N3JjgEmsRgPzv-Wh9AQ8",
    "maps_url": "https://www.google.com/maps/place/?q=place_id:ChIJi8-N3JjgEmsRgPzv-Wh9AQ8"
  },
  {
    "name": "Port Kembla Golf Club",
    "address": "Golf Pl, Primbee NSW 2505, Australia",
    "suburb": "Primbee NSW 2505",
    "state": "NSW",
    "rating": 4.2,
    "reviews": 229,
    "lat": -34.5084546,
    "lng": 150.8798405,
    "place_id": "ChIJS-H2usQWE2sR4hiHeS_gQUk",
    "maps_url": "https://www.google.com/maps/place/?q=place_id:ChIJS-H2usQWE2sR4hiHeS_gQUk"
  },
  {
    "name": "Holey Moley Golf Club Wollongong",
    "address": "200 Crown St, Wollongong NSW 2500, Australia",
    "suburb": "Wollongong NSW 2500",
    "state": "NSW",
    "rating": 4.6,
    "reviews": 732,
    "lat": -34.4260684,
    "lng": 150.893536,
    "place_id": "ChIJdbdx5N0ZE2sRJRhPnV7FdqE",
    "maps_url": "https://www.google.com/maps/place/?q=place_id:ChIJdbdx5N0ZE2sRJRhPnV7FdqE"
  },
  {
    "name": "Kiama Golf Club",
    "address": "79-81 Oxley Ave, Kiama Downs NSW 2533, Australia",
    "suburb": "Kiama Downs NSW 2533",
    "state": "NSW",
    "rating": 4.4,
    "reviews": 277,
    "lat": -34.6325789,
    "lng": 150.8538757,
    "place_id": "ChIJr0w6oplsE2sRvZiQIfMe-PE",
    "maps_url": "https://www.google.com/maps/place/?q=place_id:ChIJr0w6oplsE2sRvZiQIfMe-PE"
  },
  {
    "name": "Shootout Golf",
    "address": "18/100-104 Corrimal St, Wollongong NSW 2500, Australia",
    "suburb": "Wollongong NSW 2500",
    "state": "NSW",
    "rating": 4.5,
    "reviews": 13,
    "lat": -34.423591,
    "lng": 150.899953,
    "place_id": "ChIJtfPehQ3IEmsRaaSFg7lljs4",
    "maps_url": "https://www.google.com/maps/place/?q=place_id:ChIJtfPehQ3IEmsRaaSFg7lljs4"
  },
  {
    "name": "Shelly Beach Golf Club",
    "address": "Shelly Beach Rd, Shelly Beach NSW 2261, Australia",
    "suburb": "Shelly Beach NSW 2261",
    "state": "NSW",
    "rating": 4.4,
    "reviews": 1553,
    "lat": -33.3697159,
    "lng": 151.4868857,
    "place_id": "ChIJMxqhsTvPcmsR2DDOz7eAC1g",
    "maps_url": "https://www.google.com/maps/place/?q=place_id:ChIJMxqhsTvPcmsR2DDOz7eAC1g"
  },
  {
    "name": "Magenta Shores Golf & Country Club",
    "address": "1 Magenta Dr, Magenta NSW 2261, Australia",
    "suburb": "Magenta NSW 2261",
    "state": "NSW",
    "rating": 4.5,
    "reviews": 671,
    "lat": -33.3110594,
    "lng": 151.5228404,
    "place_id": "ChIJh2bgLK3acmsRwTonbIgHfms",
    "maps_url": "https://www.google.com/maps/place/?q=place_id:ChIJh2bgLK3acmsRwTonbIgHfms"
  },
  {
    "name": "Kooindah Waters Golf Club",
    "address": "40 Kooindah Blvd, Wyong NSW 2259, Australia",
    "suburb": "Wyong NSW 2259",
    "state": "NSW",
    "rating": 4.3,
    "reviews": 413,
    "lat": -33.28616710000001,
    "lng": 151.4406474,
    "place_id": "ChIJiTg_y-fRcmsRnz4OZxXnFak",
    "maps_url": "https://www.google.com/maps/place/?q=place_id:ChIJiTg_y-fRcmsRnz4OZxXnFak"
  },
  {
    "name": "Gosford Golf Club",
    "address": "22 Racecourse Rd, Gosford NSW 2250, Australia",
    "suburb": "Gosford NSW 2250",
    "state": "NSW",
    "rating": 4,
    "reviews": 256,
    "lat": -33.4177114,
    "lng": 151.3348735,
    "place_id": "ChIJ58xZs7HKcmsRIAbw-Wh9AQ8",
    "maps_url": "https://www.google.com/maps/place/?q=place_id:ChIJ58xZs7HKcmsRIAbw-Wh9AQ8"
  },
  {
    "name": "Wyong Golf Club",
    "address": "319 Pacific Hwy, Wyong NSW 2259, Australia",
    "suburb": "Wyong NSW 2259",
    "state": "NSW",
    "rating": 4.2,
    "reviews": 699,
    "lat": -33.268862,
    "lng": 151.4342489,
    "place_id": "ChIJ-avGg-7RcmsRQALw-Wh9AQ8",
    "maps_url": "https://www.google.com/maps/place/?q=place_id:ChIJ-avGg-7RcmsRQALw-Wh9AQ8"
  },
  {
    "name": "Toukley Golf Club",
    "address": "54 Ninth Ave, Toukley NSW 2263, Australia",
    "suburb": "Toukley NSW 2263",
    "state": "NSW",
    "rating": 4.4,
    "reviews": 340,
    "lat": -33.2537963,
    "lng": 151.5500998,
    "place_id": "ChIJWZCzZTHacmsRgALw-Wh9AQ8",
    "maps_url": "https://www.google.com/maps/place/?q=place_id:ChIJWZCzZTHacmsRgALw-Wh9AQ8"
  },
  {
    "name": "Tuggerah Lakes Golf Club",
    "address": "Shelly Beach Rd, Shelly Beach NSW 2261, Australia",
    "suburb": "Shelly Beach NSW 2261",
    "state": "NSW",
    "rating": 4.3,
    "reviews": 72,
    "lat": -33.3692048,
    "lng": 151.4865537,
    "place_id": "ChIJ-Sx8o0DPcmsRsALw-Wh9AQ8",
    "maps_url": "https://www.google.com/maps/place/?q=place_id:ChIJ-Sx8o0DPcmsRsALw-Wh9AQ8"
  },
  {
    "name": "The Springs",
    "address": "1080 Peats Ridge Rd, Peats Ridge NSW 2250, Australia",
    "suburb": "Peats Ridge NSW 2250",
    "state": "NSW",
    "rating": 4.1,
    "reviews": 418,
    "lat": -33.3124361,
    "lng": 151.2330972,
    "place_id": "ChIJ2TJnHVcxDWsREAbw-Wh9AQ8",
    "maps_url": "https://www.google.com/maps/place/?q=place_id:ChIJ2TJnHVcxDWsREAbw-Wh9AQ8"
  },
  {
    "name": "Mangrove Mountain Memorial Club Ltd",
    "address": "18 Hallards Rd, Central Mangrove NSW 2250, Australia",
    "suburb": "Central Mangrove NSW 2250",
    "state": "NSW",
    "rating": 4.1,
    "reviews": 301,
    "lat": -33.291052,
    "lng": 151.237988,
    "place_id": "ChIJCdQa8tAzDWsRkATw-Wh9AQ8",
    "maps_url": "https://www.google.com/maps/place/?q=place_id:ChIJCdQa8tAzDWsRkATw-Wh9AQ8"
  },
  {
    "name": "Erina Creek Golf Course",
    "address": "325 The Entrance Rd, Erina NSW 2250, Australia",
    "suburb": "Erina NSW 2250",
    "state": "NSW",
    "rating": 4.2,
    "reviews": 44,
    "lat": -33.4287875,
    "lng": 151.3909512,
    "place_id": "ChIJZ7xWJ2zKcmsR7ZXfOpifcKs",
    "maps_url": "https://www.google.com/maps/place/?q=place_id:ChIJZ7xWJ2zKcmsR7ZXfOpifcKs"
  },
  {
    "name": "Penrith Golf Club",
    "address": "1939 The Northern Rd, Penrith NSW 2750, Australia",
    "suburb": "Penrith NSW 2750",
    "state": "NSW",
    "rating": 4.1,
    "reviews": 604,
    "lat": -33.7907292,
    "lng": 150.6982623,
    "place_id": "ChIJC2bBa3CPEmsRSDVUxq1Bamo",
    "maps_url": "https://www.google.com/maps/place/?q=place_id:ChIJC2bBa3CPEmsRSDVUxq1Bamo"
  },
  {
    "name": "Aqua Golf",
    "address": "Panthers Precinct, 123 Mulgoa Rd, Penrith NSW 2750, Australia",
    "suburb": "123 Mulgoa Rd",
    "state": "NSW",
    "rating": 4.5,
    "reviews": 1439,
    "lat": -33.7565255,
    "lng": 150.6829137,
    "place_id": "ChIJ07HheVSPEmsRmhn2pvM0u5c",
    "maps_url": "https://www.google.com/maps/place/?q=place_id:ChIJ07HheVSPEmsRmhn2pvM0u5c"
  },
  {
    "name": "Twin Creeks Golf & Country Club",
    "address": "2-8 Twin Creeks Dr, Luddenham NSW 2745, Australia",
    "suburb": "Luddenham NSW 2745",
    "state": "NSW",
    "rating": 4.3,
    "reviews": 621,
    "lat": -33.8361396,
    "lng": 150.7603912,
    "place_id": "ChIJSx90pRmOEmsR0APw-Wh9AQ8",
    "maps_url": "https://www.google.com/maps/place/?q=place_id:ChIJSx90pRmOEmsR0APw-Wh9AQ8"
  },
  {
    "name": "Glenmore Heritage Valley",
    "address": "690 Mulgoa Rd, Mulgoa NSW 2745, Australia",
    "suburb": "Mulgoa NSW 2745",
    "state": "NSW",
    "rating": 4.2,
    "reviews": 255,
    "lat": -33.7985391,
    "lng": 150.6531847,
    "place_id": "ChIJGTBOyyKJEmsRkP7v-Wh9AQ8",
    "maps_url": "https://www.google.com/maps/place/?q=place_id:ChIJGTBOyyKJEmsRkP7v-Wh9AQ8"
  },
  {
    "name": "Stonecutters Ridge Golf Club",
    "address": "86 Stonecutters Dr, Colebee NSW 2761, Australia",
    "suburb": "Colebee NSW 2761",
    "state": "NSW",
    "rating": 4.5,
    "reviews": 1085,
    "lat": -33.7225105,
    "lng": 150.8646587,
    "place_id": "ChIJ5zWlwFWZEmsRHIexbPgwWzs",
    "maps_url": "https://www.google.com/maps/place/?q=place_id:ChIJ5zWlwFWZEmsRHIexbPgwWzs"
  },
  {
    "name": "Penrith Golf Club",
    "address": "Golf Club, Salkeld Rd, Penrith CA11 8SG, UK",
    "suburb": "Salkeld Rd",
    "state": "NSW",
    "rating": 4.5,
    "reviews": 251,
    "lat": 54.6799905,
    "lng": -2.7546377,
    "place_id": "ChIJLycA_2H8fEgRYL5oA6cZdg8",
    "maps_url": "https://www.google.com/maps/place/?q=place_id:ChIJLycA_2H8fEgRYL5oA6cZdg8"
  },
  {
    "name": "X-Golf Penrith",
    "address": "17/55-61 York Rd, Jamisontown NSW 2750, Australia",
    "suburb": "Jamisontown NSW 2750",
    "state": "NSW",
    "rating": 4.9,
    "reviews": 107,
    "lat": -33.7674397,
    "lng": 150.6875801,
    "place_id": "ChIJG66YuviPEmsREziPgnLtU60",
    "maps_url": "https://www.google.com/maps/place/?q=place_id:ChIJG66YuviPEmsREziPgnLtU60"
  },
  {
    "name": "Dunheved Golf Club",
    "address": "176 Links Rd, St Marys NSW 2760, Australia",
    "suburb": "St Marys NSW 2760",
    "state": "NSW",
    "rating": 4.4,
    "reviews": 218,
    "lat": -33.7463645,
    "lng": 150.7631378,
    "place_id": "ChIJ7bjJOzKFEmsRTm1SR40NJaM",
    "maps_url": "https://www.google.com/maps/place/?q=place_id:ChIJ7bjJOzKFEmsRTm1SR40NJaM"
  },
  {
    "name": "Leonay Golf Club",
    "address": "1 Leonay Parade, Leonay NSW 2750, Australia",
    "suburb": "Leonay NSW 2750",
    "state": "NSW",
    "rating": 4.2,
    "reviews": 405,
    "lat": -33.760882,
    "lng": 150.651108,
    "place_id": "ChIJh9hHBpaIEmsRWA3ereSlne8",
    "maps_url": "https://www.google.com/maps/place/?q=place_id:ChIJh9hHBpaIEmsRWA3ereSlne8"
  },
  {
    "name": "Holey Moley Golf Club Penrith",
    "address": "Westfield Shopping Centre, Shop MM102/585 High St, Penrith NSW 2750, Australia",
    "suburb": "Shop MM102/585 High St",
    "state": "NSW",
    "rating": 4.3,
    "reviews": 301,
    "lat": -33.7505308,
    "lng": 150.6936705,
    "place_id": "ChIJG8u5H8OFEmsRuhOw250uB38",
    "maps_url": "https://www.google.com/maps/place/?q=place_id:ChIJG8u5H8OFEmsRuhOw250uB38"
  },
  {
    "name": "The 19th Golf Driving Range",
    "address": "2/70 Blaikie Rd, Jamisontown NSW 2750, Australia",
    "suburb": "Jamisontown NSW 2750",
    "state": "NSW",
    "rating": 4.5,
    "reviews": 247,
    "lat": -33.7604522,
    "lng": 150.6760711,
    "place_id": "ChIJf31iyFKPEmsRXyeU19IaoCg",
    "maps_url": "https://www.google.com/maps/place/?q=place_id:ChIJf31iyFKPEmsRXyeU19IaoCg"
  },
  {
    "name": "Colonial Golf And Footgolf Course",
    "address": "1 Werrington Rd, Werrington NSW 2747, Australia",
    "suburb": "Werrington NSW 2747",
    "state": "NSW",
    "rating": 4.2,
    "reviews": 136,
    "lat": -33.7553376,
    "lng": 150.7614541,
    "place_id": "ChIJFb_-SU6FEmsR81bu2udNsNE",
    "maps_url": "https://www.google.com/maps/place/?q=place_id:ChIJFb_-SU6FEmsR81bu2udNsNE"
  },
  {
    "name": "Panthers Penrith Rugby Leagues Club",
    "address": "83 Mulgoa Rd, Penrith NSW 2750, Australia",
    "suburb": "Penrith NSW 2750",
    "state": "NSW",
    "rating": 4.3,
    "reviews": 4680,
    "lat": -33.7577332,
    "lng": 150.6839358,
    "place_id": "ChIJKwrvTFOPEmsRoHHv-Wh9AQ8",
    "maps_url": "https://www.google.com/maps/place/?q=place_id:ChIJKwrvTFOPEmsRoHHv-Wh9AQ8"
  },
  {
    "name": "Springwood Country Club",
    "address": "84 Hawkesbury Rd, Springwood NSW 2777, Australia",
    "suburb": "Springwood NSW 2777",
    "state": "NSW",
    "rating": 4.3,
    "reviews": 357,
    "lat": -33.6897123,
    "lng": 150.5782071,
    "place_id": "ChIJbU0uzH99EmsRMATw-Wh9AQ8",
    "maps_url": "https://www.google.com/maps/place/?q=place_id:ChIJbU0uzH99EmsRMATw-Wh9AQ8"
  },
  {
    "name": "Big Swing Golf Penrith - Indoor Golf and Bar",
    "address": "2/233 Mulgoa Rd, Penrith NSW 2750, Australia",
    "suburb": "Penrith NSW 2750",
    "state": "NSW",
    "rating": 5,
    "reviews": 111,
    "lat": -33.7671279,
    "lng": 150.6775512,
    "place_id": "ChIJz02HiUyPEmsRHjJicjeS8aE",
    "maps_url": "https://www.google.com/maps/place/?q=place_id:ChIJz02HiUyPEmsRHjJicjeS8aE"
  },
  {
    "name": "Swing City Golf & Entertainment",
    "address": "2-6 Norbrik Dr, Bella Vista NSW 2153, Australia",
    "suburb": "Bella Vista NSW 2153",
    "state": "NSW",
    "rating": 4.5,
    "reviews": 714,
    "lat": -33.74592490000001,
    "lng": 150.9509714,
    "place_id": "ChIJnbKeXgaZEmsRXDNWBQPjTvc",
    "maps_url": "https://www.google.com/maps/place/?q=place_id:ChIJnbKeXgaZEmsRXDNWBQPjTvc"
  },
  {
    "name": "Cumberland Country Golf Club Greystanes",
    "address": "248 Old Prospect Rd, Greystanes NSW 2145, Australia",
    "suburb": "Greystanes NSW 2145",
    "state": "NSW",
    "rating": 4.3,
    "reviews": 336,
    "lat": -33.8195877,
    "lng": 150.9454498,
    "place_id": "ChIJmS5mP_iXEmsR96N87ang9W8",
    "maps_url": "https://www.google.com/maps/place/?q=place_id:ChIJmS5mP_iXEmsR96N87ang9W8"
  },
  {
    "name": "Fox's Lair Pro Shop",
    "address": "55 Fox Hills Cres, Prospect NSW 2148, Australia",
    "suburb": "Prospect NSW 2148",
    "state": "NSW",
    "rating": 4.2,
    "reviews": 489,
    "lat": -33.8052295,
    "lng": 150.931521,
    "place_id": "ChIJ_S1pKRSYEmsRkAHw-Wh9AQ8",
    "maps_url": "https://www.google.com/maps/place/?q=place_id:ChIJ_S1pKRSYEmsRkAHw-Wh9AQ8"
  },
  {
    "name": "Castle Hill Country Club",
    "address": "7 Spurway Dr, Norwest NSW 2153, Australia",
    "suburb": "Norwest NSW 2153",
    "state": "NSW",
    "rating": 4.3,
    "reviews": 233,
    "lat": -33.7252014,
    "lng": 150.9631426,
    "place_id": "ChIJ66cMdd2hEmsR0P_v-Wh9AQ8",
    "maps_url": "https://www.google.com/maps/place/?q=place_id:ChIJ66cMdd2hEmsR0P_v-Wh9AQ8"
  },
  {
    "name": "Fairfield Golf Course",
    "address": "390-428 Smithfield Rd, Prairiewood NSW 2176, Australia",
    "suburb": "Prairiewood NSW 2176",
    "state": "NSW",
    "rating": 3,
    "reviews": 158,
    "lat": -33.863544,
    "lng": 150.9090816,
    "place_id": "ChIJNQWbFviWEmsRIATw-Wh9AQ8",
    "maps_url": "https://www.google.com/maps/place/?q=place_id:ChIJNQWbFviWEmsRIATw-Wh9AQ8"
  },
  {
    "name": "Killara Golf Club",
    "address": "556 Pacific Hwy, Killara NSW 2071, Australia",
    "suburb": "Killara NSW 2071",
    "state": "NSW",
    "rating": 4.4,
    "reviews": 161,
    "lat": -33.7697065,
    "lng": 151.1586976,
    "place_id": "ChIJpRWu8peoEmsR8ALw-Wh9AQ8",
    "maps_url": "https://www.google.com/maps/place/?q=place_id:ChIJpRWu8peoEmsR8ALw-Wh9AQ8"
  },
  {
    "name": "Club Blacktown",
    "address": "40 Second Ave, Blacktown NSW 2148, Australia",
    "suburb": "Blacktown NSW 2148",
    "state": "NSW",
    "rating": 4.1,
    "reviews": 1363,
    "lat": -33.7661323,
    "lng": 150.9074554,
    "place_id": "ChIJCzeAKfyYEmsRiRYC4L0jJZw",
    "maps_url": "https://www.google.com/maps/place/?q=place_id:ChIJCzeAKfyYEmsRiRYC4L0jJZw"
  },
  {
    "name": "Campbelltown Golf Club",
    "address": "1 Golf Course Dr, Glen Alpine NSW 2560, Australia",
    "suburb": "Glen Alpine NSW 2560",
    "state": "NSW",
    "rating": 4.3,
    "reviews": 525,
    "lat": -34.0844072,
    "lng": 150.7855745,
    "place_id": "ChIJxXSFb8HvEmsRwAXw-Wh9AQ8",
    "maps_url": "https://www.google.com/maps/place/?q=place_id:ChIJxXSFb8HvEmsRwAXw-Wh9AQ8"
  },
  {
    "name": "Banners Golf",
    "address": "248 Old Prospect Rd, Greystanes NSW 2145, Australia",
    "suburb": "Greystanes NSW 2145",
    "state": "NSW",
    "rating": 4.9,
    "reviews": 33,
    "lat": -33.8196676,
    "lng": 150.9455639,
    "place_id": "ChIJsTWoP_iXEmsRJGBjAECDsIg",
    "maps_url": "https://www.google.com/maps/place/?q=place_id:ChIJsTWoP_iXEmsRJGBjAECDsIg"
  },
  {
    "name": "Macquarie Links International Golf Club",
    "address": "lot 2 Macquarie Links Dr, Macquarie Links NSW 2565, Australia",
    "suburb": "Macquarie Links NSW 2565",
    "state": "NSW",
    "rating": 4.4,
    "reviews": 527,
    "lat": -33.9843177,
    "lng": 150.8741458,
    "place_id": "ChIJ2_wRGkTrEmsRUP3v-Wh9AQ8",
    "maps_url": "https://www.google.com/maps/place/?q=place_id:ChIJ2_wRGkTrEmsRUP3v-Wh9AQ8"
  },
  {
    "name": "Workers Blacktown",
    "address": "55 Campbell St, Blacktown NSW 2148, Australia",
    "suburb": "Blacktown NSW 2148",
    "state": "NSW",
    "rating": 4.1,
    "reviews": 2404,
    "lat": -33.7731611,
    "lng": 150.9086002,
    "place_id": "ChIJxUgiPFWYEmsRzncMHI7_6LI",
    "maps_url": "https://www.google.com/maps/place/?q=place_id:ChIJxUgiPFWYEmsRzncMHI7_6LI"
  },
  {
    "name": "Gordon Golf Club",
    "address": "2 Lynn Ridge Ave, Gordon NSW 2072, Australia",
    "suburb": "Gordon NSW 2072",
    "state": "NSW",
    "rating": 4.1,
    "reviews": 275,
    "lat": -33.760274,
    "lng": 151.145975,
    "place_id": "ChIJ33juf5uoEmsRIADw-Wh9AQ8",
    "maps_url": "https://www.google.com/maps/place/?q=place_id:ChIJ33juf5uoEmsRIADw-Wh9AQ8"
  },
  {
    "name": "Seven Hills-Toongabbie RSL",
    "address": "108 Best Rd, Seven Hills NSW 2148, Australia",
    "suburb": "Seven Hills NSW 2148",
    "state": "NSW",
    "rating": 4,
    "reviews": 1835,
    "lat": -33.7784233,
    "lng": 150.9374389,
    "place_id": "ChIJMfwVi2KYEmsR19ocx5d6E2Y",
    "maps_url": "https://www.google.com/maps/place/?q=place_id:ChIJMfwVi2KYEmsR19ocx5d6E2Y"
  },
  {
    "name": "Oak Point Golf Club Limited",
    "address": "198/228 Hollywood Dr, Lansvale NSW 2166, Australia",
    "suburb": "Lansvale NSW 2166",
    "state": "NSW",
    "rating": 4.2,
    "reviews": 133,
    "lat": -33.9047873,
    "lng": 150.9684617,
    "place_id": "ChIJs88Ls-a9EmsREP3v-Wh9AQ8",
    "maps_url": "https://www.google.com/maps/place/?q=place_id:ChIJs88Ls-a9EmsREP3v-Wh9AQ8"
  },
  {
    "name": "Brighton Lakes Recreation & Golf Club",
    "address": "43 Brickmakers Dr, Moorebank NSW 2170, Australia",
    "suburb": "Moorebank NSW 2170",
    "state": "NSW",
    "rating": 4.2,
    "reviews": 976,
    "lat": -33.9419522,
    "lng": 150.9575221,
    "place_id": "ChIJAQAAwCu-EmsRmRrawdW8tOI",
    "maps_url": "https://www.google.com/maps/place/?q=place_id:ChIJAQAAwCu-EmsRmRrawdW8tOI"
  },
  {
    "name": "Cabramatta Golf Club",
    "address": "Corner Cabramatta Road West &, Cumberland Hwy, Cabramatta NSW 2166, Australia",
    "suburb": "Cumberland Hwy",
    "state": "NSW",
    "rating": 4.4,
    "reviews": 349,
    "lat": -33.8997776,
    "lng": 150.9186079,
    "place_id": "ChIJLeKTBNGVEmsRkALw-Wh9AQ8",
    "maps_url": "https://www.google.com/maps/place/?q=place_id:ChIJLeKTBNGVEmsRkALw-Wh9AQ8"
  },
  {
    "name": "Bankstown Golf Club",
    "address": "70 Ashford Ave, Milperra NSW 2214, Australia",
    "suburb": "Milperra NSW 2214",
    "state": "NSW",
    "rating": 4.4,
    "reviews": 340,
    "lat": -33.9354534,
    "lng": 150.987917,
    "place_id": "ChIJp9bC_Gm-EmsREAXw-Wh9AQ8",
    "maps_url": "https://www.google.com/maps/place/?q=place_id:ChIJp9bC_Gm-EmsREAXw-Wh9AQ8"
  },
  {
    "name": "Georges River Golf Course",
    "address": "255 Henry Lawson Dr, Georges Hall NSW 2198, Australia",
    "suburb": "Georges Hall NSW 2198",
    "state": "NSW",
    "rating": 4,
    "reviews": 260,
    "lat": -33.9192788,
    "lng": 150.975695,
    "place_id": "ChIJWVb9xt-9EmsRMXCJFxUVhY4",
    "maps_url": "https://www.google.com/maps/place/?q=place_id:ChIJWVb9xt-9EmsRMXCJFxUVhY4"
  },
  {
    "name": "Lakeside Golf Club Camden",
    "address": "188 Ballandean Bvd, Gledswood Hills NSW 2557, Australia",
    "suburb": "Gledswood Hills NSW 2557",
    "state": "NSW",
    "rating": 4.3,
    "reviews": 707,
    "lat": -33.9990731,
    "lng": 150.7897155,
    "place_id": "ChIJU8QmSZTtEmsRwPzv-Wh9AQ8",
    "maps_url": "https://www.google.com/maps/place/?q=place_id:ChIJU8QmSZTtEmsRwPzv-Wh9AQ8"
  },
  {
    "name": "Concord Golf Club",
    "address": "190 Majors Bay Rd, Concord NSW 2137, Australia",
    "suburb": "Concord NSW 2137",
    "state": "NSW",
    "rating": 4.6,
    "reviews": 240,
    "lat": -33.8521387,
    "lng": 151.0990903,
    "place_id": "ChIJWX4HKCalEmsRkwOvFqH_KWU",
    "maps_url": "https://www.google.com/maps/place/?q=place_id:ChIJWX4HKCalEmsRkwOvFqH_KWU"
  },
  {
    "name": "The Lakes Golf Club",
    "address": "Vernon Ave &, King St, Eastlakes NSW 2018, Australia",
    "suburb": "King St",
    "state": "NSW",
    "rating": 4.5,
    "reviews": 327,
    "lat": -33.9335896,
    "lng": 151.2123797,
    "place_id": "ChIJ0bK_vwqxEmsRkAXw-Wh9AQ8",
    "maps_url": "https://www.google.com/maps/place/?q=place_id:ChIJ0bK_vwqxEmsRkAXw-Wh9AQ8"
  },
  {
    "name": "Liverpool Golf Club Return and Earn Machine",
    "address": "198/228 Hollywood Dr, Lansvale NSW 2166, Australia",
    "suburb": "Lansvale NSW 2166",
    "state": "NSW",
    "rating": 5,
    "reviews": 1,
    "lat": -33.9038408,
    "lng": 150.9685498,
    "place_id": "ChIJBVYhFWW9EmsRsBDUpgH-0nM",
    "maps_url": "https://www.google.com/maps/place/?q=place_id:ChIJBVYhFWW9EmsRsBDUpgH-0nM"
  },
  {
    "name": "Camden Golf Club",
    "address": "50 Lodges Rd, Narellan NSW 2567, Australia",
    "suburb": "Narellan NSW 2567",
    "state": "NSW",
    "rating": 4.2,
    "reviews": 527,
    "lat": -34.0510025,
    "lng": 150.7311096,
    "place_id": "ChIJSRAwW6zxEmsRYAXw-Wh9AQ8",
    "maps_url": "https://www.google.com/maps/place/?q=place_id:ChIJSRAwW6zxEmsRYAXw-Wh9AQ8"
  },
  {
    "name": "Macarthur Grange Country Club",
    "address": "18 Raby Rd, Kearns NSW 2558, Australia",
    "suburb": "Kearns NSW 2558",
    "state": "NSW",
    "rating": 4,
    "reviews": 202,
    "lat": -34.0126343,
    "lng": 150.799805,
    "place_id": "ChIJSaaKH7_tEmsRi6D5xv966u4",
    "maps_url": "https://www.google.com/maps/place/?q=place_id:ChIJSaaKH7_tEmsRi6D5xv966u4"
  },
  {
    "name": "Lochiel Park Golf at Geoff Heath Par 3 Golf Complex",
    "address": "James St, Campbelltown SA 5074, Australia",
    "suburb": "Campbelltown SA 5074",
    "state": "NSW",
    "rating": 4.6,
    "reviews": 281,
    "lat": -34.8816992,
    "lng": 138.6503752,
    "place_id": "ChIJNf-7vxfKsGoRoAq5RVU2Aw8",
    "maps_url": "https://www.google.com/maps/place/?q=place_id:ChIJNf-7vxfKsGoRoAq5RVU2Aw8"
  },
  {
    "name": "Mega Mini Golf",
    "address": "1/8 Rose St, Campbelltown NSW 2560, Australia",
    "suburb": "Campbelltown NSW 2560",
    "state": "NSW",
    "rating": 4.7,
    "reviews": 1108,
    "lat": -34.0572777,
    "lng": 150.8193359,
    "place_id": "ChIJm8koZPTuEmsRsx9yf1FcNAQ",
    "maps_url": "https://www.google.com/maps/place/?q=place_id:ChIJm8koZPTuEmsRsx9yf1FcNAQ"
  },
  {
    "name": "Chatswood Golf Club",
    "address": "Chatswood Golf Club, Chatswood NSW 2067, Australia",
    "suburb": "Chatswood NSW 2067",
    "state": "NSW",
    "rating": null,
    "reviews": 0,
    "lat": -33.8016113,
    "lng": 151.1640092,
    "place_id": "ChIJ93irBDavEmsRaAOhhFpDEu8",
    "maps_url": "https://www.google.com/maps/place/?q=place_id:ChIJ93irBDavEmsRaAOhhFpDEu8"
  },
  {
    "name": "Asquith Golf Club",
    "address": "Lord St, Mount Colah NSW 2077, Australia",
    "suburb": "Mount Colah NSW 2077",
    "state": "NSW",
    "rating": 4.4,
    "reviews": 252,
    "lat": -33.679845,
    "lng": 151.117046,
    "place_id": "ChIJ1-M4x2pYDWsRIP7v-Wh9AQ8",
    "maps_url": "https://www.google.com/maps/place/?q=place_id:ChIJ1-M4x2pYDWsRIP7v-Wh9AQ8"
  },
  {
    "name": "Thornleigh Golf Centre",
    "address": "142-178 Pennant Hills Rd, Thornleigh NSW 2120, Australia",
    "suburb": "Thornleigh NSW 2120",
    "state": "NSW",
    "rating": 4.4,
    "reviews": 1214,
    "lat": -33.7240219,
    "lng": 151.0871734,
    "place_id": "ChIJ3xr2xQinEmsRMD7x-Wh9AQ8",
    "maps_url": "https://www.google.com/maps/place/?q=place_id:ChIJ3xr2xQinEmsRMD7x-Wh9AQ8"
  },
  {
    "name": "North Turramurra Golf Course",
    "address": "361A Bobbin Head Rd, North Turramurra NSW 2074, Australia",
    "suburb": "North Turramurra NSW 2074",
    "state": "NSW",
    "rating": 4.3,
    "reviews": 200,
    "lat": -33.702355,
    "lng": 151.1487788,
    "place_id": "ChIJTcvJ3NmnEmsRiaPXpHNV24s",
    "maps_url": "https://www.google.com/maps/place/?q=place_id:ChIJTcvJ3NmnEmsRiaPXpHNV24s"
  },
  {
    "name": "Pymble Golf Club",
    "address": "Cowan Rd, St Ives NSW 2075, Australia",
    "suburb": "St Ives NSW 2075",
    "state": "NSW",
    "rating": 4.6,
    "reviews": 60,
    "lat": -33.7307511,
    "lng": 151.155433,
    "place_id": "ChIJAcW__MapEmsRwenVqDJSv0k",
    "maps_url": "https://www.google.com/maps/place/?q=place_id:ChIJAcW__MapEmsRwenVqDJSv0k"
  },
  {
    "name": "Avondale Golf Club Pymble",
    "address": "end of, Avon Rd, Pymble NSW 2073, Australia",
    "suburb": "Avon Rd",
    "state": "NSW",
    "rating": 4.7,
    "reviews": 163,
    "lat": -33.7497232,
    "lng": 151.1304939,
    "place_id": "ChIJTbk-UtOnEmsRkx0OZz8X9bY",
    "maps_url": "https://www.google.com/maps/place/?q=place_id:ChIJTbk-UtOnEmsRkx0OZz8X9bY"
  },
  {
    "name": "Pennant Hills Golf Club",
    "address": "Burns Rd S, Beecroft NSW 2119, Australia",
    "suburb": "Beecroft NSW 2119",
    "state": "NSW",
    "rating": 4.3,
    "reviews": 269,
    "lat": -33.7537155,
    "lng": 151.0562438,
    "place_id": "ChIJx1FOJrKmEmsR4AHw-Wh9AQ8",
    "maps_url": "https://www.google.com/maps/place/?q=place_id:ChIJx1FOJrKmEmsR4AHw-Wh9AQ8"
  },
  {
    "name": "Roseville Golf Club",
    "address": "4 Links Ave, Roseville NSW 2069, Australia",
    "suburb": "Roseville NSW 2069",
    "state": "NSW",
    "rating": 4.3,
    "reviews": 55,
    "lat": -33.7766852,
    "lng": 151.1946181,
    "place_id": "ChIJNRo_axupEmsRgP3v-Wh9AQ8",
    "maps_url": "https://www.google.com/maps/place/?q=place_id:ChIJNRo_axupEmsRgP3v-Wh9AQ8"
  },
  {
    "name": "Hurstville Golf Course",
    "address": "57 Lorraine St, Peakhurst NSW 2210, Australia",
    "suburb": "Peakhurst NSW 2210",
    "state": "NSW",
    "rating": 3.8,
    "reviews": 234,
    "lat": -33.9721878,
    "lng": 151.0581695,
    "place_id": "ChIJ_SN8Lia5EmsRy-N3EvEchiE",
    "maps_url": "https://www.google.com/maps/place/?q=place_id:ChIJ_SN8Lia5EmsRy-N3EvEchiE"
  },
  {
    "name": "Hornsby RSL Club",
    "address": "4 High St, Hornsby NSW 2077, Australia",
    "suburb": "Hornsby NSW 2077",
    "state": "NSW",
    "rating": 4.2,
    "reviews": 2427,
    "lat": -33.7043047,
    "lng": 151.0966033,
    "place_id": "ChIJQ77vB4OnEmsRfFHwZ0dmiWI",
    "maps_url": "https://www.google.com/maps/place/?q=place_id:ChIJQ77vB4OnEmsRfFHwZ0dmiWI"
  },
  {
    "name": "Manly Golf Club",
    "address": "38 - 40 Balgowlah Rd, Balgowlah NSW 2093, Australia",
    "suburb": "Balgowlah NSW 2093",
    "state": "NSW",
    "rating": 4.3,
    "reviews": 195,
    "lat": -33.7909605,
    "lng": 151.2731629,
    "place_id": "ChIJb3ar7aurEmsRAAbw-Wh9AQ8",
    "maps_url": "https://www.google.com/maps/place/?q=place_id:ChIJb3ar7aurEmsRAAbw-Wh9AQ8"
  },
  {
    "name": "Warringah Golf Club",
    "address": "292 Condamine St, North Manly NSW 2100, Australia",
    "suburb": "North Manly NSW 2100",
    "state": "NSW",
    "rating": 4.4,
    "reviews": 260,
    "lat": -33.7761295,
    "lng": 151.2669764,
    "place_id": "ChIJ6xNzJ06qEmsRMAbw-Wh9AQ8",
    "maps_url": "https://www.google.com/maps/place/?q=place_id:ChIJ6xNzJ06qEmsRMAbw-Wh9AQ8"
  },
  {
    "name": "Balgowlah Golf Club",
    "address": "506 Sydney Rd, Balgowlah NSW 2093, Australia",
    "suburb": "Balgowlah NSW 2093",
    "state": "NSW",
    "rating": 4.2,
    "reviews": 119,
    "lat": -33.79522490000001,
    "lng": 151.2547475,
    "place_id": "ChIJY8lH96mrEmsRj5zeIe3PJ9g",
    "maps_url": "https://www.google.com/maps/place/?q=place_id:ChIJY8lH96mrEmsRj5zeIe3PJ9g"
  },
  {
    "name": "Wakehurst Golf Club",
    "address": "Upper Clontarf St, Seaforth NSW 2092, Australia",
    "suburb": "Seaforth NSW 2092",
    "state": "NSW",
    "rating": 4.5,
    "reviews": 324,
    "lat": -33.7802544,
    "lng": 151.2438049,
    "place_id": "ChIJ0y8grdGrEmsRFG9p4zYPAjk",
    "maps_url": "https://www.google.com/maps/place/?q=place_id:ChIJ0y8grdGrEmsRFG9p4zYPAjk"
  },
  {
    "name": "Cromer Golf Club",
    "address": "Cromer Rd, Cromer NSW 2099, Australia",
    "suburb": "Cromer NSW 2099",
    "state": "NSW",
    "rating": 4.6,
    "reviews": 100,
    "lat": -33.7284354,
    "lng": 151.2714614,
    "place_id": "ChIJt50U2ZtVDWsRAP_v-Wh9AQ8",
    "maps_url": "https://www.google.com/maps/place/?q=place_id:ChIJt50U2ZtVDWsRAP_v-Wh9AQ8"
  },
  {
    "name": "Avalon Golf Course",
    "address": "32 Old Barrenjoey Rd, Avalon Beach NSW 2107, Australia",
    "suburb": "Avalon Beach NSW 2107",
    "state": "NSW",
    "rating": 4.2,
    "reviews": 61,
    "lat": -33.6391296,
    "lng": 151.3301086,
    "place_id": "ChIJQ_w6B9OscmsR8P3v-Wh9AQ8",
    "maps_url": "https://www.google.com/maps/place/?q=place_id:ChIJQ_w6B9OscmsR8P3v-Wh9AQ8"
  },
  {
    "name": "Monash Country Club",
    "address": "256 Powderworks Rd, Ingleside NSW 2101, Australia",
    "suburb": "Ingleside NSW 2101",
    "state": "NSW",
    "rating": 4.7,
    "reviews": 130,
    "lat": -33.68810680000001,
    "lng": 151.2614832,
    "place_id": "ChIJhzDFPk9UDWsREAHw-Wh9AQ8",
    "maps_url": "https://www.google.com/maps/place/?q=place_id:ChIJhzDFPk9UDWsREAHw-Wh9AQ8"
  },
  {
    "name": "Manly Golf Course Maintenance Facility (CMF)",
    "address": "Manly NSW 2095, Australia",
    "suburb": "Australia",
    "state": "NSW",
    "rating": null,
    "reviews": 0,
    "lat": -33.7885302,
    "lng": 151.2796323,
    "place_id": "ChIJD4uRaACrEmsRe6wkhZBXNIk",
    "maps_url": "https://www.google.com/maps/place/?q=place_id:ChIJD4uRaACrEmsRe6wkhZBXNIk"
  },
  {
    "name": "Palm Beach Golf Club",
    "address": "2 Beach Rd, Palm Beach NSW 2108, Australia",
    "suburb": "Palm Beach NSW 2108",
    "state": "NSW",
    "rating": 4.4,
    "reviews": 271,
    "lat": -33.5922437,
    "lng": 151.32172,
    "place_id": "ChIJvaz8C6pSDWsRgAPw-Wh9AQ8",
    "maps_url": "https://www.google.com/maps/place/?q=place_id:ChIJvaz8C6pSDWsRgAPw-Wh9AQ8"
  },
  {
    "name": "Long Reef Golf Club Cafe",
    "address": "Long Reef Golf Club, Anzac Ave, Collaroy NSW 2097, Australia",
    "suburb": "Anzac Ave",
    "state": "NSW",
    "rating": 4.2,
    "reviews": 154,
    "lat": -33.7388063,
    "lng": 151.306959,
    "place_id": "ChIJB9StM2hVDWsR-JWywvwz1Zw",
    "maps_url": "https://www.google.com/maps/place/?q=place_id:ChIJB9StM2hVDWsR-JWywvwz1Zw"
  },
  {
    "name": "Bayview Golf Club",
    "address": "1825 Pittwater Rd, Mona Vale NSW 2103, Australia",
    "suburb": "Mona Vale NSW 2103",
    "state": "NSW",
    "rating": 4.2,
    "reviews": 205,
    "lat": -33.6702507,
    "lng": 151.301405,
    "place_id": "ChIJPay1WZxUDWsRwADw-Wh9AQ8",
    "maps_url": "https://www.google.com/maps/place/?q=place_id:ChIJPay1WZxUDWsRwADw-Wh9AQ8"
  },
  {
    "name": "Bondi Golf & Diggers Club",
    "address": "5 Military Rd, North Bondi NSW 2026, Australia",
    "suburb": "North Bondi NSW 2026",
    "state": "NSW",
    "rating": 4.2,
    "reviews": 265,
    "lat": -33.8881634,
    "lng": 151.2835686,
    "place_id": "ChIJIbUYNgutEmsR4P_v-Wh9AQ8",
    "maps_url": "https://www.google.com/maps/place/?q=place_id:ChIJIbUYNgutEmsR4P_v-Wh9AQ8"
  },
  {
    "name": "Marrickville Golf Club",
    "address": "34JQ+6P, 45 Wharf St, Marrickville NSW 2204, Australia",
    "suburb": "45 Wharf St",
    "state": "NSW",
    "rating": 4.3,
    "reviews": 392,
    "lat": -33.919516,
    "lng": 151.139445,
    "place_id": "ChIJbdA2a366EmsRsAPw-Wh9AQ8",
    "maps_url": "https://www.google.com/maps/place/?q=place_id:ChIJbdA2a366EmsRsAPw-Wh9AQ8"
  },
  {
    "name": "GOLFSPACE",
    "address": "Unit 4/29-31 O'Riordan St, Alexandria NSW 2015, Australia",
    "suburb": "Alexandria NSW 2015",
    "state": "NSW",
    "rating": 4.8,
    "reviews": 84,
    "lat": -33.9105451,
    "lng": 151.1975633,
    "place_id": "ChIJ414-rpGxEmsRtDtUa91-DsA",
    "maps_url": "https://www.google.com/maps/place/?q=place_id:ChIJ414-rpGxEmsRtDtUa91-DsA"
  },
  {
    "name": "Lynwood Golf & Country Club",
    "address": "4 Pitt Town Bottoms Rd, Pitt Town NSW 2756, Australia",
    "suburb": "Pitt Town NSW 2756",
    "state": "NSW",
    "rating": 4.2,
    "reviews": 880,
    "lat": -33.60231,
    "lng": 150.8571236,
    "place_id": "ChIJI2k57StiDWsRMAPw-Wh9AQ8",
    "maps_url": "https://www.google.com/maps/place/?q=place_id:ChIJI2k57StiDWsRMAPw-Wh9AQ8"
  },
  {
    "name": "Golf NSW",
    "address": "Level 4/376 Bay St, Brighton-Le-Sands NSW 2216, Australia",
    "suburb": "Brighton-Le-Sands NSW 2216",
    "state": "NSW",
    "rating": 4,
    "reviews": 2,
    "lat": -33.9602214,
    "lng": 151.1559046,
    "place_id": "ChIJTzbzGpiwEmsRoqKRJ4IR7M0",
    "maps_url": "https://www.google.com/maps/place/?q=place_id:ChIJTzbzGpiwEmsRoqKRJ4IR7M0"
  },
  {
    "name": "Riverside Oaks Golf Resort",
    "address": "74 O'Briens Rd, Cattai NSW 2756, Australia",
    "suburb": "Cattai NSW 2756",
    "state": "NSW",
    "rating": 4.2,
    "reviews": 594,
    "lat": -33.5314904,
    "lng": 150.9089643,
    "place_id": "ChIJg_7PHQJnDWsRgADw-Wh9AQ8",
    "maps_url": "https://www.google.com/maps/place/?q=place_id:ChIJg_7PHQJnDWsRgADw-Wh9AQ8"
  },
  {
    "name": "Club Champion Sydney",
    "address": "62 O'Riordan St, Alexandria NSW 2015, Australia",
    "suburb": "Alexandria NSW 2015",
    "state": "NSW",
    "rating": 4.9,
    "reviews": 391,
    "lat": -33.9151107,
    "lng": 151.1963114,
    "place_id": "ChIJj4k1VLCxEmsRZrQtn4_sNc8",
    "maps_url": "https://www.google.com/maps/place/?q=place_id:ChIJj4k1VLCxEmsRZrQtn4_sNc8"
  },
  {
    "name": "Albury Commercial Golf Club",
    "address": "530 North St, Albury NSW 2640, Australia",
    "suburb": "Albury NSW 2640",
    "state": "NSW",
    "rating": 4.4,
    "reviews": 432,
    "lat": -36.0668041,
    "lng": 146.9188001,
    "place_id": "ChIJz7Sh5oBfIWsR8Mv9c7UJBg8",
    "maps_url": "https://www.google.com/maps/place/?q=place_id:ChIJz7Sh5oBfIWsR8Mv9c7UJBg8"
  },
  {
    "name": "Commercial Club Albury",
    "address": "618 Dean St, Albury NSW 2640, Australia",
    "suburb": "Albury NSW 2640",
    "state": "NSW",
    "rating": 4.1,
    "reviews": 2650,
    "lat": -36.0798683,
    "lng": 146.9135742,
    "place_id": "ChIJEXV9IWRfIWsRrTalbQy9ZHc",
    "maps_url": "https://www.google.com/maps/place/?q=place_id:ChIJEXV9IWRfIWsRrTalbQy9ZHc"
  },
  {
    "name": "Wodonga Golf Club",
    "address": "10 Clubhouse Pl, West Wodonga VIC 3690, Australia",
    "suburb": "West Wodonga VIC 3690",
    "state": "NSW",
    "rating": 4.2,
    "reviews": 180,
    "lat": -36.1218452,
    "lng": 146.8469543,
    "place_id": "ChIJq5DC2pxZIWsRMD5CFKV5BQ8",
    "maps_url": "https://www.google.com/maps/place/?q=place_id:ChIJq5DC2pxZIWsRMD5CFKV5BQ8"
  },
  {
    "name": "Thurgoona Country Club Resort",
    "address": "1 Evesham Pl, Thurgoona NSW 2640, Australia",
    "suburb": "Thurgoona NSW 2640",
    "state": "NSW",
    "rating": 4.2,
    "reviews": 870,
    "lat": -36.0464019,
    "lng": 146.9996032,
    "place_id": "ChIJrx663RreI2sRLpTQxFHT8vo",
    "maps_url": "https://www.google.com/maps/place/?q=place_id:ChIJrx663RreI2sRLpTQxFHT8vo"
  },
  {
    "name": "Thurgoona Country Club",
    "address": "Thurgoona NSW 2640, Australia",
    "suburb": "Australia",
    "state": "NSW",
    "rating": 4.2,
    "reviews": 254,
    "lat": -36.0463364,
    "lng": 146.9997172,
    "place_id": "ChIJW9KD0xreI2sR1-CTtjzz1yk",
    "maps_url": "https://www.google.com/maps/place/?q=place_id:ChIJW9KD0xreI2sR1-CTtjzz1yk"
  },
  {
    "name": "Big Swing Golf Albury - Indoor Golf and Bar",
    "address": "639 Dean St, Albury NSW 2640, Australia",
    "suburb": "Albury NSW 2640",
    "state": "NSW",
    "rating": 4.9,
    "reviews": 23,
    "lat": -36.0805015,
    "lng": 146.9126739,
    "place_id": "ChIJwdWaz6BfIWsR9ndyem14nSA",
    "maps_url": "https://www.google.com/maps/place/?q=place_id:ChIJwdWaz6BfIWsR9ndyem14nSA"
  },
  {
    "name": "Howlong Golf Resort",
    "address": "186 Golf Club Dr, Howlong NSW 2643, Australia",
    "suburb": "Howlong NSW 2643",
    "state": "NSW",
    "rating": 4.4,
    "reviews": 634,
    "lat": -35.9841944,
    "lng": 146.6433833,
    "place_id": "ChIJbxV9sH5BIWsRahFyeJmUZ9Q",
    "maps_url": "https://www.google.com/maps/place/?q=place_id:ChIJbxV9sH5BIWsRahFyeJmUZ9Q"
  },
  {
    "name": "Thurgoona Resort Golf Shop",
    "address": "1 Evesham Pl, Thurgoona NSW 2640, Australia",
    "suburb": "Thurgoona NSW 2640",
    "state": "NSW",
    "rating": 4.5,
    "reviews": 62,
    "lat": -36.0464094,
    "lng": 147.0001432,
    "place_id": "ChIJ2zSOxBreI2sRmUtnTL5efoA",
    "maps_url": "https://www.google.com/maps/place/?q=place_id:ChIJ2zSOxBreI2sRmUtnTL5efoA"
  },
  {
    "name": "Howlong Country Golf Club",
    "address": "186 Golf Club Dr, Howlong NSW 2643, Australia",
    "suburb": "Howlong NSW 2643",
    "state": "NSW",
    "rating": 4.6,
    "reviews": 150,
    "lat": -35.9850109,
    "lng": 146.6443844,
    "place_id": "ChIJ_ZGRInlBIWsRsBrEoyEz434",
    "maps_url": "https://www.google.com/maps/place/?q=place_id:ChIJ_ZGRInlBIWsRsBrEoyEz434"
  },
  {
    "name": "Albury Commercial Golf Motel",
    "address": "530 North St, Albury NSW 2640, Australia",
    "suburb": "Albury NSW 2640",
    "state": "NSW",
    "rating": 4.7,
    "reviews": 24,
    "lat": -36.0666749,
    "lng": 146.9171294,
    "place_id": "ChIJJ2XA54BfIWsRY1525u4uLn8",
    "maps_url": "https://www.google.com/maps/place/?q=place_id:ChIJJ2XA54BfIWsRY1525u4uLn8"
  },
  {
    "name": "Drummond Golf Albury",
    "address": "639 Dean St, Albury NSW 2640, Australia",
    "suburb": "Albury NSW 2640",
    "state": "NSW",
    "rating": 4.8,
    "reviews": 84,
    "lat": -36.0805097,
    "lng": 146.912859,
    "place_id": "ChIJq1mngWZfIWsR9NTIvHXlfqY",
    "maps_url": "https://www.google.com/maps/place/?q=place_id:ChIJq1mngWZfIWsR9NTIvHXlfqY"
  },
  {
    "name": "Wagga Country Club",
    "address": "Plumpton Rd, Wagga Wagga NSW 2650, Australia",
    "suburb": "Wagga Wagga NSW 2650",
    "state": "NSW",
    "rating": 4.6,
    "reviews": 152,
    "lat": -35.1683185,
    "lng": 147.3661393,
    "place_id": "ChIJjTuUY6KeGGsRkMr9c7UJBg8",
    "maps_url": "https://www.google.com/maps/place/?q=place_id:ChIJjTuUY6KeGGsRkMr9c7UJBg8"
  },
  {
    "name": "Wagga City Golf Club",
    "address": "Sturt Hwy, Wagga Wagga NSW 2650, Australia",
    "suburb": "Wagga Wagga NSW 2650",
    "state": "NSW",
    "rating": 4.4,
    "reviews": 100,
    "lat": -35.121287,
    "lng": 147.311666,
    "place_id": "ChIJxcW5rNyYGGsRwMr9c7UJBg8",
    "maps_url": "https://www.google.com/maps/place/?q=place_id:ChIJxcW5rNyYGGsRwMr9c7UJBg8"
  },
  {
    "name": "Wagga Wagga Par 3 & Driving Range",
    "address": "79 Narrung St, Wagga Wagga NSW 2650, Australia",
    "suburb": "Wagga Wagga NSW 2650",
    "state": "NSW",
    "rating": 4.6,
    "reviews": 48,
    "lat": -35.0956109,
    "lng": 147.3613485,
    "place_id": "ChIJo4hQmaeZGGsRfOMZl8kJgT4",
    "maps_url": "https://www.google.com/maps/place/?q=place_id:ChIJo4hQmaeZGGsRfOMZl8kJgT4"
  },
  {
    "name": "Longyard Golf Course",
    "address": "Longyard Dr, Hillvue NSW 2340, Australia",
    "suburb": "Hillvue NSW 2340",
    "state": "NSW",
    "rating": 4.3,
    "reviews": 101,
    "lat": -31.1294173,
    "lng": 150.9117889,
    "place_id": "ChIJ7U9W2FOYCmsRLpeH46RnI5E",
    "maps_url": "https://www.google.com/maps/place/?q=place_id:ChIJ7U9W2FOYCmsRLpeH46RnI5E"
  },
  {
    "name": "Tamworth Golf Club",
    "address": "1/21 Mahony Ave, West Tamworth NSW 2340, Australia",
    "suburb": "West Tamworth NSW 2340",
    "state": "NSW",
    "rating": 4.3,
    "reviews": 243,
    "lat": -31.1007257,
    "lng": 150.909316,
    "place_id": "ChIJHQ8i6t-YCmsRAHv-c7UJBg8",
    "maps_url": "https://www.google.com/maps/place/?q=place_id:ChIJHQ8i6t-YCmsRAHv-c7UJBg8"
  },
  {
    "name": "The Mill at Longyard Golf Club",
    "address": "Longyard Dr, Hillvue NSW 2340, Australia",
    "suburb": "Hillvue NSW 2340",
    "state": "NSW",
    "rating": 3.9,
    "reviews": 40,
    "lat": -31.1302265,
    "lng": 150.9127344,
    "place_id": "ChIJSRuo0VOYCmsREpgwKzEo6cs",
    "maps_url": "https://www.google.com/maps/place/?q=place_id:ChIJSRuo0VOYCmsREpgwKzEo6cs"
  },
  {
    "name": "Gimmie Golf",
    "address": "186 Peel St, North Tamworth NSW 2340, Australia",
    "suburb": "North Tamworth NSW 2340",
    "state": "NSW",
    "rating": 5,
    "reviews": 9,
    "lat": -31.0831951,
    "lng": 150.923349,
    "place_id": "ChIJfeXn9USfCmsR1qTroVNqq-U",
    "maps_url": "https://www.google.com/maps/place/?q=place_id:ChIJfeXn9USfCmsR1qTroVNqq-U"
  },
  {
    "name": "Tamworth Town & Country Club",
    "address": "38A Gipps St, West Tamworth NSW 2340, Australia",
    "suburb": "West Tamworth NSW 2340",
    "state": "NSW",
    "rating": 4.5,
    "reviews": 4,
    "lat": -31.0979644,
    "lng": 150.9167416,
    "place_id": "ChIJUXRpv8qYCmsRDbb-z2SEL0k",
    "maps_url": "https://www.google.com/maps/place/?q=place_id:ChIJUXRpv8qYCmsRDbb-z2SEL0k"
  },
  {
    "name": "The Wentworth Orange",
    "address": "130 Ploughmans Ln, Orange NSW 2800, Australia",
    "suburb": "Orange NSW 2800",
    "state": "NSW",
    "rating": 4.4,
    "reviews": 281,
    "lat": -33.2913016,
    "lng": 149.0674718,
    "place_id": "ChIJO5Lk3BotEGsRIMj9c7UJBg8",
    "maps_url": "https://www.google.com/maps/place/?q=place_id:ChIJO5Lk3BotEGsRIMj9c7UJBg8"
  },
  {
    "name": "Duntryleague",
    "address": "Woodward St, Orange NSW 2800, Australia",
    "suburb": "Orange NSW 2800",
    "state": "NSW",
    "rating": 4.2,
    "reviews": 336,
    "lat": -33.2781262,
    "lng": 149.0813788,
    "place_id": "ChIJjWdmbhgtEGsR1EFKZ94eDl0",
    "maps_url": "https://www.google.com/maps/place/?q=place_id:ChIJjWdmbhgtEGsR1EFKZ94eDl0"
  },
  {
    "name": "Orange Golf Club",
    "address": "Woodward St, Orange NSW 2800, Australia",
    "suburb": "Orange NSW 2800",
    "state": "NSW",
    "rating": 4.4,
    "reviews": 16,
    "lat": -33.278143,
    "lng": 149.0813681,
    "place_id": "ChIJHRGjoBYtEGsRrBMtmnhIwzE",
    "maps_url": "https://www.google.com/maps/place/?q=place_id:ChIJHRGjoBYtEGsRrBMtmnhIwzE"
  },
  {
    "name": "The Country Club Orange",
    "address": "Park Road, Orange NSW 2800, Australia",
    "suburb": "Orange NSW 2800",
    "state": "NSW",
    "rating": 4.2,
    "reviews": 54,
    "lat": -33.3186289,
    "lng": 149.0954639,
    "place_id": "ChIJeR6cyk8tEGsRgF70zdTHFnU",
    "maps_url": "https://www.google.com/maps/place/?q=place_id:ChIJeR6cyk8tEGsRgF70zdTHFnU"
  },
  {
    "name": "Bathurst Golf Club",
    "address": "136 Vittoria St, Bathurst NSW 2795, Australia",
    "suburb": "Bathurst NSW 2795",
    "state": "NSW",
    "rating": 4.5,
    "reviews": 174,
    "lat": -33.41486200000001,
    "lng": 149.551717,
    "place_id": "ChIJaTKzsXzmEWsRAMv9c7UJBg8",
    "maps_url": "https://www.google.com/maps/place/?q=place_id:ChIJaTKzsXzmEWsRAMv9c7UJBg8"
  },
  {
    "name": "Wenty Pro Shop",
    "address": "130 Ploughmans Ln, Orange NSW 2800, Australia",
    "suburb": "Orange NSW 2800",
    "state": "NSW",
    "rating": 5,
    "reviews": 4,
    "lat": -33.2920568,
    "lng": 149.0668683,
    "place_id": "ChIJwSBBewUtEGsRydEzDkkJjwo",
    "maps_url": "https://www.google.com/maps/place/?q=place_id:ChIJwSBBewUtEGsRydEzDkkJjwo"
  },
  {
    "name": "Blayney Golf Club",
    "address": "4261 Mid Western Hwy, Blayney NSW 2799, Australia",
    "suburb": "Blayney NSW 2799",
    "state": "NSW",
    "rating": 4.3,
    "reviews": 15,
    "lat": -33.5592079,
    "lng": 149.2281036,
    "place_id": "ChIJeR8wfde3EWsRjd2SmrK3nUk",
    "maps_url": "https://www.google.com/maps/place/?q=place_id:ChIJeR8wfde3EWsRjd2SmrK3nUk"
  },
  {
    "name": "Orange Ex-Services' Club",
    "address": "231-243 Anson St, Orange NSW 2800, Australia",
    "suburb": "Orange NSW 2800",
    "state": "NSW",
    "rating": 4.1,
    "reviews": 931,
    "lat": -33.2820627,
    "lng": 149.0987988,
    "place_id": "ChIJZbaersYsEGsROootnnk0Qxw",
    "maps_url": "https://www.google.com/maps/place/?q=place_id:ChIJZbaersYsEGsROootnnk0Qxw"
  },
  {
    "name": "Canowindra Golf Club",
    "address": "Rodd St &, Browns Ave, Canowindra NSW 2804, Australia",
    "suburb": "Browns Ave",
    "state": "NSW",
    "rating": 4.4,
    "reviews": 72,
    "lat": -33.5567092,
    "lng": 148.6690216,
    "place_id": "ChIJ448vBj9mEGsRgMn9c7UJBg8",
    "maps_url": "https://www.google.com/maps/place/?q=place_id:ChIJ448vBj9mEGsRgMn9c7UJBg8"
  },
  {
    "name": "Duntryleague Guesthouse",
    "address": "Woodward St, Orange NSW 2800, Australia",
    "suburb": "Orange NSW 2800",
    "state": "NSW",
    "rating": 4.3,
    "reviews": 30,
    "lat": -33.278922,
    "lng": 149.0826222,
    "place_id": "ChIJrX3SeNwsEGsRLOZdmgmvZ3c",
    "maps_url": "https://www.google.com/maps/place/?q=place_id:ChIJrX3SeNwsEGsRLOZdmgmvZ3c"
  },
  {
    "name": "Orange City Bowling Club",
    "address": "61-89 Warrendine St, Orange NSW 2800, Australia",
    "suburb": "Orange NSW 2800",
    "state": "NSW",
    "rating": 4,
    "reviews": 244,
    "lat": -33.28971,
    "lng": 149.093854,
    "place_id": "ChIJzwxnECgtEGsRupUXOxrsmPY",
    "maps_url": "https://www.google.com/maps/place/?q=place_id:ChIJzwxnECgtEGsRupUXOxrsmPY"
  },
  {
    "name": "Orange Mini Golf",
    "address": "Warrendine Street &, Sale St, Orange NSW 2800, Australia",
    "suburb": "Sale St",
    "state": "NSW",
    "rating": 5,
    "reviews": 4,
    "lat": -33.2895081,
    "lng": 149.0945848,
    "place_id": "ChIJN7erNuQtEGsRU7QcyRtTghs",
    "maps_url": "https://www.google.com/maps/place/?q=place_id:ChIJN7erNuQtEGsRU7QcyRtTghs"
  },
  {
    "name": "Worrigee Links Golf Course",
    "address": "131 Greenwell Point Rd, Worrigee NSW 2540, Australia",
    "suburb": "Worrigee NSW 2540",
    "state": "NSW",
    "rating": 4.1,
    "reviews": 116,
    "lat": -34.8893209,
    "lng": 150.6264462,
    "place_id": "ChIJG2vQjTKAFGsRgP7v-Wh9AQ8",
    "maps_url": "https://www.google.com/maps/place/?q=place_id:ChIJG2vQjTKAFGsRgP7v-Wh9AQ8"
  },
  {
    "name": "Wellington Golf Club",
    "address": "Caves Road, Wellington NSW 2820, Australia",
    "suburb": "Wellington NSW 2820",
    "state": "NSW",
    "rating": 4.5,
    "reviews": 28,
    "lat": -32.623435,
    "lng": 148.933238,
    "place_id": "ChIJhUWq9O-vD2sRIMz9c7UJBg8",
    "maps_url": "https://www.google.com/maps/place/?q=place_id:ChIJhUWq9O-vD2sRIMz9c7UJBg8"
  },
  {
    "name": "Marcotta Guest Suite - Moments to Golf Course",
    "address": "Orange NSW 2800, Australia",
    "suburb": "Australia",
    "state": "NSW",
    "rating": null,
    "reviews": 0,
    "lat": -33.2894516,
    "lng": 149.0665588,
    "place_id": "ChIJTVJFqQUtEGsREB513TYyFUM",
    "maps_url": "https://www.google.com/maps/place/?q=place_id:ChIJTVJFqQUtEGsREB513TYyFUM"
  },
  {
    "name": "SAMUEL PHILLIPS GOLF ACADEMY",
    "address": "130 Ploughmans Ln, Orange NSW 2800, Australia",
    "suburb": "Orange NSW 2800",
    "state": "NSW",
    "rating": null,
    "reviews": 0,
    "lat": -33.2920568,
    "lng": 149.0668683,
    "place_id": "ChIJf-apeA8tEGsRt_Yb6N7Aois",
    "maps_url": "https://www.google.com/maps/place/?q=place_id:ChIJf-apeA8tEGsRt_Yb6N7Aois"
  },
  {
    "name": "Dubbo Golf Club",
    "address": "Newell Hwy, Dubbo NSW 2830, Australia",
    "suburb": "Dubbo NSW 2830",
    "state": "NSW",
    "rating": 4.2,
    "reviews": 201,
    "lat": -32.2592575,
    "lng": 148.583033,
    "place_id": "ChIJjxDIBO1wD2sRIFr-c7UJBg8",
    "maps_url": "https://www.google.com/maps/place/?q=place_id:ChIJjxDIBO1wD2sRIFr-c7UJBg8"
  },
  {
    "name": "Coffs Harbour Golf Club",
    "address": "Earl St, Coffs Harbour NSW 2450, Australia",
    "suburb": "Coffs Harbour NSW 2450",
    "state": "NSW",
    "rating": 4.5,
    "reviews": 312,
    "lat": -30.3078842,
    "lng": 153.1144256,
    "place_id": "ChIJj8rwI-ENnGsRXieSe_oftOo",
    "maps_url": "https://www.google.com/maps/place/?q=place_id:ChIJj8rwI-ENnGsRXieSe_oftOo"
  },
  {
    "name": "Bonville Golf Resort",
    "address": "28 N Bonville Rd, Bonville NSW 2450, Australia",
    "suburb": "Bonville NSW 2450",
    "state": "NSW",
    "rating": 4.7,
    "reviews": 540,
    "lat": -30.3629107,
    "lng": 153.0398237,
    "place_id": "ChIJQ0KXMO0QnGsRka9Y298_NU0",
    "maps_url": "https://www.google.com/maps/place/?q=place_id:ChIJQ0KXMO0QnGsRka9Y298_NU0"
  },
  {
    "name": "Sawtell Golf Club",
    "address": "55 Bayldon Rd, Sawtell NSW 2452, Australia",
    "suburb": "Sawtell NSW 2452",
    "state": "NSW",
    "rating": 4.3,
    "reviews": 193,
    "lat": -30.3677672,
    "lng": 153.0927709,
    "place_id": "ChIJsdkn6nYRnGsREIz-c7UJBg8",
    "maps_url": "https://www.google.com/maps/place/?q=place_id:ChIJsdkn6nYRnGsREIz-c7UJBg8"
  },
  {
    "name": "Safety Beach Golf Club",
    "address": "Safety Beach Dr, Safety Beach NSW 2456, Australia",
    "suburb": "Safety Beach NSW 2456",
    "state": "NSW",
    "rating": 4.4,
    "reviews": 101,
    "lat": -30.0944194,
    "lng": 153.1936513,
    "place_id": "ChIJVeNr1KT0m2sRqrxzeIsuaJg",
    "maps_url": "https://www.google.com/maps/place/?q=place_id:ChIJVeNr1KT0m2sRqrxzeIsuaJg"
  },
  {
    "name": "Nambucca Heads Island Golf Club",
    "address": "Stuart Island, Nambucca Heads NSW 2448, Australia",
    "suburb": "Nambucca Heads NSW 2448",
    "state": "NSW",
    "rating": 4.4,
    "reviews": 406,
    "lat": -30.6549663,
    "lng": 152.9950866,
    "place_id": "ChIJXUSIaOsvnGsRcMz9c7UJBg8",
    "maps_url": "https://www.google.com/maps/place/?q=place_id:ChIJXUSIaOsvnGsRcMz9c7UJBg8"
  },
  {
    "name": "Pacific Bay Golf Course",
    "address": "2 Bay Dr, Coffs Harbour NSW 2450, Australia",
    "suburb": "Coffs Harbour NSW 2450",
    "state": "NSW",
    "rating": 5,
    "reviews": 5,
    "lat": -30.2669315,
    "lng": 153.1374923,
    "place_id": "ChIJVbdGHgANnGsRRhItyefHiKY",
    "maps_url": "https://www.google.com/maps/place/?q=place_id:ChIJVbdGHgANnGsRRhItyefHiKY"
  },
  {
    "name": "Bellingen Golf Club",
    "address": "1172 Waterfall Way, Bellingen NSW 2454, Australia",
    "suburb": "Bellingen NSW 2454",
    "state": "NSW",
    "rating": 4.2,
    "reviews": 152,
    "lat": -30.4521808,
    "lng": 152.9013671,
    "place_id": "ChIJT_ZIJeIhnGsRUMz9c7UJBg8",
    "maps_url": "https://www.google.com/maps/place/?q=place_id:ChIJT_ZIJeIhnGsRUMz9c7UJBg8"
  },
  {
    "name": "Pacific Bay Resort",
    "address": "Cnr Pacific Hwy and, Bay Dr, Coffs Harbour NSW 2450, Australia",
    "suburb": "Bay Dr",
    "state": "NSW",
    "rating": 4,
    "reviews": 1327,
    "lat": -30.2672222,
    "lng": 153.1347222,
    "place_id": "ChIJKbvDMUAMnGsRuL081peqGpQ",
    "maps_url": "https://www.google.com/maps/place/?q=place_id:ChIJKbvDMUAMnGsRuL081peqGpQ"
  },
  {
    "name": "Velocity Golf",
    "address": "Unit 3/1a Cook Dr, Coffs Harbour NSW 2450, Australia",
    "suburb": "Coffs Harbour NSW 2450",
    "state": "NSW",
    "rating": 5,
    "reviews": 5,
    "lat": -30.3143264,
    "lng": 153.0958155,
    "place_id": "ChIJQ_8VBwAPnGsR2LWkWIzWfX8",
    "maps_url": "https://www.google.com/maps/place/?q=place_id:ChIJQ_8VBwAPnGsR2LWkWIzWfX8"
  },
  {
    "name": "Coffs Driving Range",
    "address": "62A Howard St, Coffs Harbour NSW 2450, Australia",
    "suburb": "Coffs Harbour NSW 2450",
    "state": "NSW",
    "rating": 4.8,
    "reviews": 163,
    "lat": -30.3081036,
    "lng": 153.1265276,
    "place_id": "ChIJ_b7lhcINnGsRrO81D2y5aUg",
    "maps_url": "https://www.google.com/maps/place/?q=place_id:ChIJ_b7lhcINnGsRrO81D2y5aUg"
  },
  {
    "name": "Port Macquarie Golf Club",
    "address": "698 Ocean Dr, Port Macquarie NSW 2444, Australia",
    "suburb": "Port Macquarie NSW 2444",
    "state": "NSW",
    "rating": 4.3,
    "reviews": 391,
    "lat": -31.485622,
    "lng": 152.914093,
    "place_id": "ChIJ7XwFZ1j_nWsRjf8fiyetFug",
    "maps_url": "https://www.google.com/maps/place/?q=place_id:ChIJ7XwFZ1j_nWsRjf8fiyetFug"
  },
  {
    "name": "Emerald Downs Golf Course",
    "address": "67 Emerald Dr, Port Macquarie NSW 2444, Australia",
    "suburb": "Port Macquarie NSW 2444",
    "state": "NSW",
    "rating": 4.5,
    "reviews": 267,
    "lat": -31.47765949999999,
    "lng": 152.9063088,
    "place_id": "ChIJl_hyXeUBdmsR4Mn9c7UJBg8",
    "maps_url": "https://www.google.com/maps/place/?q=place_id:ChIJl_hyXeUBdmsR4Mn9c7UJBg8"
  },
  {
    "name": "Wauchope Country Club",
    "address": "24 King St, Wauchope NSW 2446, Australia",
    "suburb": "Wauchope NSW 2446",
    "state": "NSW",
    "rating": 4.3,
    "reviews": 379,
    "lat": -31.4608333,
    "lng": 152.7305556,
    "place_id": "ChIJz-TKtdP4dWsRkMz9c7UJBg8",
    "maps_url": "https://www.google.com/maps/place/?q=place_id:ChIJz-TKtdP4dWsRkMz9c7UJBg8"
  },
  {
    "name": "Port Macquarie Driving Range and Mini Golf",
    "address": "3 Lindfield Park Rd, Port Macquarie NSW 2444, Australia",
    "suburb": "Port Macquarie NSW 2444",
    "state": "NSW",
    "rating": 4.8,
    "reviews": 103,
    "lat": -31.4546599,
    "lng": 152.8619612,
    "place_id": "ChIJAQ1rjoj_nWsRYWvIhjc3ldg",
    "maps_url": "https://www.google.com/maps/place/?q=place_id:ChIJAQ1rjoj_nWsRYWvIhjc3ldg"
  },
  {
    "name": "Lismore Workers Golf Club",
    "address": "1 Barham St, Lismore NSW 2480, Australia",
    "suburb": "Lismore NSW 2480",
    "state": "NSW",
    "rating": 4.1,
    "reviews": 56,
    "lat": -28.8223078,
    "lng": 153.2854453,
    "place_id": "ChIJJxqaQfF1mmsRIMr9c7UJBg8",
    "maps_url": "https://www.google.com/maps/place/?q=place_id:ChIJJxqaQfF1mmsRIMr9c7UJBg8"
  },
  {
    "name": "Ballina Golf and Sports Club",
    "address": "Jameson Ave, East Ballina NSW 2478, Australia",
    "suburb": "East Ballina NSW 2478",
    "state": "NSW",
    "rating": 4.4,
    "reviews": 259,
    "lat": -28.8533909,
    "lng": 153.5798866,
    "place_id": "ChIJXTQA7nWAkGsR8BTVH5Tv2Uw",
    "maps_url": "https://www.google.com/maps/place/?q=place_id:ChIJXTQA7nWAkGsR8BTVH5Tv2Uw"
  },
  {
    "name": "Coolangatta & Tweed Heads Golf Club",
    "address": "62 Soorley St, Tweed Heads South NSW 2486, Australia",
    "suburb": "Tweed Heads South NSW 2486",
    "state": "NSW",
    "rating": 4.3,
    "reviews": 805,
    "lat": -28.2084913,
    "lng": 153.5607427,
    "place_id": "ChIJxTaHCr__kGsRUMn9c7UJBg8",
    "maps_url": "https://www.google.com/maps/place/?q=place_id:ChIJxTaHCr__kGsRUMn9c7UJBg8"
  },
  {
    "name": "Coolangatta Tweed Heads Golf Shop - Jared Love Golf",
    "address": "Soorley St, Tweed Heads South NSW 2486, Australia",
    "suburb": "Tweed Heads South NSW 2486",
    "state": "NSW",
    "rating": 4.6,
    "reviews": 20,
    "lat": -28.2085611,
    "lng": 153.5607417,
    "place_id": "ChIJtXuHMJT_kGsRmiDl6uYfnh0",
    "maps_url": "https://www.google.com/maps/place/?q=place_id:ChIJtXuHMJT_kGsRmiDl6uYfnh0"
  },
  {
    "name": "Club Banora Golf Club",
    "address": "Leisure Dr, Banora Point NSW 2486, Australia",
    "suburb": "Banora Point NSW 2486",
    "state": "NSW",
    "rating": 4.2,
    "reviews": 106,
    "lat": -28.2200102,
    "lng": 153.5368041,
    "place_id": "ChIJ1azoZqr_kGsRUMj9c7UJBg8",
    "maps_url": "https://www.google.com/maps/place/?q=place_id:ChIJ1azoZqr_kGsRUMj9c7UJBg8"
  },
  {
    "name": "Chinderah Golf",
    "address": "Tweed Coast Rd, Chinderah NSW 2487, Australia",
    "suburb": "Chinderah NSW 2487",
    "state": "NSW",
    "rating": 4.5,
    "reviews": 291,
    "lat": -28.2480239,
    "lng": 153.5534667,
    "place_id": "ChIJ7WmX5T7_kGsRcMj9c7UJBg8",
    "maps_url": "https://www.google.com/maps/place/?q=place_id:ChIJ7WmX5T7_kGsRcMj9c7UJBg8"
  },
  {
    "name": "Murwillumbah Golf Club",
    "address": "233 Byangum Rd, Murwillumbah NSW 2484, Australia",
    "suburb": "Murwillumbah NSW 2484",
    "state": "NSW",
    "rating": 4.4,
    "reviews": 451,
    "lat": -28.3316463,
    "lng": 153.3704703,
    "place_id": "ChIJP7OFsOzvkGsRcMf9c7UJBg8",
    "maps_url": "https://www.google.com/maps/place/?q=place_id:ChIJP7OFsOzvkGsRcMf9c7UJBg8"
  },
  {
    "name": "Pottsville Golf Course",
    "address": "930 Pottsville Rd, Pottsville NSW 2489, Australia",
    "suburb": "Pottsville NSW 2489",
    "state": "NSW",
    "rating": 4.7,
    "reviews": 68,
    "lat": -28.3934098,
    "lng": 153.5412023,
    "place_id": "ChIJp_OyLlP2kGsRmDaoJk461lk",
    "maps_url": "https://www.google.com/maps/place/?q=place_id:ChIJp_OyLlP2kGsRmDaoJk461lk"
  },
  {
    "name": "Tally Valley Golf Club",
    "address": "335 Guineas Creek Rd, Elanora QLD 4221, Australia",
    "suburb": "Elanora QLD 4221",
    "state": "NSW",
    "rating": 4.3,
    "reviews": 145,
    "lat": -28.1307762,
    "lng": 153.4400227,
    "place_id": "ChIJw4z_j_UCkWsR0F0i11ujAg8",
    "maps_url": "https://www.google.com/maps/place/?q=place_id:ChIJw4z_j_UCkWsR0F0i11ujAg8"
  },
  {
    "name": "Meadow Park Golf Course",
    "address": "271 Tallebudgera Connection Rd, Tallebudgera QLD 4228, Australia",
    "suburb": "Tallebudgera QLD 4228",
    "state": "NSW",
    "rating": 4.6,
    "reviews": 183,
    "lat": -28.1477336,
    "lng": 153.428543,
    "place_id": "ChIJB_GHsIQCkWsR72caVxhhb_k",
    "maps_url": "https://www.google.com/maps/place/?q=place_id:ChIJB_GHsIQCkWsR72caVxhhb_k"
  },
  {
    "name": "Surfers Paradise Golf Club",
    "address": "1 Fairway Dr, Clear Island Waters QLD 4226, Australia",
    "suburb": "Clear Island Waters QLD 4226",
    "state": "NSW",
    "rating": 4.4,
    "reviews": 420,
    "lat": -28.03497,
    "lng": 153.40194,
    "place_id": "ChIJQYMTs84EkWsREKgg11ujAg8",
    "maps_url": "https://www.google.com/maps/place/?q=place_id:ChIJQYMTs84EkWsREKgg11ujAg8"
  },
  {
    "name": "Club Tweed",
    "address": "Cnr Wharf &, Florence St, Tweed Heads NSW 2485, Australia",
    "suburb": "Florence St",
    "state": "NSW",
    "rating": 4.3,
    "reviews": 1078,
    "lat": -28.1767837,
    "lng": 153.5427144,
    "place_id": "ChIJP-MDiGf_kGsR4krdJ_dK8MI",
    "maps_url": "https://www.google.com/maps/place/?q=place_id:ChIJP-MDiGf_kGsR4krdJ_dK8MI"
  },
  {
    "name": "Coplicks Tallebudgera Golf Course",
    "address": "495 Guineas Creek Rd, Tallebudgera QLD 4228, Australia",
    "suburb": "Tallebudgera QLD 4228",
    "state": "NSW",
    "rating": 3.8,
    "reviews": 274,
    "lat": -28.1383247,
    "lng": 153.4300384,
    "place_id": "ChIJuZ73THIckWsRjP1dZaUfmik",
    "maps_url": "https://www.google.com/maps/place/?q=place_id:ChIJuZ73THIckWsRjP1dZaUfmik"
  },
  {
    "name": "Pete's Golf Warehouse",
    "address": "Unit 5/43 Greenway Dr, Tweed Heads South NSW 2486, Australia",
    "suburb": "Tweed Heads South NSW 2486",
    "state": "NSW",
    "rating": 4.7,
    "reviews": 90,
    "lat": -28.2055823,
    "lng": 153.5371639,
    "place_id": "ChIJne_9orP_kGsRyKhcEGnFZkI",
    "maps_url": "https://www.google.com/maps/place/?q=place_id:ChIJne_9orP_kGsRyKhcEGnFZkI"
  },
  {
    "name": "South Tweed Sports Club",
    "address": "4 Minjungbal Dr, Tweed Heads South NSW 2486, Australia",
    "suburb": "Tweed Heads South NSW 2486",
    "state": "NSW",
    "rating": 4.3,
    "reviews": 540,
    "lat": -28.1956882,
    "lng": 153.5440521,
    "place_id": "ChIJ_aRgycj_kGsRbkl-3bKB5s4",
    "maps_url": "https://www.google.com/maps/place/?q=place_id:ChIJ_aRgycj_kGsRbkl-3bKB5s4"
  },
  {
    "name": "HOYTS Tweed Heads",
    "address": "54 Minjungbal Dr, Tweed Heads South NSW 2486, Australia",
    "suburb": "Tweed Heads South NSW 2486",
    "state": "NSW",
    "rating": 4.3,
    "reviews": 1081,
    "lat": -28.2019593,
    "lng": 153.5454796,
    "place_id": "ChIJ4_z_drj_kGsRd4tLv0rFRYU",
    "maps_url": "https://www.google.com/maps/place/?q=place_id:ChIJ4_z_drj_kGsRd4tLv0rFRYU"
  },
  {
    "name": "Twin Towns Club Banora",
    "address": "Leisure Dr, Banora Point NSW 2486, Australia",
    "suburb": "Banora Point NSW 2486",
    "state": "NSW",
    "rating": 3.9,
    "reviews": 587,
    "lat": -28.2153637,
    "lng": 153.5388967,
    "place_id": "ChIJP-MDiGf_kGsR3b7RSvjoWtc",
    "maps_url": "https://www.google.com/maps/place/?q=place_id:ChIJP-MDiGf_kGsR3b7RSvjoWtc"
  },
  {
    "name": "Palm Meadows Golf Course",
    "address": "Palm Meadows Dr, Carrara QLD 4211, Australia",
    "suburb": "Carrara QLD 4211",
    "state": "NSW",
    "rating": 4.3,
    "reviews": 541,
    "lat": -28.027632,
    "lng": 153.3779454,
    "place_id": "ChIJk-athTsbkWsRt3S0EDNS86A",
    "maps_url": "https://www.google.com/maps/place/?q=place_id:ChIJk-athTsbkWsRt3S0EDNS86A"
  },
  {
    "name": "Sanctuary Cove Golf and Country Club",
    "address": "The Pkwy, Hope Island QLD 4212, Australia",
    "suburb": "Hope Island QLD 4212",
    "state": "NSW",
    "rating": 4.4,
    "reviews": 232,
    "lat": -27.8639877,
    "lng": 153.3635396,
    "place_id": "ChIJq4w3IUASkWsR35cWn0m2exc",
    "maps_url": "https://www.google.com/maps/place/?q=place_id:ChIJq4w3IUASkWsR35cWn0m2exc"
  },
  {
    "name": "Lakelands Golf Club",
    "address": "100 Lakelands Dr, Merrimac QLD 4226, Australia",
    "suburb": "Merrimac QLD 4226",
    "state": "NSW",
    "rating": 4.5,
    "reviews": 433,
    "lat": -28.0399931,
    "lng": 153.3818379,
    "place_id": "ChIJnyrOR0gbkWsR0Kcg11ujAg8",
    "maps_url": "https://www.google.com/maps/place/?q=place_id:ChIJnyrOR0gbkWsR0Kcg11ujAg8"
  },
  {
    "name": "Terranora Lakes Country Club",
    "address": "Bilambil Heights NSW 2486, Australia",
    "suburb": "Australia",
    "state": "NSW",
    "rating": 4.2,
    "reviews": 5,
    "lat": -28.215281,
    "lng": 153.473251,
    "place_id": "ChIJJZAltjH8kGsRGIC6-Wa4AI4",
    "maps_url": "https://www.google.com/maps/place/?q=place_id:ChIJJZAltjH8kGsRGIC6-Wa4AI4"
  },
  {
    "name": "Palmer Gold Coast",
    "address": "Ron Penhaligon Way, Robina QLD 4226, Australia",
    "suburb": "Robina QLD 4226",
    "state": "NSW",
    "rating": 3.7,
    "reviews": 336,
    "lat": -28.0728332,
    "lng": 153.4056089,
    "place_id": "ChIJBzf3v1oDkWsRikjWOSd9wTI",
    "maps_url": "https://www.google.com/maps/place/?q=place_id:ChIJBzf3v1oDkWsRikjWOSd9wTI"
  },
  {
    "name": "Yarra Bend Public Golf Course Melbourne",
    "address": "6236+5F, Yarra Bend Rd, Fairfield VIC 3078, Australia",
    "suburb": "Yarra Bend Rd",
    "state": "VIC",
    "rating": 4.4,
    "reviews": 967,
    "lat": -37.7968645,
    "lng": 145.0117772,
    "place_id": "ChIJ7WXRBqRD1moRk9PokDDDrIE",
    "maps_url": "https://www.google.com/maps/place/?q=place_id:ChIJ7WXRBqRD1moRk9PokDDDrIE"
  },
  {
    "name": "Melbourne Golf Park",
    "address": "23 Aughtie Dr, Albert Park VIC 3206, Australia",
    "suburb": "Albert Park VIC 3206",
    "state": "VIC",
    "rating": 4.4,
    "reviews": 728,
    "lat": -37.844192,
    "lng": 144.9632421,
    "place_id": "ChIJyTknTuZn1moRXuvNXK4_uzI",
    "maps_url": "https://www.google.com/maps/place/?q=place_id:ChIJyTknTuZn1moRXuvNXK4_uzI"
  },
  {
    "name": "Albert Park Golf Course",
    "address": "Queens Rd &, Lakeside Dr, Melbourne VIC 3004, Australia",
    "suburb": "Lakeside Dr",
    "state": "VIC",
    "rating": 3.8,
    "reviews": 402,
    "lat": -37.8481855,
    "lng": 144.9765901,
    "place_id": "ChIJ7R4szxpo1moR4Nv7YajSwxg",
    "maps_url": "https://www.google.com/maps/place/?q=place_id:ChIJ7R4szxpo1moR4Nv7YajSwxg"
  },
  {
    "name": "Royal Melbourne Golf Club",
    "address": "88 Cheltenham Rd, Black Rock VIC 3193, Australia",
    "suburb": "Black Rock VIC 3193",
    "state": "VIC",
    "rating": 4.7,
    "reviews": 539,
    "lat": -37.9674067,
    "lng": 145.0310057,
    "place_id": "ChIJv5K9-mNu1moRMFYwBXZWBA8",
    "maps_url": "https://www.google.com/maps/place/?q=place_id:ChIJv5K9-mNu1moRMFYwBXZWBA8"
  },
  {
    "name": "Royal Park Golf Course",
    "address": "6X84+8F, 11 Old Poplar Rd, Parkville VIC 3052, Australia",
    "suburb": "11 Old Poplar Rd",
    "state": "VIC",
    "rating": 4.3,
    "reviews": 224,
    "lat": -37.7819341,
    "lng": 144.9563008,
    "place_id": "ChIJa5gaAdJc1moRIFowBXZWBA8",
    "maps_url": "https://www.google.com/maps/place/?q=place_id:ChIJa5gaAdJc1moRIFowBXZWBA8"
  },
  {
    "name": "Holey Moley Golf Club Melbourne",
    "address": "590 Little Bourke St, Melbourne VIC 3000, Australia",
    "suburb": "Melbourne VIC 3000",
    "state": "VIC",
    "rating": 4.4,
    "reviews": 2565,
    "lat": -37.815427,
    "lng": 144.954757,
    "place_id": "ChIJa3yYvU5d1moR4INgQpD3y6Q",
    "maps_url": "https://www.google.com/maps/place/?q=place_id:ChIJa3yYvU5d1moR4INgQpD3y6Q"
  },
  {
    "name": "Keilor Public Golf Course",
    "address": "540 Calder Fwy, Keilor North VIC 3036, Australia",
    "suburb": "Keilor North VIC 3036",
    "state": "VIC",
    "rating": 4.1,
    "reviews": 272,
    "lat": -37.6860073,
    "lng": 144.7954571,
    "place_id": "ChIJqfWyo6RY1moR0FwwBXZWBA8",
    "maps_url": "https://www.google.com/maps/place/?q=place_id:ChIJqfWyo6RY1moR0FwwBXZWBA8"
  },
  {
    "name": "Victoria Golf Club",
    "address": "Park Rd, Cheltenham VIC 3192, Australia",
    "suburb": "Cheltenham VIC 3192",
    "state": "VIC",
    "rating": 4.7,
    "reviews": 141,
    "lat": -37.9666786,
    "lng": 145.0451354,
    "place_id": "ChIJi1OP-oJu1moRyjHi61MQqM0",
    "maps_url": "https://www.google.com/maps/place/?q=place_id:ChIJi1OP-oJu1moRyjHi61MQqM0"
  },
  {
    "name": "Big Swing Golf Melbourne",
    "address": "126-130 Franklin St, Melbourne VIC 3000, Australia",
    "suburb": "Melbourne VIC 3000",
    "state": "VIC",
    "rating": 4.8,
    "reviews": 127,
    "lat": -37.8084356,
    "lng": 144.9588068,
    "place_id": "ChIJc_5o-TRd1moR66H7dkPWWEg",
    "maps_url": "https://www.google.com/maps/place/?q=place_id:ChIJc_5o-TRd1moR66H7dkPWWEg"
  },
  {
    "name": "Burnley Golf Course",
    "address": "102 Madden Grove, Burnley VIC 3121, Australia",
    "suburb": "Burnley VIC 3121",
    "state": "VIC",
    "rating": 4.1,
    "reviews": 250,
    "lat": -37.8281845,
    "lng": 145.0131228,
    "place_id": "ChIJkU89t0JC1moRIF0wBXZWBA8",
    "maps_url": "https://www.google.com/maps/place/?q=place_id:ChIJkU89t0JC1moRIF0wBXZWBA8"
  },
  {
    "name": "Huntingdale Golf Club",
    "address": "Windsor Ave, Oakleigh South VIC 3167, Australia",
    "suburb": "Oakleigh South VIC 3167",
    "state": "VIC",
    "rating": 4.6,
    "reviews": 209,
    "lat": -37.9173462,
    "lng": 145.0986887,
    "place_id": "ChIJj1D5BQRr1moR4FkwBXZWBA8",
    "maps_url": "https://www.google.com/maps/place/?q=place_id:ChIJj1D5BQRr1moR4FkwBXZWBA8"
  },
  {
    "name": "Oakleigh Golf Course",
    "address": "2 Park Rd, Chadstone VIC 3166, Australia",
    "suburb": "Chadstone VIC 3166",
    "state": "VIC",
    "rating": 4.4,
    "reviews": 213,
    "lat": -37.8911018,
    "lng": 145.0965464,
    "place_id": "ChIJHc5m0vpq1moR_LN7JYdDHvw",
    "maps_url": "https://www.google.com/maps/place/?q=place_id:ChIJHc5m0vpq1moR_LN7JYdDHvw"
  },
  {
    "name": "Brighton Public Golf Course",
    "address": "230 Dendy St, Brighton East VIC 3187, Australia",
    "suburb": "Brighton East VIC 3187",
    "state": "VIC",
    "rating": 3.9,
    "reviews": 329,
    "lat": -37.9231464,
    "lng": 145.0159083,
    "place_id": "ChIJDeFBf81u1moREFYwBXZWBA8",
    "maps_url": "https://www.google.com/maps/place/?q=place_id:ChIJDeFBf81u1moREFYwBXZWBA8"
  },
  {
    "name": "Melbourne Airport Golf Club",
    "address": "Golf Dr, Melbourne Airport VIC 3045, Australia",
    "suburb": "Melbourne Airport VIC 3045",
    "state": "VIC",
    "rating": 3.9,
    "reviews": 160,
    "lat": -37.693995,
    "lng": 144.838747,
    "place_id": "ChIJw5toRxhZ1moRD33phEALNTs",
    "maps_url": "https://www.google.com/maps/place/?q=place_id:ChIJw5toRxhZ1moRD33phEALNTs"
  },
  {
    "name": "Woodlands Golf Club Mordialloc Victoria",
    "address": "109 White St, Mordialloc VIC 3195, Australia",
    "suburb": "Mordialloc VIC 3195",
    "state": "VIC",
    "rating": 4.7,
    "reviews": 290,
    "lat": -37.9995956,
    "lng": 145.0982055,
    "place_id": "ChIJK_cSTgRt1moR4FYwBXZWBA8",
    "maps_url": "https://www.google.com/maps/place/?q=place_id:ChIJK_cSTgRt1moR4FYwBXZWBA8"
  },
  {
    "name": "RACV Golf",
    "address": "RACV Melbourne Store, 438 Little Collins St, Melbourne VIC 3000, Australia",
    "suburb": "438 Little Collins St",
    "state": "VIC",
    "rating": 5,
    "reviews": 3,
    "lat": -37.8162811,
    "lng": 144.9597794,
    "place_id": "ChIJAQBAnkxd1moR8yf0aXSaWgo",
    "maps_url": "https://www.google.com/maps/place/?q=place_id:ChIJAQBAnkxd1moR8yf0aXSaWgo"
  },
  {
    "name": "The House of Golf - Melbourne",
    "address": "B/325 Collins St, Melbourne VIC 3000, Australia",
    "suburb": "Melbourne VIC 3000",
    "state": "VIC",
    "rating": 4.8,
    "reviews": 286,
    "lat": -37.8166442,
    "lng": 144.9635498,
    "place_id": "ChIJEZzNcrNC1moRCKtnTzAKbmQ",
    "maps_url": "https://www.google.com/maps/place/?q=place_id:ChIJEZzNcrNC1moRCKtnTzAKbmQ"
  },
  {
    "name": "Sandy Golf Links",
    "address": "Cheltenham Rd, Cheltenham VIC 3192, Australia",
    "suburb": "Cheltenham VIC 3192",
    "state": "VIC",
    "rating": 4,
    "reviews": 421,
    "lat": -37.9673475,
    "lng": 145.0312361,
    "place_id": "ChIJYYfARVZq1moRknEGGyoVwaw",
    "maps_url": "https://www.google.com/maps/place/?q=place_id:ChIJYYfARVZq1moRknEGGyoVwaw"
  },
  {
    "name": "Holey Moley Golf Club Crown Melbourne",
    "address": "8 Whiteman St, Southbank VIC 3006, Australia",
    "suburb": "Southbank VIC 3006",
    "state": "VIC",
    "rating": 4.4,
    "reviews": 699,
    "lat": -37.8251505,
    "lng": 144.9580151,
    "place_id": "ChIJU-PAh3ld1moRe7M6SYze6Q0",
    "maps_url": "https://www.google.com/maps/place/?q=place_id:ChIJU-PAh3ld1moRe7M6SYze6Q0"
  },
  {
    "name": "Spring Valley Golf Club",
    "address": "619 Heatherton Rd, Clayton South VIC 3169, Australia",
    "suburb": "Clayton South VIC 3169",
    "state": "VIC",
    "rating": 4.7,
    "reviews": 223,
    "lat": -37.9532187,
    "lng": 145.1285205,
    "place_id": "ChIJczeIb5lu1moRSugtUJ5y9MI",
    "maps_url": "https://www.google.com/maps/place/?q=place_id:ChIJczeIb5lu1moRSugtUJ5y9MI"
  },
  {
    "name": "The GLife Golf Club",
    "address": "Suite 4, Ground floor/441 St Kilda Rd, Melbourne VIC 3004, Australia",
    "suburb": "Ground floor/441 St Kilda Rd",
    "state": "VIC",
    "rating": 4.9,
    "reviews": 26,
    "lat": -37.8395639,
    "lng": 144.9773184,
    "place_id": "ChIJpYM2EWhp1moRLSABRINCgww",
    "maps_url": "https://www.google.com/maps/place/?q=place_id:ChIJpYM2EWhp1moRLSABRINCgww"
  },
  {
    "name": "Cheltenham Golf Club",
    "address": "35 Victor Ave, Cheltenham VIC 3192, Australia",
    "suburb": "Cheltenham VIC 3192",
    "state": "VIC",
    "rating": 4.4,
    "reviews": 226,
    "lat": -37.968247,
    "lng": 145.046891,
    "place_id": "ChIJh2a48YFu1moRUFYwBXZWBA8",
    "maps_url": "https://www.google.com/maps/place/?q=place_id:ChIJh2a48YFu1moRUFYwBXZWBA8"
  },
  {
    "name": "Kingston Heath Golf Club",
    "address": "74/120 Kingston Rd, Heatherton VIC 3202, Australia",
    "suburb": "Heatherton VIC 3202",
    "state": "VIC",
    "rating": 4.7,
    "reviews": 204,
    "lat": -37.9543429,
    "lng": 145.0861034,
    "place_id": "ChIJz3ROm2Rs1moRoFYwBXZWBA8",
    "maps_url": "https://www.google.com/maps/place/?q=place_id:ChIJz3ROm2Rs1moRoFYwBXZWBA8"
  },
  {
    "name": "Sanctuary Lakes Golf Club",
    "address": "70 Greg Norman Dr, Point Cook VIC 3030, Australia",
    "suburb": "Point Cook VIC 3030",
    "state": "VIC",
    "rating": 4.4,
    "reviews": 280,
    "lat": -37.8959538,
    "lng": 144.7626273,
    "place_id": "ChIJs_8l0GqI1moRBd60Kq5n8TI",
    "maps_url": "https://www.google.com/maps/place/?q=place_id:ChIJs_8l0GqI1moRBd60Kq5n8TI"
  },
  {
    "name": "The Rosanna Golf Club",
    "address": "54 Cleveland Ave, Lower Plenty VIC 3093, Australia",
    "suburb": "Lower Plenty VIC 3093",
    "state": "VIC",
    "rating": 4.6,
    "reviews": 122,
    "lat": -37.7450325,
    "lng": 145.1040996,
    "place_id": "ChIJlTRzA8lH1moRwFYwBXZWBA8",
    "maps_url": "https://www.google.com/maps/place/?q=place_id:ChIJlTRzA8lH1moRwFYwBXZWBA8"
  },
  {
    "name": "Yarra Yarra Golf Club",
    "address": "567 Warrigal Rd, Bentleigh East VIC 3165, Australia",
    "suburb": "Bentleigh East VIC 3165",
    "state": "VIC",
    "rating": 4.5,
    "reviews": 218,
    "lat": -37.9314613,
    "lng": 145.0755004,
    "place_id": "ChIJ67UP35Nr1moRcFYwBXZWBA8",
    "maps_url": "https://www.google.com/maps/place/?q=place_id:ChIJ67UP35Nr1moRcFYwBXZWBA8"
  },
  {
    "name": "Albert Park Women's Golf Club",
    "address": "Lakeside Dr, Albert Park VIC 3208, Australia",
    "suburb": "Albert Park VIC 3208",
    "state": "VIC",
    "rating": 5,
    "reviews": 4,
    "lat": -37.8483157,
    "lng": 144.976288,
    "place_id": "ChIJI1SIPZVp1moR3B1YJAp2hr4",
    "maps_url": "https://www.google.com/maps/place/?q=place_id:ChIJI1SIPZVp1moR3B1YJAp2hr4"
  },
  {
    "name": "Kew Golf Club",
    "address": "120 Belford Rd, Kew East VIC 3102, Australia",
    "suburb": "Kew East VIC 3102",
    "state": "VIC",
    "rating": 4.5,
    "reviews": 182,
    "lat": -37.7886921,
    "lng": 145.0490096,
    "place_id": "ChIJ0QxsZqtG1moRIFUwBXZWBA8",
    "maps_url": "https://www.google.com/maps/place/?q=place_id:ChIJ0QxsZqtG1moRIFUwBXZWBA8"
  },
  {
    "name": "Capital Golf Club",
    "address": "2 Ross St, Heatherton VIC 3202, Australia",
    "suburb": "Heatherton VIC 3202",
    "state": "VIC",
    "rating": 4.4,
    "reviews": 30,
    "lat": -37.967124,
    "lng": 145.1022992,
    "place_id": "ChIJOdoIAoxs1moR0FkwBXZWBA8",
    "maps_url": "https://www.google.com/maps/place/?q=place_id:ChIJOdoIAoxs1moR0FkwBXZWBA8"
  },
  {
    "name": "Commonwealth Golf Club",
    "address": "Glennie Ave, Oakleigh South VIC 3167, Australia",
    "suburb": "Oakleigh South VIC 3167",
    "state": "VIC",
    "rating": 4.6,
    "reviews": 132,
    "lat": -37.9300156,
    "lng": 145.0864563,
    "place_id": "ChIJ055UtJhr1moRgFYwBXZWBA8",
    "maps_url": "https://www.google.com/maps/place/?q=place_id:ChIJ055UtJhr1moRgFYwBXZWBA8"
  },
  {
    "name": "Peninsula Kingswood Country Golf Club",
    "address": "211-279 Skye Rd, Frankston VIC 3199, Australia",
    "suburb": "Frankston VIC 3199",
    "state": "VIC",
    "rating": 4.7,
    "reviews": 252,
    "lat": -38.1316545,
    "lng": 145.1573601,
    "place_id": "ChIJc1nRiUML1moRgFcwBXZWBA8",
    "maps_url": "https://www.google.com/maps/place/?q=place_id:ChIJc1nRiUML1moRgFcwBXZWBA8"
  },
  {
    "name": "Sandhurst Club",
    "address": "75 Sandhurst Blvd, Sandhurst VIC 3977, Australia",
    "suburb": "Sandhurst VIC 3977",
    "state": "VIC",
    "rating": 4.4,
    "reviews": 847,
    "lat": -38.0786446,
    "lng": 145.2106243,
    "place_id": "ChIJgYO_-O4N1moRasDosO8s47k",
    "maps_url": "https://www.google.com/maps/place/?q=place_id:ChIJgYO_-O4N1moRasDosO8s47k"
  },
  {
    "name": "Ivanhoe Public Golf Course",
    "address": "Vasey St, Ivanhoe VIC 3079, Australia",
    "suburb": "Ivanhoe VIC 3079",
    "state": "VIC",
    "rating": 4.3,
    "reviews": 364,
    "lat": -37.7801918,
    "lng": 145.0557653,
    "place_id": "ChIJCSauJa9G1moRwF0wBXZWBA8",
    "maps_url": "https://www.google.com/maps/place/?q=place_id:ChIJCSauJa9G1moRwF0wBXZWBA8"
  },
  {
    "name": "Coal Valley Golf Links",
    "address": "123 Middle Tea Tree Rd, Richmond TAS 7025, Australia",
    "suburb": "Richmond TAS 7025",
    "state": "VIC",
    "rating": 4.3,
    "reviews": 78,
    "lat": -42.738178,
    "lng": 147.417297,
    "place_id": "ChIJH4rXXNwIbqoR1girAbyHRUE",
    "maps_url": "https://www.google.com/maps/place/?q=place_id:ChIJH4rXXNwIbqoR1girAbyHRUE"
  },
  {
    "name": "Rich River Golf Club",
    "address": "Twenty Four Ln, Moama NSW 2731, Australia",
    "suburb": "Moama NSW 2731",
    "state": "VIC",
    "rating": 4.3,
    "reviews": 1374,
    "lat": -36.0727729,
    "lng": 144.7320251,
    "place_id": "ChIJzRJvDMYC2WoRQU9AJsveqIE",
    "maps_url": "https://www.google.com/maps/place/?q=place_id:ChIJzRJvDMYC2WoRQU9AJsveqIE"
  },
  {
    "name": "Studley Greens",
    "address": "121 Studley Park Rd, Kew VIC 3101, Australia",
    "suburb": "Kew VIC 3101",
    "state": "VIC",
    "rating": 4,
    "reviews": 78,
    "lat": -37.8046291,
    "lng": 145.0103159,
    "place_id": "ChIJRalH0a5D1moRYCo9r6u5fFs",
    "maps_url": "https://www.google.com/maps/place/?q=place_id:ChIJRalH0a5D1moRYCo9r6u5fFs"
  },
  {
    "name": "The Metropolitan Golf Club",
    "address": "Golf Rd, Oakleigh South VIC 3167, Australia",
    "suburb": "Oakleigh South VIC 3167",
    "state": "VIC",
    "rating": 4.6,
    "reviews": 180,
    "lat": -37.9119242,
    "lng": 145.0901767,
    "place_id": "ChIJiQ0Sdapr1moRwFkwBXZWBA8",
    "maps_url": "https://www.google.com/maps/place/?q=place_id:ChIJiQ0Sdapr1moRwFkwBXZWBA8"
  },
  {
    "name": "St Andrews Beach Golf Course",
    "address": "209 Sandy Rd, Fingal VIC 3941, Australia",
    "suburb": "Fingal VIC 3941",
    "state": "VIC",
    "rating": 4.6,
    "reviews": 509,
    "lat": -38.4234717,
    "lng": 144.8504659,
    "place_id": "ChIJ8QwQ6Eq01WoRwFswBXZWBA8",
    "maps_url": "https://www.google.com/maps/place/?q=place_id:ChIJ8QwQ6Eq01WoRwFswBXZWBA8"
  },
  {
    "name": "Southern Golf Club",
    "address": "Lower Dandenong Rd, Keysborough VIC 3173, Australia",
    "suburb": "Keysborough VIC 3173",
    "state": "VIC",
    "rating": 4.6,
    "reviews": 249,
    "lat": -37.9947979,
    "lng": 145.139209,
    "place_id": "ChIJWV804iwT1moRoFgwBXZWBA8",
    "maps_url": "https://www.google.com/maps/place/?q=place_id:ChIJWV804iwT1moRoFgwBXZWBA8"
  },
  {
    "name": "Northern Golf Club",
    "address": "97 Glenroy Rd, Glenroy VIC 3046, Australia",
    "suburb": "Glenroy VIC 3046",
    "state": "VIC",
    "rating": 4.6,
    "reviews": 171,
    "lat": -37.7069906,
    "lng": 144.9293554,
    "place_id": "ChIJ63MgveJa1moRjw9Cy_qv18w",
    "maps_url": "https://www.google.com/maps/place/?q=place_id:ChIJ63MgveJa1moRjw9Cy_qv18w"
  },
  {
    "name": "Westgate Golf Club",
    "address": "1 Creek St, Spotswood VIC 3015, Australia",
    "suburb": "Spotswood VIC 3015",
    "state": "VIC",
    "rating": 4.4,
    "reviews": 141,
    "lat": -37.8267212,
    "lng": 144.886261,
    "place_id": "ChIJM7jGqDhn1moRcFowBXZWBA8",
    "maps_url": "https://www.google.com/maps/place/?q=place_id:ChIJM7jGqDhn1moRcFowBXZWBA8"
  },
  {
    "name": "Medway Golf Club",
    "address": "57 Omar St, Maidstone VIC 3012, Australia",
    "suburb": "Maidstone VIC 3012",
    "state": "VIC",
    "rating": 4.5,
    "reviews": 214,
    "lat": -37.775338,
    "lng": 144.869283,
    "place_id": "ChIJdVU-CHRe1moRQF0wBXZWBA8",
    "maps_url": "https://www.google.com/maps/place/?q=place_id:ChIJdVU-CHRe1moRQF0wBXZWBA8"
  },
  {
    "name": "Altona Lakes Golf Course",
    "address": "Altona Lakes Public Golf Course, Mason St, Altona North VIC 3025, Australia",
    "suburb": "Mason St",
    "state": "VIC",
    "rating": 4.1,
    "reviews": 215,
    "lat": -37.8425189,
    "lng": 144.8587945,
    "place_id": "ChIJLapc1yRh1moRhm446IueRcM",
    "maps_url": "https://www.google.com/maps/place/?q=place_id:ChIJLapc1yRh1moRhm446IueRcM"
  },
  {
    "name": "Riverside Golf and Sports Centre",
    "address": "75 Newsom St, Ascot Vale VIC 3032, Australia",
    "suburb": "Ascot Vale VIC 3032",
    "state": "VIC",
    "rating": 4,
    "reviews": 394,
    "lat": -37.7768621,
    "lng": 144.9008462,
    "place_id": "ChIJk7r6hbZd1moRsHjLRYt--SA",
    "maps_url": "https://www.google.com/maps/place/?q=place_id:ChIJk7r6hbZd1moRsHjLRYt--SA"
  },
  {
    "name": "Northcote Public Golf Course.",
    "address": "143 Normanby Ave, Thornbury VIC 3071, Australia",
    "suburb": "Thornbury VIC 3071",
    "state": "VIC",
    "rating": 4.3,
    "reviews": 231,
    "lat": -37.7591536,
    "lng": 144.9843159,
    "place_id": "ChIJA_jNmp9E1moRUFcwBXZWBA8",
    "maps_url": "https://www.google.com/maps/place/?q=place_id:ChIJA_jNmp9E1moRUFcwBXZWBA8"
  },