[
  {
    "name": "Medusa Greek Taverna",
    "address": "2 Market St, Sydney NSW 2000, Australia",
    "suburb": "Sydney NSW 2000",
    "state": "NSW",
    "rating": 4.5,
    "reviews": 1135,
    "lat": -33.8707162,
    "lng": 151.2045369,
    "place_id": "ChIJmVBj0j6uEmsRlpDNlLL00vU",
    "maps_url": "https://www.google.com/maps/place/?q=place_id:ChIJmVBj0j6uEmsRlpDNlLL00vU"
  },
  {
    "name": "Diethnes Greek Restaurant",
    "address": "336 Pitt St, Sydney NSW 2000, Australia",
    "suburb": "Sydney NSW 2000",
    "state": "NSW",
    "rating": 4.3,
    "reviews": 714,
    "lat": -33.8760871,
    "lng": 151.2080267,
    "place_id": "ChIJwSGVBz2uEmsRtkSOgqb9jn0",
    "maps_url": "https://www.google.com/maps/place/?q=place_id:ChIJwSGVBz2uEmsRtkSOgqb9jn0"
  },
  {
    "name": "Alpha Dining",
    "address": "238 Castlereagh St, Sydney NSW 2000, Australia",
    "suburb": "Sydney NSW 2000",
    "state": "NSW",
    "rating": 4.3,
    "reviews": 1136,
    "lat": -33.875305,
    "lng": 151.209152,
    "place_id": "ChIJD7vEu9uvEmsR1nEW5gAFHaA",
    "maps_url": "https://www.google.com/maps/place/?q=place_id:ChIJD7vEu9uvEmsR1nEW5gAFHaA"
  },
  {
    "name": "The Apollo Restaurant",
    "address": "44 Macleay St, Potts Point NSW 2011, Australia",
    "suburb": "Potts Point NSW 2011",
    "state": "NSW",
    "rating": 4.6,
    "reviews": 2439,
    "lat": -33.8708503,
    "lng": 151.2253578,
    "place_id": "ChIJRdF6BXOuEmsRoh8iEUNUc8g",
    "maps_url": "https://www.google.com/maps/place/?q=place_id:ChIJRdF6BXOuEmsRoh8iEUNUc8g"
  },
  {
    "name": "MEZA Bar and Grill",
    "address": "Level 1/95/99 York St, Sydney NSW 2000, Australia",
    "suburb": "Sydney NSW 2000",
    "state": "NSW",
    "rating": 4.9,
    "reviews": 1145,
    "lat": -33.870015,
    "lng": 151.2060219,
    "place_id": "ChIJ-f3oDq2vEmsRIIRqgsnzbPc",
    "maps_url": "https://www.google.com/maps/place/?q=place_id:ChIJ-f3oDq2vEmsRIIRqgsnzbPc"
  },
  {
    "name": "Olympus Dining",
    "address": "Wunderlich Lane, 2 Baptist St, Redfern NSW 2016, Australia",
    "suburb": "2 Baptist St",
    "state": "NSW",
    "rating": 4.4,
    "reviews": 1329,
    "lat": -33.8918937,
    "lng": 151.2123161,
    "place_id": "ChIJGS2igeSxEmsRXFKlDdrnwLs",
    "maps_url": "https://www.google.com/maps/place/?q=place_id:ChIJGS2igeSxEmsRXFKlDdrnwLs"
  },
  {
    "name": "Clarence and V",
    "address": "2/191 Clarence St, Sydney NSW 2000, Australia",
    "suburb": "Sydney NSW 2000",
    "state": "NSW",
    "rating": 5,
    "reviews": 152,
    "lat": -33.8693528,
    "lng": 151.2051536,
    "place_id": "ChIJzcA35cyvEmsRnMiHvvGfn8o",
    "maps_url": "https://www.google.com/maps/place/?q=place_id:ChIJzcA35cyvEmsRnMiHvvGfn8o"
  },
  {
    "name": "Santorini On Oxford",
    "address": "217 Oxford St, Darlinghurst NSW 2010, Australia",
    "suburb": "Darlinghurst NSW 2010",
    "state": "NSW",
    "rating": 4.5,
    "reviews": 566,
    "lat": -33.8812357,
    "lng": 151.2178143,
    "place_id": "ChIJKYL0dhquEmsRv12Dm_kpyIw",
    "maps_url": "https://www.google.com/maps/place/?q=place_id:ChIJKYL0dhquEmsRv12Dm_kpyIw"
  },
  {
    "name": "Georges Mediterranean",
    "address": "King Street Wharf, 3 The Promenade, Sydney NSW 2000, Australia",
    "suburb": "3 The Promenade",
    "state": "NSW",
    "rating": 3.9,
    "reviews": 1244,
    "lat": -33.866664,
    "lng": 151.2014112,
    "place_id": "ChIJWRxefkeuEmsRmKvNb_DeLt8",
    "maps_url": "https://www.google.com/maps/place/?q=place_id:ChIJWRxefkeuEmsRmKvNb_DeLt8"
  },
  {
    "name": "Yiamas Greek Taverna",
    "address": "1/1-5 Princes Hwy, St Peters NSW 2044, Australia",
    "suburb": "St Peters NSW 2044",
    "state": "NSW",
    "rating": 4.6,
    "reviews": 1316,
    "lat": -33.9088583,
    "lng": 151.1809417,
    "place_id": "ChIJr9GUn06wEmsRQwI-R-1L7Rg",
    "maps_url": "https://www.google.com/maps/place/?q=place_id:ChIJr9GUn06wEmsRQwI-R-1L7Rg"
  },
  {
    "name": "Sofia on Cleveland",
    "address": "level 1/433 Cleveland St, Surry Hills NSW 2016, Australia",
    "suburb": "Surry Hills NSW 2016",
    "state": "NSW",
    "rating": 4.9,
    "reviews": 312,
    "lat": -33.8918838,
    "lng": 151.2141447,
    "place_id": "ChIJc1OMiQKxEmsRPg7KzM_WuUg",
    "maps_url": "https://www.google.com/maps/place/?q=place_id:ChIJc1OMiQKxEmsRPg7KzM_WuUg"
  },
  {
    "name": "Ela Ela",
    "address": "Level G/81 Sussex St, Sydney NSW 2000, Australia",
    "suburb": "Sydney NSW 2000",
    "state": "NSW",
    "rating": 4.6,
    "reviews": 104,
    "lat": -33.8677543,
    "lng": 151.2031866,
    "place_id": "ChIJb0shXXqvEmsRaSSG739rq24",
    "maps_url": "https://www.google.com/maps/place/?q=place_id:ChIJb0shXXqvEmsRaSSG739rq24"
  },
  {
    "name": "Ahgora",
    "address": "172 St Johns Rd, Glebe NSW 2037, Australia",
    "suburb": "Glebe NSW 2037",
    "state": "NSW",
    "rating": 4.7,
    "reviews": 917,
    "lat": -33.8827344,
    "lng": 151.1843909,
    "place_id": "ChIJj71NvGKvEmsRjdaogu9yIxQ",
    "maps_url": "https://www.google.com/maps/place/?q=place_id:ChIJj71NvGKvEmsRjdaogu9yIxQ"
  },
  {
    "name": "Akti",
    "address": "6 Cowper Wharf Roadway, Woolloomooloo NSW 2011, Australia",
    "suburb": "Woolloomooloo NSW 2011",
    "state": "NSW",
    "rating": 4.6,
    "reviews": 390,
    "lat": -33.868314,
    "lng": 151.2204525,
    "place_id": "ChIJpQv09javEmsRgIAKKAxkSOE",
    "maps_url": "https://www.google.com/maps/place/?q=place_id:ChIJpQv09javEmsRgIAKKAxkSOE"
  },
  {
    "name": "Myra's Taverna",
    "address": "2-4 O'Connell St, Newtown NSW 2042, Australia",
    "suburb": "Newtown NSW 2042",
    "state": "NSW",
    "rating": 4.7,
    "reviews": 289,
    "lat": -33.894,
    "lng": 151.1823567,
    "place_id": "ChIJbUGjSQixEmsRUFh9_C7UQdI",
    "maps_url": "https://www.google.com/maps/place/?q=place_id:ChIJbUGjSQixEmsRUFh9_C7UQdI"
  },
  {
    "name": "Mediterranean Magic Greek Restaurant Bar",
    "address": "Suite 108/26-32 Pirrama Rd, Pyrmont NSW 2009, Australia",
    "suburb": "Pyrmont NSW 2009",
    "state": "NSW",
    "rating": 4.2,
    "reviews": 273,
    "lat": -33.8635451,
    "lng": 151.1944976,
    "place_id": "ChIJ7TXynsOvEmsR-WDV331DIbw",
    "maps_url": "https://www.google.com/maps/place/?q=place_id:ChIJ7TXynsOvEmsR-WDV331DIbw"
  },
  {
    "name": "Little Kalymnos Taverna",
    "address": "Shop3/221-235 Homer St, Earlwood NSW 2206, Australia",
    "suburb": "Earlwood NSW 2206",
    "state": "NSW",
    "rating": 4.6,
    "reviews": 144,
    "lat": -33.9263688,
    "lng": 151.1298247,
    "place_id": "ChIJf3lRYiO7EmsRmP4vehmF3lk",
    "maps_url": "https://www.google.com/maps/place/?q=place_id:ChIJf3lRYiO7EmsRmP4vehmF3lk"
  },
  {
    "name": "Mezepotamia",
    "address": "99 Redfern St, Redfern NSW 2016, Australia",
    "suburb": "Redfern NSW 2016",
    "state": "NSW",
    "rating": 4.8,
    "reviews": 510,
    "lat": -33.8929506,
    "lng": 151.2035736,
    "place_id": "ChIJA4_w4GSxEmsRDwiEernLzLo",
    "maps_url": "https://www.google.com/maps/place/?q=place_id:ChIJA4_w4GSxEmsRDwiEernLzLo"
  },
  {
    "name": "Maydanoz Restaurant Bar",
    "address": "1/50 Carrington St, Sydney NSW 2000, Australia",
    "suburb": "Sydney NSW 2000",
    "state": "NSW",
    "rating": 4.7,
    "reviews": 611,
    "lat": -33.8662062,
    "lng": 151.20647,
    "place_id": "ChIJozSSoZ-vEmsRAI-pKenD1sM",
    "maps_url": "https://www.google.com/maps/place/?q=place_id:ChIJozSSoZ-vEmsRAI-pKenD1sM"
  },
  {
    "name": "Souks Mediterranean Street Food",
    "address": "190 Harris St, Pyrmont NSW 2009, Australia",
    "suburb": "Pyrmont NSW 2009",
    "state": "NSW",
    "rating": 4.7,
    "reviews": 512,
    "lat": -33.87054500000001,
    "lng": 151.1946034,
    "place_id": "ChIJoWRiMTGuEmsR-JwHgEwhcqc",
    "maps_url": "https://www.google.com/maps/place/?q=place_id:ChIJoWRiMTGuEmsR-JwHgEwhcqc"
  },
  {
    "name": "Kouzina Greco",
    "address": "16 Phillip St, Parramatta NSW 2150, Australia",
    "suburb": "Parramatta NSW 2150",
    "state": "NSW",
    "rating": 4.6,
    "reviews": 759,
    "lat": -33.8120375,
    "lng": 151.0034816,
    "place_id": "ChIJ2TgPYh6jEmsRT1hRjcKMxvk",
    "maps_url": "https://www.google.com/maps/place/?q=place_id:ChIJ2TgPYh6jEmsRT1hRjcKMxvk"
  },
  {
    "name": "The Souvlucky Country - Parramatta",
    "address": "Level1/316 Church St, Parramatta NSW 2150, Australia",
    "suburb": "Parramatta NSW 2150",
    "state": "NSW",
    "rating": 4.4,
    "reviews": 406,
    "lat": -33.8119507,
    "lng": 151.0042818,
    "place_id": "ChIJDaX4VYCjEmsRFPRMAW0nAOI",
    "maps_url": "https://www.google.com/maps/place/?q=place_id:ChIJDaX4VYCjEmsRFPRMAW0nAOI"
  },
  {
    "name": "Little Greece Gyros & Souvlaki Bar",
    "address": "9/15 Phillip St, Parramatta NSW 2150, Australia",
    "suburb": "Parramatta NSW 2150",
    "state": "NSW",
    "rating": 4,
    "reviews": 484,
    "lat": -33.8122261,
    "lng": 151.0034225,
    "place_id": "ChIJTfsfYB6jEmsRpx1Je9Ee9Zw",
    "maps_url": "https://www.google.com/maps/place/?q=place_id:ChIJTfsfYB6jEmsRpx1Je9Ee9Zw"
  },
  {
    "name": "The Greek Taverna",
    "address": "13/17 Steel St, Hamilton NSW 2303, Australia",
    "suburb": "Hamilton NSW 2303",
    "state": "NSW",
    "rating": 4.7,
    "reviews": 182,
    "lat": -32.9230349,
    "lng": 151.7443744,
    "place_id": "ChIJP5NRWLIVc2sRuop9awxrKW0",
    "maps_url": "https://www.google.com/maps/place/?q=place_id:ChIJP5NRWLIVc2sRuop9awxrKW0"
  },
  {
    "name": "Rustica Newcastle Beach",
    "address": "Unit 2/1 King St, Newcastle NSW 2300, Australia",
    "suburb": "Newcastle NSW 2300",
    "state": "NSW",
    "rating": 4.6,
    "reviews": 1864,
    "lat": -32.9297314,
    "lng": 151.7850735,
    "place_id": "ChIJxeib9noUc2sRhWpOOILGTTM",
    "maps_url": "https://www.google.com/maps/place/?q=place_id:ChIJxeib9noUc2sRhWpOOILGTTM"
  },
  {
    "name": "Zeus Street Greek Hamilton",
    "address": "79/81 Beaumont St, Hamilton NSW 2303, Australia",
    "suburb": "Hamilton NSW 2303",
    "state": "NSW",
    "rating": 4.7,
    "reviews": 806,
    "lat": -32.921671,
    "lng": 151.7476363,
    "place_id": "ChIJQ9SxCjsVc2sRga0zhWDEbhs",
    "maps_url": "https://www.google.com/maps/place/?q=place_id:ChIJQ9SxCjsVc2sRga0zhWDEbhs"
  },
  {
    "name": "BLANCA Honeysuckle",
    "address": "Unit 2/11 Honeysuckle Dr, Newcastle NSW 2300, Australia",
    "suburb": "Newcastle NSW 2300",
    "state": "NSW",
    "rating": 4.4,
    "reviews": 428,
    "lat": -32.9254348,
    "lng": 151.7692973,
    "place_id": "ChIJYcWklMkVc2sRHTQAP3ZuLf0",
    "maps_url": "https://www.google.com/maps/place/?q=place_id:ChIJYcWklMkVc2sRHTQAP3ZuLf0"
  },
  {
    "name": "Salparo",
    "address": "35 Side, Newcastle upon Tyne NE1 3JE, UK",
    "suburb": "Newcastle upon Tyne NE1 3JE",
    "state": "NSW",
    "rating": 4.8,
    "reviews": 311,
    "lat": 54.969325,
    "lng": -1.6088916,
    "place_id": "ChIJk5thr65xfkgRd5TBGQ0NQPk",
    "maps_url": "https://www.google.com/maps/place/?q=place_id:ChIJk5thr65xfkgRd5TBGQ0NQPk"
  },
  {
    "name": "Atmos",
    "address": "35-45 Shoal Bay Rd, Shoal Bay NSW 2315, Australia",
    "suburb": "Shoal Bay NSW 2315",
    "state": "NSW",
    "rating": 4.7,
    "reviews": 1992,
    "lat": -32.7204761,
    "lng": 152.1747899,
    "place_id": "ChIJI2g1-LGHc2sRvzaMi-c9J_0",
    "maps_url": "https://www.google.com/maps/place/?q=place_id:ChIJI2g1-LGHc2sRvzaMi-c9J_0"
  },
  {
    "name": "The Village Newcastle",
    "address": "2/44 Beaumont St, Hamilton NSW 2303, Australia",
    "suburb": "Hamilton NSW 2303",
    "state": "NSW",
    "rating": 4.7,
    "reviews": 528,
    "lat": -32.9202465,
    "lng": 151.7474088,
    "place_id": "ChIJT3I7zFIUc2sRGTRCYcXAycQ",
    "maps_url": "https://www.google.com/maps/place/?q=place_id:ChIJT3I7zFIUc2sRGTRCYcXAycQ"
  },
  {
    "name": "Sephardim",
    "address": "71 King St, Warners Bay NSW 2282, Australia",
    "suburb": "Warners Bay NSW 2282",
    "state": "NSW",
    "rating": 4.3,
    "reviews": 439,
    "lat": -32.9751374,
    "lng": 151.6459704,
    "place_id": "ChIJ5Q662_s8c2sRIi_SitqTVPU",
    "maps_url": "https://www.google.com/maps/place/?q=place_id:ChIJ5Q662_s8c2sRIi_SitqTVPU"
  },
  {
    "name": "Lock's Paddock",
    "address": "16 Watt St, Newcastle NSW 2300, Australia",
    "suburb": "Newcastle NSW 2300",
    "state": "NSW",
    "rating": 4.8,
    "reviews": 383,
    "lat": -32.9283083,
    "lng": 151.7840477,
    "place_id": "ChIJkTlcxGIVc2sRB392Rwk6js0",
    "maps_url": "https://www.google.com/maps/place/?q=place_id:ChIJkTlcxGIVc2sRB392Rwk6js0"
  },
  {
    "name": "Zeus Street Greek Westfield Kotara",
    "address": "Westfield Kotara, 44/89 Park Ave, Kotara NSW 2289, Australia",
    "suburb": "44/89 Park Ave",
    "state": "NSW",
    "rating": 3.8,
    "reviews": 322,
    "lat": -32.9411586,
    "lng": 151.7112958,
    "place_id": "ChIJm6Gx3fwVc2sR4Ms7DGigfys",
    "maps_url": "https://www.google.com/maps/place/?q=place_id:ChIJm6Gx3fwVc2sR4Ms7DGigfys"
  },
  {
    "name": "Nostimo At The Bay",
    "address": "1 Trafalgar St, Nelson Bay NSW 2315, Australia",
    "suburb": "Nelson Bay NSW 2315",
    "state": "NSW",
    "rating": 4.7,
    "reviews": 159,
    "lat": -32.7171261,
    "lng": 152.1528152,
    "place_id": "ChIJO_mHYwCBc2sRffXGJXMLy6k",
    "maps_url": "https://www.google.com/maps/place/?q=place_id:ChIJO_mHYwCBc2sRffXGJXMLy6k"
  },
  {
    "name": "Oasis Mediterranean",
    "address": "SHOP 2 5/7 Honeysuckle Dr, Newcastle NSW 2300, Australia",
    "suburb": "Newcastle NSW 2300",
    "state": "NSW",
    "rating": 1,
    "reviews": 1,
    "lat": -32.9254182,
    "lng": 151.7698431,
    "place_id": "ChIJMx82cF0Uc2sRtLmtVWz7Ahg",
    "maps_url": "https://www.google.com/maps/place/?q=place_id:ChIJMx82cF0Uc2sRtLmtVWz7Ahg"
  },
  {
    "name": "Acropolis Grainger Market",
    "address": "grainger market Unit 12-13, Newcastle upon Tyne NE1 5QG, UK",
    "suburb": "Newcastle upon Tyne NE1 5QG",
    "state": "NSW",
    "rating": 4.6,
    "reviews": 199,
    "lat": 54.97268159999999,
    "lng": -1.6145755,
    "place_id": "ChIJJ9PXZrtxfkgRdqxNUiZNc1w",
    "maps_url": "https://www.google.com/maps/place/?q=place_id:ChIJJ9PXZrtxfkgRdqxNUiZNc1w"
  },
  {
    "name": "Signal Box Newcastle",
    "address": "155 Wharf Rd, Newcastle NSW 2300, Australia",
    "suburb": "Newcastle NSW 2300",
    "state": "NSW",
    "rating": 4.6,
    "reviews": 1384,
    "lat": -32.9260928,
    "lng": 151.7814833,
    "place_id": "ChIJ3zXnt9gVc2sRJsajB6PdljA",
    "maps_url": "https://www.google.com/maps/place/?q=place_id:ChIJ3zXnt9gVc2sRJsajB6PdljA"
  },
  {
    "name": "Kafeneon",
    "address": "8 Bigg Market, Newcastle upon Tyne NE1 1UW, UK",
    "suburb": "Newcastle upon Tyne NE1 1UW",
    "state": "NSW",
    "rating": 4.7,
    "reviews": 2330,
    "lat": 54.9713137,
    "lng": -1.6136863,
    "place_id": "ChIJ5QTQ4LVwfkgR89QbHsdvieE",
    "maps_url": "https://www.google.com/maps/place/?q=place_id:ChIJ5QTQ4LVwfkgR89QbHsdvieE"
  },
  {
    "name": "Paros - Greek Restaurant Take Away Newcastle",
    "address": "251 Chillingham Rd, Newcastle upon Tyne NE6 5LL, UK",
    "suburb": "Newcastle upon Tyne NE6 5LL",
    "state": "NSW",
    "rating": 4.9,
    "reviews": 326,
    "lat": 54.987773,
    "lng": -1.5777482,
    "place_id": "ChIJHaQmKK1xfkgR2NjkggYKNf8",
    "maps_url": "https://www.google.com/maps/place/?q=place_id:ChIJHaQmKK1xfkgR2NjkggYKNf8"
  },
  {
    "name": "Bocados Spanish Kitchen",
    "address": "25 King St, Newcastle NSW 2300, Australia",
    "suburb": "Newcastle NSW 2300",
    "state": "NSW",
    "rating": 4.5,
    "reviews": 882,
    "lat": -32.928962,
    "lng": 151.783757,
    "place_id": "ChIJHbfQ3HoUc2sRCiOUjpDCYmI",
    "maps_url": "https://www.google.com/maps/place/?q=place_id:ChIJHbfQ3HoUc2sRCiOUjpDCYmI"
  },
  {
    "name": "Zeus Street Greek Maitland Green Hills",
    "address": "1 Molly Morgan Dr, East Maitland NSW 2323, Australia",
    "suburb": "East Maitland NSW 2323",
    "state": "NSW",
    "rating": 4.5,
    "reviews": 217,
    "lat": -32.7627913,
    "lng": 151.5913572,
    "place_id": "ChIJURwWiHlHc2sR-q7ydxKCjuY",
    "maps_url": "https://www.google.com/maps/place/?q=place_id:ChIJURwWiHlHc2sR-q7ydxKCjuY"
  },
  {
    "name": "Litani's Greek Mediterranean Restaurant",
    "address": "120 Corrimal St, Wollongong NSW 2500, Australia",
    "suburb": "Wollongong NSW 2500",
    "state": "NSW",
    "rating": 4.4,
    "reviews": 929,
    "lat": -34.42504419999999,
    "lng": 150.8997364,
    "place_id": "ChIJC5LDPakZE2sRalUzqe-08PI",
    "maps_url": "https://www.google.com/maps/place/?q=place_id:ChIJC5LDPakZE2sRalUzqe-08PI"
  },
  {
    "name": "The Living Room Wollongong",
    "address": "195 Keira St, Wollongong NSW 2500, Australia",
    "suburb": "Wollongong NSW 2500",
    "state": "NSW",
    "rating": 4.6,
    "reviews": 761,
    "lat": -34.4240645,
    "lng": 150.8934605,
    "place_id": "ChIJmzQTe6YZE2sRNu-Lf44NjKY",
    "maps_url": "https://www.google.com/maps/place/?q=place_id:ChIJmzQTe6YZE2sRNu-Lf44NjKY"
  },
  {
    "name": "Nick's on Bourke",
    "address": "9 Bourke St, North Wollongong NSW 2500, Australia",
    "suburb": "North Wollongong NSW 2500",
    "state": "NSW",
    "rating": 4.2,
    "reviews": 201,
    "lat": -34.4152003,
    "lng": 150.9000792,
    "place_id": "ChIJpZLcnnsZE2sR2NIfb4NMZ24",
    "maps_url": "https://www.google.com/maps/place/?q=place_id:ChIJpZLcnnsZE2sR2NIfb4NMZ24"
  },
  {
    "name": "Zeus Street Greek Wollongong",
    "address": "55 Crown St, Wollongong NSW 2500, Australia",
    "suburb": "Wollongong NSW 2500",
    "state": "NSW",
    "rating": 4.2,
    "reviews": 83,
    "lat": -34.4259811,
    "lng": 150.8991859,
    "place_id": "ChIJc_v8qfwZE2sRrJtq3XgPEe8",
    "maps_url": "https://www.google.com/maps/place/?q=place_id:ChIJc_v8qfwZE2sRrJtq3XgPEe8"
  },
  {
    "name": "Kefi",
    "address": "Koolewong Marina, 19 Brisbane Water Dr, Koolewong NSW 2256, Australia",
    "suburb": "19 Brisbane Water Dr",
    "state": "NSW",
    "rating": 4.7,
    "reviews": 942,
    "lat": -33.4720736,
    "lng": 151.3219096,
    "place_id": "ChIJ9zvm3oxLDWsRUeudqRUzODA",
    "maps_url": "https://www.google.com/maps/place/?q=place_id:ChIJ9zvm3oxLDWsRUeudqRUzODA"
  },
  {
    "name": "Little Miss",
    "address": "4 Ash St, Terrigal NSW 2260, Australia",
    "suburb": "Terrigal NSW 2260",
    "state": "NSW",
    "rating": 4.7,
    "reviews": 634,
    "lat": -33.4486885,
    "lng": 151.4464044,
    "place_id": "ChIJu7kW6LdLDWsRZR1m5S6sRmE",
    "maps_url": "https://www.google.com/maps/place/?q=place_id:ChIJu7kW6LdLDWsRZR1m5S6sRmE"
  },
  {
    "name": "SEÑOR HABIBI'S",
    "address": "2/12 Kurrawyba Ave, Terrigal NSW 2260, Australia",
    "suburb": "Terrigal NSW 2260",
    "state": "NSW",
    "rating": 4.8,
    "reviews": 171,
    "lat": -33.4482748,
    "lng": 151.4444163,
    "place_id": "ChIJbeK4J2PJcmsRVt0ZFkt_-Fo",
    "maps_url": "https://www.google.com/maps/place/?q=place_id:ChIJbeK4J2PJcmsRVt0ZFkt_-Fo"
  },
  {
    "name": "ELA MESA GREEK TAVERNA",
    "address": "18-22 The Boulevarde, Woy Woy NSW 2256, Australia",
    "suburb": "Woy Woy NSW 2256",
    "state": "NSW",
    "rating": 4.3,
    "reviews": 601,
    "lat": -33.4838182,
    "lng": 151.325243,
    "place_id": "ChIJOQBQlDRLDWsRPoDp_OmWDH0",
    "maps_url": "https://www.google.com/maps/place/?q=place_id:ChIJOQBQlDRLDWsRPoDp_OmWDH0"
  },
  {
    "name": "Motel Mezza Restaurant & Bar",
    "address": "98 Pacific Hwy, Wyong NSW 2259, Australia",
    "suburb": "Wyong NSW 2259",
    "state": "NSW",
    "rating": 4.6,
    "reviews": 956,
    "lat": -33.284694,
    "lng": 151.4246588,
    "place_id": "ChIJ_RNU6PXRcmsREnmYhtzDkTs",
    "maps_url": "https://www.google.com/maps/place/?q=place_id:ChIJ_RNU6PXRcmsREnmYhtzDkTs"
  },
  {
    "name": "Buffalo Chargrill",
    "address": "193-199 Pacific Hwy, Charmhaven NSW 2263, Australia",
    "suburb": "Charmhaven NSW 2263",
    "state": "NSW",
    "rating": 4.7,
    "reviews": 449,
    "lat": -33.2280476,
    "lng": 151.5033555,
    "place_id": "ChIJYb5lGsHRcmsRfC7TDxh3O7M",
    "maps_url": "https://www.google.com/maps/place/?q=place_id:ChIJYb5lGsHRcmsRfC7TDxh3O7M"
  },
  {
    "name": "Amarilla",
    "address": "2a the Haven, Terrigal NSW 2260, Australia",
    "suburb": "Terrigal NSW 2260",
    "state": "NSW",
    "rating": 4.5,
    "reviews": 266,
    "lat": -33.4474001,
    "lng": 151.4504064,
    "place_id": "ChIJTftRCeHJcmsRiQ89acKurA0",
    "maps_url": "https://www.google.com/maps/place/?q=place_id:ChIJTftRCeHJcmsRiQ89acKurA0"
  },
  {
    "name": "Fedele's East Gosford",
    "address": "Shop 3/36/40 Victoria St, East Gosford NSW 2250, Australia",
    "suburb": "East Gosford NSW 2250",
    "state": "NSW",
    "rating": 4.7,
    "reviews": 823,
    "lat": -33.4383905,
    "lng": 151.353659,
    "place_id": "ChIJo6x8qFy1cmsRQeqn3csmkT0",
    "maps_url": "https://www.google.com/maps/place/?q=place_id:ChIJo6x8qFy1cmsRQeqn3csmkT0"
  },
  {
    "name": "Suq Restaurant",
    "address": "80 Ocean View Dr, Wamberal NSW 2260, Australia",
    "suburb": "Wamberal NSW 2260",
    "state": "NSW",
    "rating": 4.7,
    "reviews": 281,
    "lat": -33.433874,
    "lng": 151.4441486,
    "place_id": "ChIJJe6c3L_JcmsRzpZdpGVE2e0",
    "maps_url": "https://www.google.com/maps/place/?q=place_id:ChIJJe6c3L_JcmsRzpZdpGVE2e0"
  },
  {
    "name": "The Cowrie Restaurant",
    "address": "109 Scenic Hwy, Terrigal NSW 2260, Australia",
    "suburb": "Terrigal NSW 2260",
    "state": "NSW",
    "rating": 4.7,
    "reviews": 1338,
    "lat": -33.4516258,
    "lng": 151.4406433,
    "place_id": "ChIJL-7E4eDJcmsRLg2H1xvuF74",
    "maps_url": "https://www.google.com/maps/place/?q=place_id:ChIJL-7E4eDJcmsRLg2H1xvuF74"
  },
  {
    "name": "Avoca Beach House Restaurant & Bar",
    "address": "3/85 Avoca Dr, Avoca Beach NSW 2251, Australia",
    "suburb": "Avoca Beach NSW 2251",
    "state": "NSW",
    "rating": 4.6,
    "reviews": 1089,
    "lat": -33.4707199,
    "lng": 151.4360464,
    "place_id": "ChIJA94ZnFC3cmsRXqhW6Iwswxs",
    "maps_url": "https://www.google.com/maps/place/?q=place_id:ChIJA94ZnFC3cmsRXqhW6Iwswxs"
  },
  {
    "name": "Meribella",
    "address": "Pine Tree Ln, Terrigal NSW 2260, Australia",
    "suburb": "Terrigal NSW 2260",
    "state": "NSW",
    "rating": 4.6,
    "reviews": 431,
    "lat": -33.4478704,
    "lng": 151.4454927,
    "place_id": "ChIJEUEvCVDJcmsRM5TApb5Gfd4",
    "maps_url": "https://www.google.com/maps/place/?q=place_id:ChIJEUEvCVDJcmsRM5TApb5Gfd4"
  },
  {
    "name": "Taverna",
    "address": "22 Marine Parade, Kingscliff NSW 2487, Australia",
    "suburb": "Kingscliff NSW 2487",
    "state": "NSW",
    "rating": 4.6,
    "reviews": 922,
    "lat": -28.2573927,
    "lng": 153.5802325,
    "place_id": "ChIJNR8xqVj_kGsRlZsqe4mXF14",
    "maps_url": "https://www.google.com/maps/place/?q=place_id:ChIJNR8xqVj_kGsRlZsqe4mXF14"
  },
  {
    "name": "The BOX on the Water",
    "address": "The Esplanade, Ettalong Beach NSW 2257, Australia",
    "suburb": "Ettalong Beach NSW 2257",
    "state": "NSW",
    "rating": 4.2,
    "reviews": 1787,
    "lat": -33.515787,
    "lng": 151.3348494,
    "place_id": "ChIJcx1jDFezcmsRzvZf_Abuk9Y",
    "maps_url": "https://www.google.com/maps/place/?q=place_id:ChIJcx1jDFezcmsRzvZf_Abuk9Y"
  },
  {
    "name": "Amalfi Restaurant and Bar Ettalong Beach",
    "address": "49 The Esplanade, Ettalong Beach NSW 2257, Australia",
    "suburb": "Ettalong Beach NSW 2257",
    "state": "NSW",
    "rating": 4.3,
    "reviews": 853,
    "lat": -33.5149258,
    "lng": 151.3354609,
    "place_id": "ChIJ327cUVRNDWsRdnzBKh_uDPM",
    "maps_url": "https://www.google.com/maps/place/?q=place_id:ChIJ327cUVRNDWsRdnzBKh_uDPM"
  },
  {
    "name": "La Costa Restaurant",
    "address": "137 The Entrance Rd, The Entrance NSW 2261, Australia",
    "suburb": "The Entrance NSW 2261",
    "state": "NSW",
    "rating": 4.4,
    "reviews": 661,
    "lat": -33.3418669,
    "lng": 151.4979786,
    "place_id": "ChIJWwluaZzPcmsRGYdxeU9yipA",
    "maps_url": "https://www.google.com/maps/place/?q=place_id:ChIJWwluaZzPcmsRGYdxeU9yipA"
  },
  {
    "name": "Sulo’s Shish & Pide",
    "address": "189 Ocean View Rd, Ettalong Beach NSW 2257, Australia",
    "suburb": "Ettalong Beach NSW 2257",
    "state": "NSW",
    "rating": 4.9,
    "reviews": 147,
    "lat": -33.5143624,
    "lng": 151.3412603,
    "place_id": "ChIJyTii6WazcmsRSdp3prDK38A",
    "maps_url": "https://www.google.com/maps/place/?q=place_id:ChIJyTii6WazcmsRSdp3prDK38A"
  },
  {
    "name": "EAT GRK Penrith",
    "address": "Shop/154 Riley St, Penrith NSW 2750, Australia",
    "suburb": "Penrith NSW 2750",
    "state": "NSW",
    "rating": 4,
    "reviews": 143,
    "lat": -33.7516831,
    "lng": 150.6942028,
    "place_id": "ChIJ-6CWMnqFEmsRhcSRe1ezDgM",
    "maps_url": "https://www.google.com/maps/place/?q=place_id:ChIJ-6CWMnqFEmsRhcSRe1ezDgM"
  },
  {
    "name": "HOUSE OF GRK - Henry St Penrith",
    "address": "Shop 2/98 Henry St, Penrith NSW 2750, Australia",
    "suburb": "Penrith NSW 2750",
    "state": "NSW",
    "rating": 4.7,
    "reviews": 279,
    "lat": -33.7526176,
    "lng": 150.6983364,
    "place_id": "ChIJSbtVYrSFEmsRe2PcscfG650",
    "maps_url": "https://www.google.com/maps/place/?q=place_id:ChIJSbtVYrSFEmsRe2PcscfG650"
  },
  {
    "name": "Zeko Mediterranean Cuisine",
    "address": "Best Rd &, MacKenzie Blvd, Seven Hills NSW 2147, Australia",
    "suburb": "MacKenzie Blvd",
    "state": "NSW",
    "rating": 4.8,
    "reviews": 350,
    "lat": -33.7839312,
    "lng": 150.9409529,
    "place_id": "ChIJ58ePPmOYEmsRRR_uibVm2dg",
    "maps_url": "https://www.google.com/maps/place/?q=place_id:ChIJ58ePPmOYEmsRRR_uibVm2dg"
  },
  {
    "name": "Lusso Tapas Blacktown",
    "address": "Level1/55 Campbell St, Blacktown NSW 2148, Australia",
    "suburb": "Blacktown NSW 2148",
    "state": "NSW",
    "rating": 4.8,
    "reviews": 103,
    "lat": -33.7732397,
    "lng": 150.9087369,
    "place_id": "ChIJ85VnK72ZEmsRpiTEGzhjAss",
    "maps_url": "https://www.google.com/maps/place/?q=place_id:ChIJ85VnK72ZEmsRpiTEGzhjAss"
  },
  {
    "name": "Volcanos Steakhouse Blacktown",
    "address": "Shop 4005/17 Patrick St, Blacktown NSW 2148, Australia",
    "suburb": "Blacktown NSW 2148",
    "state": "NSW",
    "rating": 4.7,
    "reviews": 7678,
    "lat": -33.7699329,
    "lng": 150.9068157,
    "place_id": "ChIJzSKX6CqZEmsRsupLPfXz7e8",
    "maps_url": "https://www.google.com/maps/place/?q=place_id:ChIJzSKX6CqZEmsRsupLPfXz7e8"
  },
  {
    "name": "Lusso Bistro Blacktown",
    "address": "Level 1/55 Campbell St, Blacktown NSW 2148, Australia",
    "suburb": "Blacktown NSW 2148",
    "state": "NSW",
    "rating": 4.8,
    "reviews": 1212,
    "lat": -33.7730613,
    "lng": 150.9087047,
    "place_id": "ChIJq6qqPVWYEmsRHPKtyv4U9gU",
    "maps_url": "https://www.google.com/maps/place/?q=place_id:ChIJq6qqPVWYEmsRHPKtyv4U9gU"
  },
  {
    "name": "Villaggio Blacktown",
    "address": "40 Second Ave, Blacktown NSW 2148, Australia",
    "suburb": "Blacktown NSW 2148",
    "state": "NSW",
    "rating": 4,
    "reviews": 178,
    "lat": -33.7659615,
    "lng": 150.9071691,
    "place_id": "ChIJwUcryxuZEmsRahokfjIXnrE",
    "maps_url": "https://www.google.com/maps/place/?q=place_id:ChIJwUcryxuZEmsRahokfjIXnrE"
  },
  {
    "name": "Greek Taverna Bold Street",
    "address": "76 Bold St, Liverpool L1 4HR, UK",
    "suburb": "Liverpool L1 4HR",
    "state": "NSW",
    "rating": 4.7,
    "reviews": 1897,
    "lat": 53.4029937,
    "lng": -2.9782605,
    "place_id": "ChIJE5ongache0gReBoj7FjAD6A",
    "maps_url": "https://www.google.com/maps/place/?q=place_id:ChIJE5ongache0gReBoj7FjAD6A"
  },
  {
    "name": "Zeus Taverna",
    "address": "44 Castle St, Liverpool L2 7LA, UK",
    "suburb": "Liverpool L2 7LA",
    "state": "NSW",
    "rating": 4.6,
    "reviews": 120,
    "lat": 53.4057892,
    "lng": -2.9907911,
    "place_id": "ChIJ5ddWJKohe0gRK042wMGI8wc",
    "maps_url": "https://www.google.com/maps/place/?q=place_id:ChIJ5ddWJKohe0gRK042wMGI8wc"
  },
  {
    "name": "The Real Greek Liverpool",
    "address": "One, 43 Paradise St, Liverpool L1 3EU, UK",
    "suburb": "43 Paradise St",
    "state": "NSW",
    "rating": 4.7,
    "reviews": 1957,
    "lat": 53.40322620000001,
    "lng": -2.9858854,
    "place_id": "ChIJyXz7EgAhe0gRfEJK543ZcM4",
    "maps_url": "https://www.google.com/maps/place/?q=place_id:ChIJyXz7EgAhe0gRfEJK543ZcM4"
  },
  {
    "name": "Oreo Greek Eatery",
    "address": "6/12 Regent Cres, Moorebank NSW 2170, Australia",
    "suburb": "Moorebank NSW 2170",
    "state": "NSW",
    "rating": 4.9,
    "reviews": 141,
    "lat": -33.9374709,
    "lng": 150.9405405,
    "place_id": "ChIJWUBYBACVEmsRhsJD-NIX3MM",
    "maps_url": "https://www.google.com/maps/place/?q=place_id:ChIJWUBYBACVEmsRhsJD-NIX3MM"
  },
  {
    "name": "Wanasa Restaurant",
    "address": "220A Northumberland St, Liverpool NSW 2170, Australia",
    "suburb": "Liverpool NSW 2170",
    "state": "NSW",
    "rating": 4.8,
    "reviews": 125,
    "lat": -33.92312,
    "lng": 150.9225016,
    "place_id": "ChIJQTadGg2VEmsRVneTzT_KW3I",
    "maps_url": "https://www.google.com/maps/place/?q=place_id:ChIJQTadGg2VEmsRVneTzT_KW3I"
  },
  {
    "name": "Aged Steakhouse",
    "address": "357-367 Macquarie St, Liverpool NSW 2170, Australia",
    "suburb": "Liverpool NSW 2170",
    "state": "NSW",
    "rating": 4.5,
    "reviews": 553,
    "lat": -33.9261194,
    "lng": 150.9208209,
    "place_id": "ChIJzS-2EtOVEmsRBEjeJTCf5is",
    "maps_url": "https://www.google.com/maps/place/?q=place_id:ChIJzS-2EtOVEmsRBEjeJTCf5is"
  },
  {
    "name": "Cloud 2170",
    "address": "58 Macquarie St, Liverpool NSW 2170, Australia",
    "suburb": "Liverpool NSW 2170",
    "state": "NSW",
    "rating": 5,
    "reviews": 12,
    "lat": -33.9169516,
    "lng": 150.9250791,
    "place_id": "ChIJ-44ygfKVEmsRZqBqkYJFS24",
    "maps_url": "https://www.google.com/maps/place/?q=place_id:ChIJ-44ygfKVEmsRZqBqkYJFS24"
  },
  {
    "name": "Zorbas",
    "address": "1 Leece St, Liverpool L1 2TR, UK",
    "suburb": "Liverpool L1 2TR",
    "state": "NSW",
    "rating": 4.7,
    "reviews": 629,
    "lat": 53.4022526,
    "lng": -2.9753149,
    "place_id": "ChIJAQDnYSEhe0gR0I4dB-QeJ24",
    "maps_url": "https://www.google.com/maps/place/?q=place_id:ChIJAQDnYSEhe0gR0I4dB-QeJ24"
  },
  {
    "name": "Eureka Greek Restaurant",
    "address": "7-9 High St, Liverpool L15 8HE, UK",
    "suburb": "Liverpool L15 8HE",
    "state": "NSW",
    "rating": 4.7,
    "reviews": 596,
    "lat": 53.3991363,
    "lng": -2.9218335,
    "place_id": "ChIJqdV9kh4he0gR_kg34kh5MYw",
    "maps_url": "https://www.google.com/maps/place/?q=place_id:ChIJqdV9kh4he0gR_kg34kh5MYw"
  },
  {
    "name": "Sahrati",
    "address": "Shop 3/381 Macquarie St, Liverpool NSW 2170, Australia",
    "suburb": "Liverpool NSW 2170",
    "state": "NSW",
    "rating": 4.6,
    "reviews": 655,
    "lat": -33.926526,
    "lng": 150.920076,
    "place_id": "ChIJm6eRvrqVEmsR1O9Fr1PgTIc",
    "maps_url": "https://www.google.com/maps/place/?q=place_id:ChIJm6eRvrqVEmsR1O9Fr1PgTIc"
  },
  {
    "name": "Othellos",
    "address": "105 Gateacre Park Dr, Gateacre, Liverpool L25 1PD, UK",
    "suburb": "Gateacre",
    "state": "NSW",
    "rating": 4.7,
    "reviews": 541,
    "lat": 53.390512,
    "lng": -2.8726949,
    "place_id": "ChIJMyh6UJofe0gRgn5YB9EWZBQ",
    "maps_url": "https://www.google.com/maps/place/?q=place_id:ChIJMyh6UJofe0gRgn5YB9EWZBQ"
  },
  {
    "name": "Retsina Greek Restaurant & Taverna",
    "address": "73A Derby Ln, Old Swan, Liverpool L13 6QE, UK",
    "suburb": "Old Swan",
    "state": "NSW",
    "rating": 4.5,
    "reviews": 295,
    "lat": 53.41934200000001,
    "lng": -2.9158129,
    "place_id": "ChIJz1B7ssEhe0gRNPH7OaPKvWc",
    "maps_url": "https://www.google.com/maps/place/?q=place_id:ChIJz1B7ssEhe0gRNPH7OaPKvWc"
  },
  {
    "name": "Lefteris Greek Taverna",
    "address": "63, 63A Allerton Rd, Liverpool L18 2DA, UK",
    "suburb": "63A Allerton Rd",
    "state": "NSW",
    "rating": 4.7,
    "reviews": 398,
    "lat": 53.3869862,
    "lng": -2.9090987,
    "place_id": "ChIJlQI_Azoge0gRbkO3JsSZMIM",
    "maps_url": "https://www.google.com/maps/place/?q=place_id:ChIJlQI_Azoge0gRbkO3JsSZMIM"
  },
  {
    "name": "Adana Grill",
    "address": "Macquarie St, Liverpool NSW 2170, Australia",
    "suburb": "Liverpool NSW 2170",
    "state": "NSW",
    "rating": 5,
    "reviews": 1,
    "lat": -33.9189069,
    "lng": 150.9238163,
    "place_id": "ChIJobeyuruVEmsR0PXWCQdV-qM",
    "maps_url": "https://www.google.com/maps/place/?q=place_id:ChIJobeyuruVEmsR0PXWCQdV-qM"
  },
  {
    "name": "Big Fat Greek (woodbine)",
    "address": "2 Rennie Rd, Campbelltown NSW 2560, Australia",
    "suburb": "Campbelltown NSW 2560",
    "state": "NSW",
    "rating": 4.4,
    "reviews": 1074,
    "lat": -34.0484206,
    "lng": 150.8268246,
    "place_id": "ChIJ0zjdBULvEmsRzy31TTfdzUU",
    "maps_url": "https://www.google.com/maps/place/?q=place_id:ChIJ0zjdBULvEmsRzy31TTfdzUU"
  },
  {
    "name": "Al Faisal Mandi Bankstown",
    "address": "Suite 2a/222 South Terrace, Bankstown NSW 2200, Australia",
    "suburb": "Bankstown NSW 2200",
    "state": "NSW",
    "rating": 4.7,
    "reviews": 958,
    "lat": -33.9180696,
    "lng": 151.0392276,
    "place_id": "ChIJCdu0C-m9EmsR_am6whdMi1E",
    "maps_url": "https://www.google.com/maps/place/?q=place_id:ChIJCdu0C-m9EmsR_am6whdMi1E"
  },
  {
    "name": "Club Grill by Rocky",
    "address": "41 Northam Ave, Bankstown NSW 2200, Australia",
    "suburb": "Bankstown NSW 2200",
    "state": "NSW",
    "rating": 4.9,
    "reviews": 96,
    "lat": -33.9193112,
    "lng": 151.0303184,
    "place_id": "ChIJX0m9VgC9EmsRvoKskR1eR_E",
    "maps_url": "https://www.google.com/maps/place/?q=place_id:ChIJX0m9VgC9EmsRvoKskR1eR_E"
  },
  {
    "name": "Kickin'Inn Bankstown",
    "address": "1 Meredith St, Bankstown NSW 2200, Australia",
    "suburb": "Bankstown NSW 2200",
    "state": "NSW",
    "rating": 4.8,
    "reviews": 3326,
    "lat": -33.9170162,
    "lng": 151.0318651,
    "place_id": "ChIJaSevLXu9EmsRs4TLilpzvMU",
    "maps_url": "https://www.google.com/maps/place/?q=place_id:ChIJaSevLXu9EmsRs4TLilpzvMU"
  },
  {
    "name": "Thaleia Greek Taverna",
    "address": "467 King Georges Rd, Beverly Hills NSW 2209, Australia",
    "suburb": "Beverly Hills NSW 2209",
    "state": "NSW",
    "rating": 4.5,
    "reviews": 346,
    "lat": -33.9513875,
    "lng": 151.0822349,
    "place_id": "ChIJiVfZKnC5EmsRx2Ede2jKKXM",
    "maps_url": "https://www.google.com/maps/place/?q=place_id:ChIJiVfZKnC5EmsRx2Ede2jKKXM"
  },
  {
    "name": "Volcanos Steakhouse Bankstown",
    "address": "Shop 1 2/4 West Terrace, Bankstown NSW 2200, Australia",
    "suburb": "Bankstown NSW 2200",
    "state": "NSW",
    "rating": 4.7,
    "reviews": 7860,
    "lat": -33.9185406,
    "lng": 151.0372721,
    "place_id": "ChIJLRdWKTG9EmsRLjdUp4Z4B3I",
    "maps_url": "https://www.google.com/maps/place/?q=place_id:ChIJLRdWKTG9EmsRLjdUp4Z4B3I"
  },
  {
    "name": "That Turkish Place",
    "address": "Shop G 13-14, Little Saigon Plaza, 462 Chapel Rd, Bankstown NSW 2200, Australia",
    "suburb": "Little Saigon Plaza",
    "state": "NSW",
    "rating": 4.6,
    "reviews": 1220,
    "lat": -33.913447,
    "lng": 151.0341269,
    "place_id": "ChIJpebmotW_EmsRmUwaM4ErCOI",
    "maps_url": "https://www.google.com/maps/place/?q=place_id:ChIJpebmotW_EmsRmUwaM4ErCOI"
  },
  {
    "name": "Al Aseel Restaurant Bankstown",
    "address": "8 Greenfield Parade, Bankstown NSW 2200, Australia",
    "suburb": "Bankstown NSW 2200",
    "state": "NSW",
    "rating": 4.4,
    "reviews": 1212,
    "lat": -33.9199154,
    "lng": 151.0337926,
    "place_id": "ChIJ-YbEhn69EmsRULzijzV4s_o",
    "maps_url": "https://www.google.com/maps/place/?q=place_id:ChIJ-YbEhn69EmsRULzijzV4s_o"
  },
  {
    "name": "Taste of Egypt",
    "address": "2/18-20 Greenfield Parade, Bankstown NSW 2200, Australia",
    "suburb": "Bankstown NSW 2200",
    "state": "NSW",
    "rating": 4.4,
    "reviews": 498,
    "lat": -33.919633,
    "lng": 151.032486,
    "place_id": "ChIJqRgHnxu8EmsR77VnmEyYeSo",
    "maps_url": "https://www.google.com/maps/place/?q=place_id:ChIJqRgHnxu8EmsR77VnmEyYeSo"
  },
  {
    "name": "Tsipouro Taverna",
    "address": "22 Clarke St, Earlwood NSW 2206, Australia",
    "suburb": "Earlwood NSW 2206",
    "state": "NSW",
    "rating": 4.7,
    "reviews": 213,
    "lat": -33.9263054,
    "lng": 151.123381,
    "place_id": "ChIJm2-u77e7EmsRe0vSedahDhY",
    "maps_url": "https://www.google.com/maps/place/?q=place_id:ChIJm2-u77e7EmsRe0vSedahDhY"
  },
  {
    "name": "Krust Smash Burgers",
    "address": "140 Rookwood Rd, Yagoona NSW 2199, Australia",
    "suburb": "Yagoona NSW 2199",
    "state": "NSW",
    "rating": 4.8,
    "reviews": 33,
    "lat": -33.8965696,
    "lng": 151.037073,
    "place_id": "ChIJHVWfUb69EmsRoldTsPFLyM0",
    "maps_url": "https://www.google.com/maps/place/?q=place_id:ChIJHVWfUb69EmsRoldTsPFLyM0"
  },
  {
    "name": "St. Euphemia Greek Orthodox Church of Bankstown",
    "address": "12 East Terrace, Bankstown NSW 2200, Australia",
    "suburb": "Bankstown NSW 2200",
    "state": "NSW",
    "rating": 4.7,
    "reviews": 102,
    "lat": -33.9186889,
    "lng": 151.0387201,
    "place_id": "ChIJ37-mpwW8EmsRs1aIGpWWL78",
    "maps_url": "https://www.google.com/maps/place/?q=place_id:ChIJ37-mpwW8EmsRs1aIGpWWL78"
  },
  {
    "name": "Gözleme King Bankstown",
    "address": "Stacey St, Bankstown NSW 2200, Australia",
    "suburb": "Bankstown NSW 2200",
    "state": "NSW",
    "rating": 4.4,
    "reviews": 320,
    "lat": -33.91632,
    "lng": 151.0391003,
    "place_id": "ChIJtcgMcg-8EmsRY7esZdH4K9A",
    "maps_url": "https://www.google.com/maps/place/?q=place_id:ChIJtcgMcg-8EmsRY7esZdH4K9A"
  },
  {
    "name": "Hurricanes Grill Bankstown",
    "address": "Little Saigon Plaza Bankstown, 462 Chapel Rd, Bankstown NSW 2200, Australia",
    "suburb": "462 Chapel Rd",
    "state": "NSW",
    "rating": 4.1,
    "reviews": 263,
    "lat": -33.913447,
    "lng": 151.0341269,
    "place_id": "ChIJvT2ubXO9EmsRdg0uIf_OVAs",
    "maps_url": "https://www.google.com/maps/place/?q=place_id:ChIJvT2ubXO9EmsRdg0uIf_OVAs"
  },
  {
    "name": "MAMUŚKA Polish Restaurant",
    "address": "11 East Terrace, Bankstown NSW 2200, Australia",
    "suburb": "Bankstown NSW 2200",
    "state": "NSW",
    "rating": 4.8,
    "reviews": 27,
    "lat": -33.9192148,
    "lng": 151.0379475,
    "place_id": "ChIJK1K6brq9EmsRO25kNY-mpKw",
    "maps_url": "https://www.google.com/maps/place/?q=place_id:ChIJK1K6brq9EmsRO25kNY-mpKw"
  },
  {
    "name": "Koutouki Greek Tavern",
    "address": "138 Norton St, Leichhardt NSW 2040, Australia",
    "suburb": "Leichhardt NSW 2040",
    "state": "NSW",
    "rating": 4.5,
    "reviews": 456,
    "lat": -33.8825129,
    "lng": 151.1565585,
    "place_id": "ChIJJb0YwRuwEmsRSAaGXzxXUfk",
    "maps_url": "https://www.google.com/maps/place/?q=place_id:ChIJJb0YwRuwEmsRSAaGXzxXUfk"
  },
  {
    "name": "Greek Street",
    "address": "Shop 207/1 Anderson St, Chatswood NSW 2067, Australia",
    "suburb": "Chatswood NSW 2067",
    "state": "NSW",
    "rating": 4.2,
    "reviews": 282,
    "lat": -33.7969556,
    "lng": 151.1842601,
    "place_id": "ChIJFQ9xzNWoEmsRVrfQ3IAbOoc",
    "maps_url": "https://www.google.com/maps/place/?q=place_id:ChIJFQ9xzNWoEmsRVrfQ3IAbOoc"
  },
  {
    "name": "Zeus Street Greek Turramurra",
    "address": "31 Rohini St, Turramurra NSW 2074, Australia",
    "suburb": "Turramurra NSW 2074",
    "state": "NSW",
    "rating": 4.5,
    "reviews": 383,
    "lat": -33.7322719,
    "lng": 151.1290554,
    "place_id": "ChIJ5YOdIy2nEmsRbZCIEa0R1mY",
    "maps_url": "https://www.google.com/maps/place/?q=place_id:ChIJ5YOdIy2nEmsRbZCIEa0R1mY"
  },
  {
    "name": "Firestone Hornsby",
    "address": "Westfield Hornsby, Level 2,Shop3100/236 Pacific Hwy, Hornsby NSW 2077, Australia",
    "suburb": "Level 2",
    "state": "NSW",
    "rating": 4.2,
    "reviews": 1026,
    "lat": -33.704368,
    "lng": 151.1003783,
    "place_id": "ChIJOzc1tAynEmsR6NpT2CLy0V0",
    "maps_url": "https://www.google.com/maps/place/?q=place_id:ChIJOzc1tAynEmsR6NpT2CLy0V0"
  },
  {
    "name": "Jaam-e-Jam Restaurant",
    "address": "133/121 Pacific Hwy, Hornsby NSW 2077, Australia",
    "suburb": "Hornsby NSW 2077",
    "state": "NSW",
    "rating": 4.4,
    "reviews": 1091,
    "lat": -33.7066287,
    "lng": 151.0985428,
    "place_id": "ChIJ5W6VUU15tAERv-V25UWEMmQ",
    "maps_url": "https://www.google.com/maps/place/?q=place_id:ChIJ5W6VUU15tAERv-V25UWEMmQ"
  },
  {
    "name": "The Lodge",
    "address": "1 Lodge St, Hornsby NSW 2077, Australia",
    "suburb": "Hornsby NSW 2077",
    "state": "NSW",
    "rating": 4.7,
    "reviews": 85,
    "lat": -33.6901764,
    "lng": 151.1020098,
    "place_id": "ChIJC0CH-JBZDWsRD-FceUdgCQM",
    "maps_url": "https://www.google.com/maps/place/?q=place_id:ChIJC0CH-JBZDWsRD-FceUdgCQM"
  },
  {
    "name": "Kouzina Bebe",
    "address": "2 Coast Hospital Road Cnr Pine Ave &, Coast Hospital Rd, Little Bay NSW 2036, Australia",
    "suburb": "Coast Hospital Rd",
    "state": "NSW",
    "rating": 4.8,
    "reviews": 206,
    "lat": -33.9803178,
    "lng": 151.2495851,
    "place_id": "ChIJbUo2vcGzEmsRst7Ngki1iU4",
    "maps_url": "https://www.google.com/maps/place/?q=place_id:ChIJbUo2vcGzEmsRst7Ngki1iU4"
  },
  {
    "name": "The Great Taste of Greece",
    "address": "57 Park Rd, Kogarah Bay NSW 2217, Australia",
    "suburb": "Kogarah Bay NSW 2217",
    "state": "NSW",
    "rating": 4.4,
    "reviews": 378,
    "lat": -33.978815,
    "lng": 151.122719,
    "place_id": "ChIJ86nugX23EmsRs0QB_muZPDo",
    "maps_url": "https://www.google.com/maps/place/?q=place_id:ChIJ86nugX23EmsRs0QB_muZPDo"
  },
  {
    "name": "Zeus Street Greek Cherrybrook",
    "address": "Shop 42/47 Shepherds Dr, Cherrybrook NSW 2126, Australia",
    "suburb": "Cherrybrook NSW 2126",
    "state": "NSW",
    "rating": 4.6,
    "reviews": 409,
    "lat": -33.7211805,
    "lng": 151.043313,
    "place_id": "ChIJT0b-NYmhEmsR8MpaTc4ZbBs",
    "maps_url": "https://www.google.com/maps/place/?q=place_id:ChIJT0b-NYmhEmsR8MpaTc4ZbBs"
  },
  {
    "name": "Meet The Greek Restaurant",
    "address": "85 The Grand Parade, Brighton-Le-Sands NSW 2216, Australia",
    "suburb": "Brighton-Le-Sands NSW 2216",
    "state": "NSW",
    "rating": 4.4,
    "reviews": 882,
    "lat": -33.96130960000001,
    "lng": 151.1558638,
    "place_id": "ChIJL9pNP0y3EmsRkVEnwxsXwRw",
    "maps_url": "https://www.google.com/maps/place/?q=place_id:ChIJL9pNP0y3EmsRkVEnwxsXwRw"
  },
  {
    "name": "Blu Eatery",
    "address": "Shop B22 Florence St, Hornsby NSW 2077, Australia",
    "suburb": "Hornsby NSW 2077",
    "state": "NSW",
    "rating": 4.2,
    "reviews": 1726,
    "lat": -33.704202,
    "lng": 151.100721,
    "place_id": "ChIJ1YybE4SnEmsRKj6L4ZV2BFI",
    "maps_url": "https://www.google.com/maps/place/?q=place_id:ChIJ1YybE4SnEmsRKj6L4ZV2BFI"
  },
  {
    "name": "Eram Persian Restaurant",
    "address": "5 Dural La, Hornsby NSW 2077, Australia",
    "suburb": "Hornsby NSW 2077",
    "state": "NSW",
    "rating": 4.6,
    "reviews": 201,
    "lat": -33.7031558,
    "lng": 151.0969932,
    "place_id": "ChIJGVZXz2unEmsRhUgE1fdWwPY",
    "maps_url": "https://www.google.com/maps/place/?q=place_id:ChIJGVZXz2unEmsRhUgE1fdWwPY"
  },
  {
    "name": "JAS Kan-anan",
    "address": "Shop 4/20 George St, Hornsby NSW 2077, Australia",
    "suburb": "Hornsby NSW 2077",
    "state": "NSW",
    "rating": 4.5,
    "reviews": 50,
    "lat": -33.7033406,
    "lng": 151.0994089,
    "place_id": "ChIJrWVT8AqnEmsRzKSSMJZDoHY",
    "maps_url": "https://www.google.com/maps/place/?q=place_id:ChIJrWVT8AqnEmsRzKSSMJZDoHY"
  },
  {
    "name": "Station Street Bistro",
    "address": "31 Station St, Hornsby NSW 2077, Australia",
    "suburb": "Hornsby NSW 2077",
    "state": "NSW",
    "rating": 4,
    "reviews": 69,
    "lat": -33.7026286,
    "lng": 151.0978285,
    "place_id": "ChIJsU7t3oOnEmsR3HRHJ0oQsq0",
    "maps_url": "https://www.google.com/maps/place/?q=place_id:ChIJsU7t3oOnEmsR3HRHJ0oQsq0"
  },
  {
    "name": "Kazzi Beach Greek Manly",
    "address": "Shop Shop 4/93-95 N Steyne, Manly NSW 2095, Australia",
    "suburb": "Manly NSW 2095",
    "state": "NSW",
    "rating": 4.3,
    "reviews": 827,
    "lat": -33.7911,
    "lng": 151.2867293,
    "place_id": "ChIJQdYLlLGrEmsR2SX-GM28Sn4",
    "maps_url": "https://www.google.com/maps/place/?q=place_id:ChIJQdYLlLGrEmsR2SX-GM28Sn4"
  },
  {
    "name": "Kangnam BBQ Hornsby",
    "address": "Shop R2/236 Pacific Hwy, Hornsby NSW 2077, Australia",
    "suburb": "Hornsby NSW 2077",
    "state": "NSW",
    "rating": 4.2,
    "reviews": 1234,
    "lat": -33.7032496,
    "lng": 151.1009894,
    "place_id": "ChIJP-2bE4SnEmsRQx8FLaV8MFU",
    "maps_url": "https://www.google.com/maps/place/?q=place_id:ChIJP-2bE4SnEmsRQx8FLaV8MFU"
  },
  {
    "name": "Ikaria Bondi",
    "address": "70B Campbell Parade, Bondi Beach NSW 2026, Australia",
    "suburb": "Bondi Beach NSW 2026",
    "state": "NSW",
    "rating": 4.7,
    "reviews": 543,
    "lat": -33.8926802,
    "lng": 151.2728897,
    "place_id": "ChIJE50MWaetEmsRWZLe0h-9a5I",
    "maps_url": "https://www.google.com/maps/place/?q=place_id:ChIJE50MWaetEmsRWZLe0h-9a5I"
  },
  {
    "name": "Kazzi Beach Greek Bondi",
    "address": "14-16 O'Brien St, Bondi Beach NSW 2026, Australia",
    "suburb": "Bondi Beach NSW 2026",
    "state": "NSW",
    "rating": 4.6,
    "reviews": 168,
    "lat": -33.8893408,
    "lng": 151.2702236,
    "place_id": "ChIJDQBOIbetEmsR1N7btc-F35w",
    "maps_url": "https://www.google.com/maps/place/?q=place_id:ChIJDQBOIbetEmsR1N7btc-F35w"
  },
  {
    "name": "Etheus",
    "address": "Bondi Pavilion, Shop 4 Queen Elizabeth Dr, Bondi Beach NSW 2026, Australia",
    "suburb": "Shop 4 Queen Elizabeth Dr",
    "state": "NSW",
    "rating": 4.8,
    "reviews": 166,
    "lat": -33.890432,
    "lng": 151.2767935,
    "place_id": "ChIJo5L_m6CtEmsRDy6dP5B6slU",
    "maps_url": "https://www.google.com/maps/place/?q=place_id:ChIJo5L_m6CtEmsRDy6dP5B6slU"
  },
  {
    "name": "Greek Feast Bondi",
    "address": "191 Old South Head Rd, Bondi Junction NSW 2022, Australia",
    "suburb": "Bondi Junction NSW 2022",
    "state": "NSW",
    "rating": 4.7,
    "reviews": 266,
    "lat": -33.8895904,
    "lng": 151.2586038,
    "place_id": "ChIJ0UY95pKtEmsR91LpoSzChjM",
    "maps_url": "https://www.google.com/maps/place/?q=place_id:ChIJ0UY95pKtEmsR91LpoSzChjM"
  },
  {
    "name": "Mr Yeeros Newtown",
    "address": "153 King St, Newtown NSW 2042, Australia",
    "suburb": "Newtown NSW 2042",
    "state": "NSW",
    "rating": 4.4,
    "reviews": 361,
    "lat": -33.8935665,
    "lng": 151.1831919,
    "place_id": "ChIJBYMObzKwEmsR-4zhqhaUAQ8",
    "maps_url": "https://www.google.com/maps/place/?q=place_id:ChIJBYMObzKwEmsR-4zhqhaUAQ8"
  },
  {
    "name": "STEKI taverna",
    "address": "149 Enmore Rd, Enmore NSW 2042, Australia",
    "suburb": "Enmore NSW 2042",
    "state": "NSW",
    "rating": 4.4,
    "reviews": 471,
    "lat": -33.8986459,
    "lng": 151.1729898,
    "place_id": "ChIJUc_vPzKwEmsR1GI6Gjie9fc",
    "maps_url": "https://www.google.com/maps/place/?q=place_id:ChIJUc_vPzKwEmsR1GI6Gjie9fc"
  },
  {
    "name": "Aida Mediterranean Cuisine and Bar",
    "address": "498 Dean St, Albury NSW 2640, Australia",
    "suburb": "Albury NSW 2640",
    "state": "NSW",
    "rating": 4.5,
    "reviews": 362,
    "lat": -36.0809079,
    "lng": 146.9186383,
    "place_id": "ChIJj6zt56JfIWsRK1Fyg2yzvc8",
    "maps_url": "https://www.google.com/maps/place/?q=place_id:ChIJj6zt56JfIWsRK1Fyg2yzvc8"
  },
  {
    "name": "One8Zero by Vinnie's Cuisines",
    "address": "180 Baylis St, Wagga Wagga NSW 2650, Australia",
    "suburb": "Wagga Wagga NSW 2650",
    "state": "NSW",
    "rating": 4.9,
    "reviews": 302,
    "lat": -35.112108,
    "lng": 147.369836,
    "place_id": "ChIJydHZbgmZGGsRTB7_xvf_5RI",
    "maps_url": "https://www.google.com/maps/place/?q=place_id:ChIJydHZbgmZGGsRTB7_xvf_5RI"
  },
  {
    "name": "Al Maghrib",
    "address": "32 Fitzmaurice St, Wagga Wagga NSW 2650, Australia",
    "suburb": "Wagga Wagga NSW 2650",
    "state": "NSW",
    "rating": 4.8,
    "reviews": 301,
    "lat": -35.1079384,
    "lng": 147.3703776,
    "place_id": "ChIJ5WEmwoCZGGsRB3uLvEUfM3M",
    "maps_url": "https://www.google.com/maps/place/?q=place_id:ChIJ5WEmwoCZGGsRB3uLvEUfM3M"
  },
  {
    "name": "Magpies Nest Restaurant",
    "address": "20 Pine Gully Rd, Estella NSW 2650, Australia",
    "suburb": "Estella NSW 2650",
    "state": "NSW",
    "rating": 4.7,
    "reviews": 247,
    "lat": -35.0813083,
    "lng": 147.3454,
    "place_id": "ChIJU-8zHhWYGGsRB6GazfY-qMM",
    "maps_url": "https://www.google.com/maps/place/?q=place_id:ChIJU-8zHhWYGGsRB6GazfY-qMM"
  },
  {
    "name": "Nabiha's Kitchen",
    "address": "117 Baylis St, Wagga Wagga NSW 2650, Australia",
    "suburb": "Wagga Wagga NSW 2650",
    "state": "NSW",
    "rating": 4.7,
    "reviews": 310,
    "lat": -35.1146412,
    "lng": 147.3699143,
    "place_id": "ChIJeRCQO92ZGGsROavOvAUQvWM",
    "maps_url": "https://www.google.com/maps/place/?q=place_id:ChIJeRCQO92ZGGsROavOvAUQvWM"
  },
  {
    "name": "Astor Bar & Grill",
    "address": "104 Edward St, Wagga Wagga NSW 2650, Australia",
    "suburb": "Wagga Wagga NSW 2650",
    "state": "NSW",
    "rating": 4.7,
    "reviews": 85,
    "lat": -35.1191439,
    "lng": 147.3690364,
    "place_id": "ChIJiWqT-XyZGGsR2K_gBCToXyQ",
    "maps_url": "https://www.google.com/maps/place/?q=place_id:ChIJiWqT-XyZGGsR2K_gBCToXyQ"
  },
  {
    "name": "Hide Steak & Bar",
    "address": "73 Morgan St, Wagga Wagga NSW 2650, Australia",
    "suburb": "Wagga Wagga NSW 2650",
    "state": "NSW",
    "rating": 4.6,
    "reviews": 417,
    "lat": -35.1160275,
    "lng": 147.3710143,
    "place_id": "ChIJoWossz-bGGsR6e-SeK6V7Jg",
    "maps_url": "https://www.google.com/maps/place/?q=place_id:ChIJoWossz-bGGsR6e-SeK6V7Jg"
  },
  {
    "name": "Pinnacle's Restaurant & Bar",
    "address": "2 Lake Albert Rd, East Wagga Wagga NSW 2650, Australia",
    "suburb": "East Wagga Wagga NSW 2650",
    "state": "NSW",
    "rating": 4.2,
    "reviews": 27,
    "lat": -35.1205245,
    "lng": 147.3780338,
    "place_id": "ChIJuc71lRGbGGsRjd4IVQhCIdo",
    "maps_url": "https://www.google.com/maps/place/?q=place_id:ChIJuc71lRGbGGsRjd4IVQhCIdo"
  },
  {
    "name": "Clancy's Restaurant",
    "address": "7 Eunony Bridge Rd, East Wagga Wagga NSW 2650, Australia",
    "suburb": "East Wagga Wagga NSW 2650",
    "state": "NSW",
    "rating": 4.7,
    "reviews": 36,
    "lat": -35.124645,
    "lng": 147.4195794,
    "place_id": "ChIJ13fDpf-aGGsRZAM7-9XF7qI",
    "maps_url": "https://www.google.com/maps/place/?q=place_id:ChIJ13fDpf-aGGsRZAM7-9XF7qI"
  },
  {
    "name": "Riviera Bar & Grill",
    "address": "293 Marius St, Tamworth NSW 2340, Australia",
    "suburb": "Tamworth NSW 2340",
    "state": "NSW",
    "rating": 4.3,
    "reviews": 297,
    "lat": -31.097134,
    "lng": 150.938458,
    "place_id": "ChIJ83WCm7CYCmsRVVbf1r5109w",
    "maps_url": "https://www.google.com/maps/place/?q=place_id:ChIJ83WCm7CYCmsRVVbf1r5109w"
  },
  {
    "name": "Gregorys on Goonoo Goonoo",
    "address": "191 Goonoo Goonoo Rd, South Tamworth NSW 2340, Australia",
    "suburb": "South Tamworth NSW 2340",
    "state": "NSW",
    "rating": 4.2,
    "reviews": 78,
    "lat": -31.106706,
    "lng": 150.922124,
    "place_id": "ChIJAdDuqumYCmsRs_JyZzl9NsM",
    "maps_url": "https://www.google.com/maps/place/?q=place_id:ChIJAdDuqumYCmsRs_JyZzl9NsM"
  },
  {
    "name": "The Pig & Tinder Box",
    "address": "429 Peel St, Tamworth NSW 2340, Australia",
    "suburb": "Tamworth NSW 2340",
    "state": "NSW",
    "rating": 4.3,
    "reviews": 820,
    "lat": -31.0924686,
    "lng": 150.9311958,
    "place_id": "ChIJVY4hJraYCmsR_zsajhSN_Yk",
    "maps_url": "https://www.google.com/maps/place/?q=place_id:ChIJVY4hJraYCmsR_zsajhSN_Yk"
  },
  {
    "name": "ISPA Kebabs",
    "address": "436 White St, Tamworth NSW 2340, Australia",
    "suburb": "Tamworth NSW 2340",
    "state": "NSW",
    "rating": 4.1,
    "reviews": 50,
    "lat": -31.0927507,
    "lng": 150.9324757,
    "place_id": "ChIJXc1fR7aYCmsRXaMvFfW7WvM",
    "maps_url": "https://www.google.com/maps/place/?q=place_id:ChIJXc1fR7aYCmsRXaMvFfW7WvM"
  },
  {
    "name": "DECO Wine Bar & Restaurant",
    "address": "330 Peel St, Tamworth NSW 2340, Australia",
    "suburb": "Tamworth NSW 2340",
    "state": "NSW",
    "rating": 4.6,
    "reviews": 215,
    "lat": -31.0897674,
    "lng": 150.9293212,
    "place_id": "ChIJYQJbMzyZCmsRw_1ZJaQSjzI",
    "maps_url": "https://www.google.com/maps/place/?q=place_id:ChIJYQJbMzyZCmsRw_1ZJaQSjzI"
  },
  {
    "name": "The Workshop Kitchen",
    "address": "248 Armidale Rd, East Tamworth NSW 2340, Australia",
    "suburb": "East Tamworth NSW 2340",
    "state": "NSW",
    "rating": 4.5,
    "reviews": 232,
    "lat": -31.0982051,
    "lng": 150.9405066,
    "place_id": "ChIJ__8PdrCYCmsRggI_HcTdjH0",
    "maps_url": "https://www.google.com/maps/place/?q=place_id:ChIJ__8PdrCYCmsRggI_HcTdjH0"
  },
  {
    "name": "Tamworth Vietnamese Restaurant",
    "address": "15 Fitzroy St, Tamworth NSW 2340, Australia",
    "suburb": "Tamworth NSW 2340",
    "state": "NSW",
    "rating": 4.5,
    "reviews": 403,
    "lat": -31.0922801,
    "lng": 150.9305245,
    "place_id": "ChIJU8AY2cmYCmsRU9hgkMYmge4",
    "maps_url": "https://www.google.com/maps/place/?q=place_id:ChIJU8AY2cmYCmsRU9hgkMYmge4"
  },
  {
    "name": "Oliva Mediterranean Restaurant",
    "address": "Unit 10/72-80 Allison Cres, Menai NSW 2234, Australia",
    "suburb": "Menai NSW 2234",
    "state": "NSW",
    "rating": 4.6,
    "reviews": 255,
    "lat": -34.0115719,
    "lng": 151.0174057,
    "place_id": "ChIJCweEJJrAEmsR6afSORQKsyk",
    "maps_url": "https://www.google.com/maps/place/?q=place_id:ChIJCweEJJrAEmsR6afSORQKsyk"
  },
  {
    "name": "Centillion Chinese Restaurant",
    "address": "331 Goonoo Goonoo Rd, Hillvue NSW 2340, Australia",
    "suburb": "Hillvue NSW 2340",
    "state": "NSW",
    "rating": 4.7,
    "reviews": 513,
    "lat": -31.1196268,
    "lng": 150.9229773,
    "place_id": "ChIJG_JZoaKZCmsRB0rjUcWa1Pc",
    "maps_url": "https://www.google.com/maps/place/?q=place_id:ChIJG_JZoaKZCmsRB0rjUcWa1Pc"
  },
  {
    "name": "Hopscotch Restaurant & Bar",
    "address": "Tamworth Regional Playground Bicentennial Park, Kable Ave &, Hill St, Tamworth NSW 2340, Australia",
    "suburb": "Kable Ave &",
    "state": "NSW",
    "rating": 4.3,
    "reviews": 828,
    "lat": -31.0960445,
    "lng": 150.9324951,
    "place_id": "ChIJU-uUi7eYCmsRyqr2_7DIz7Y",
    "maps_url": "https://www.google.com/maps/place/?q=place_id:ChIJU-uUi7eYCmsRyqr2_7DIz7Y"
  },
  {
    "name": "CROSSROADS RESTAURANT",
    "address": "80-90 Ebsworth Street, Cnr Of Ebsworth And, Bridge St, Tamworth NSW 2340, Australia",
    "suburb": "Cnr Of Ebsworth And",
    "state": "NSW",
    "rating": 3.6,
    "reviews": 8,
    "lat": -31.0928623,
    "lng": 150.9237276,
    "place_id": "ChIJywMoDs-YCmsR6EF-OUbCeEk",
    "maps_url": "https://www.google.com/maps/place/?q=place_id:ChIJywMoDs-YCmsR6EF-OUbCeEk"
  },
  {
    "name": "SAIGON DELIGHT - Tamworth",
    "address": "178 Peel St, North Tamworth NSW 2340, Australia",
    "suburb": "North Tamworth NSW 2340",
    "state": "NSW",
    "rating": 4.7,
    "reviews": 47,
    "lat": -31.0827384,
    "lng": 150.9227665,
    "place_id": "ChIJmYVMuCmfCmsRKDbG8P_e0lU",
    "maps_url": "https://www.google.com/maps/place/?q=place_id:ChIJmYVMuCmfCmsRKDbG8P_e0lU"
  },
  {
    "name": "BURGERBULLS (TAMWORTH) - Burger Restaurant | Grill House in Tamworth",
    "address": "73-75 Kable Ave, Tamworth NSW 2340, Australia",
    "suburb": "Tamworth NSW 2340",
    "state": "NSW",
    "rating": 4.8,
    "reviews": 323,
    "lat": -31.0936062,
    "lng": 150.9310003,
    "place_id": "ChIJpUl5QZyZCmsRoabdR_h4bjc",
    "maps_url": "https://www.google.com/maps/place/?q=place_id:ChIJpUl5QZyZCmsRoabdR_h4bjc"
  },
  {
    "name": "Dragon Palace",
    "address": "528 Peel St, Tamworth NSW 2340, Australia",
    "suburb": "Tamworth NSW 2340",
    "state": "NSW",
    "rating": 4.6,
    "reviews": 860,
    "lat": -31.0986393,
    "lng": 150.9375293,
    "place_id": "ChIJxe1FPbqYCmsRPt0CH4amlZU",
    "maps_url": "https://www.google.com/maps/place/?q=place_id:ChIJxe1FPbqYCmsRPt0CH4amlZU"
  },
  {
    "name": "Williamsburg at The Press",
    "address": "179 Marius St, Tamworth NSW 2340, Australia",
    "suburb": "Tamworth NSW 2340",
    "state": "NSW",
    "rating": 4.5,
    "reviews": 573,
    "lat": -31.0887775,
    "lng": 150.9308776,
    "place_id": "ChIJ-2ie9bWYCmsREuthgkEEDT8",
    "maps_url": "https://www.google.com/maps/place/?q=place_id:ChIJ-2ie9bWYCmsREuthgkEEDT8"
  },
  {
    "name": "The Barrel",
    "address": "146 Bathurst Rd, Orange NSW 2800, Australia",
    "suburb": "Orange NSW 2800",
    "state": "NSW",
    "rating": 4.9,
    "reviews": 10,
    "lat": -33.2957597,
    "lng": 149.1160661,
    "place_id": "ChIJzWvvAtjSEWsRgQ_LgLpqbZs",
    "maps_url": "https://www.google.com/maps/place/?q=place_id:ChIJzWvvAtjSEWsRgQ_LgLpqbZs"
  },
  {
    "name": "Ignite bar & Grill",
    "address": "179 Anson St, Orange NSW 2800, Australia",
    "suburb": "Orange NSW 2800",
    "state": "NSW",
    "rating": 4.9,
    "reviews": 83,
    "lat": -33.2860342,
    "lng": 149.097857,
    "place_id": "ChIJCxHiktgtEGsRsUiOSEEyG1w",
    "maps_url": "https://www.google.com/maps/place/?q=place_id:ChIJCxHiktgtEGsRsUiOSEEyG1w"
  },
  {
    "name": "The Greenhouse of Orange",
    "address": "231-243 Anson St, Orange NSW 2800, Australia",
    "suburb": "Orange NSW 2800",
    "state": "NSW",
    "rating": 4.1,
    "reviews": 483,
    "lat": -33.2821587,
    "lng": 149.0986099,
    "place_id": "ChIJdYnWodEsEGsRdIJB8wdhdjg",
    "maps_url": "https://www.google.com/maps/place/?q=place_id:ChIJdYnWodEsEGsRdIJB8wdhdjg"
  },
  {
    "name": "AVIDO RISTORANTE",
    "address": "184 Peisley St, Orange NSW 2800, Australia",
    "suburb": "Orange NSW 2800",
    "state": "NSW",
    "rating": 4.2,
    "reviews": 271,
    "lat": -33.2847213,
    "lng": 149.1037597,
    "place_id": "ChIJ4UNobjMtEGsReqdoIJw804U",
    "maps_url": "https://www.google.com/maps/place/?q=place_id:ChIJ4UNobjMtEGsReqdoIJw804U"
  },
  {
    "name": "The Peacock Room & Bela Vista Bar",
    "address": "178-184 Woodward St, Orange NSW 2800, Australia",
    "suburb": "Orange NSW 2800",
    "state": "NSW",
    "rating": 4.6,
    "reviews": 282,
    "lat": -33.2786752,
    "lng": 149.0879472,
    "place_id": "ChIJs5C6XIEtEGsRvVlFO6C1kmI",
    "maps_url": "https://www.google.com/maps/place/?q=place_id:ChIJs5C6XIEtEGsRvVlFO6C1kmI"
  },
  {
    "name": "Ocean Project Café Restaurant",
    "address": "163 Summer St, Orange NSW 2800, Australia",
    "suburb": "Orange NSW 2800",
    "state": "NSW",
    "rating": 4.2,
    "reviews": 150,
    "lat": -33.2830578,
    "lng": 149.0977243,
    "place_id": "ChIJ6RyuBE4tEGsRDMPjuYUvqZY",
    "maps_url": "https://www.google.com/maps/place/?q=place_id:ChIJ6RyuBE4tEGsRDMPjuYUvqZY"
  },
  {
    "name": "La Milano Italian",
    "address": "58 Summer St, Orange NSW 2800, Australia",
    "suburb": "Orange NSW 2800",
    "state": "NSW",
    "rating": 4.5,
    "reviews": 586,
    "lat": -33.2830675,
    "lng": 149.0923821,
    "place_id": "ChIJ9cKQG-QtEGsR83upW2Lz2Xs",
    "maps_url": "https://www.google.com/maps/place/?q=place_id:ChIJ9cKQG-QtEGsR83upW2Lz2Xs"
  },
  {
    "name": "Lucetta Dining",
    "address": "211-213 Lords Pl, Orange NSW 2800, Australia",
    "suburb": "Orange NSW 2800",
    "state": "NSW",
    "rating": 4.7,
    "reviews": 119,
    "lat": -33.28428280000001,
    "lng": 149.1008355,
    "place_id": "ChIJh5GSd-otEGsRWtOc2ei6Pzw",
    "maps_url": "https://www.google.com/maps/place/?q=place_id:ChIJh5GSd-otEGsRWtOc2ei6Pzw"
  },
  {
    "name": "Pellegrini's Italian Orange",
    "address": "The Village, 86-102 Summer St, Orange NSW 2800, Australia",
    "suburb": "86-102 Summer St",
    "state": "NSW",
    "rating": 4.2,
    "reviews": 376,
    "lat": -33.2838133,
    "lng": 149.0950848,
    "place_id": "ChIJ0yS53fctEGsR1d9RDX5eTss",
    "maps_url": "https://www.google.com/maps/place/?q=place_id:ChIJ0yS53fctEGsR1d9RDX5eTss"
  },
  {
    "name": "The Union Bank Orange",
    "address": "84 Byng St, Orange NSW 2800, Australia",
    "suburb": "Orange NSW 2800",
    "state": "NSW",
    "rating": 4.4,
    "reviews": 752,
    "lat": -33.28134,
    "lng": 149.0968122,
    "place_id": "ChIJl2mivdEsEGsRVyqoiJJ88xg",
    "maps_url": "https://www.google.com/maps/place/?q=place_id:ChIJl2mivdEsEGsRVyqoiJJ88xg"
  },
  {
    "name": "Summer St Wine Room",
    "address": "120-122 Summer St, Orange NSW 2800, Australia",
    "suburb": "Orange NSW 2800",
    "state": "NSW",
    "rating": 4.8,
    "reviews": 130,
    "lat": -33.283318,
    "lng": 149.0959797,
    "place_id": "ChIJ5Qy9c10tEGsRpHbUlXsYVQA",
    "maps_url": "https://www.google.com/maps/place/?q=place_id:ChIJ5Qy9c10tEGsRpHbUlXsYVQA"
  },
  {
    "name": "Shymigriel Asian and Australian Cuisine",
    "address": "177 Lords Pl, Orange NSW 2800, Australia",
    "suburb": "Orange NSW 2800",
    "state": "NSW",
    "rating": 4.8,
    "reviews": 30,
    "lat": -33.28522,
    "lng": 149.1005838,
    "place_id": "ChIJlWuG0d8tEGsRw9AAMmTuBxw",
    "maps_url": "https://www.google.com/maps/place/?q=place_id:ChIJlWuG0d8tEGsRw9AAMmTuBxw"
  },
  {
    "name": "Whitney’s Restaurant & Bar",
    "address": "1517 Forest Rd, Orange NSW 2800, Australia",
    "suburb": "Orange NSW 2800",
    "state": "NSW",
    "rating": 4,
    "reviews": 104,
    "lat": -33.3160895,
    "lng": 149.0896631,
    "place_id": "ChIJkSdxbWEtEGsRQP2fZPcPpv0",
    "maps_url": "https://www.google.com/maps/place/?q=place_id:ChIJkSdxbWEtEGsRQP2fZPcPpv0"
  },
  {
    "name": "Fiorini's Ristorante Italiano",
    "address": "816 Canobolas Rd, Canobolas NSW 2800, Australia",
    "suburb": "Canobolas NSW 2800",
    "state": "NSW",
    "rating": 4.6,
    "reviews": 69,
    "lat": -33.3261392,
    "lng": 149.0226973,
    "place_id": "ChIJPai16QotEGsR4Fw-GWSU25M",
    "maps_url": "https://www.google.com/maps/place/?q=place_id:ChIJPai16QotEGsR4Fw-GWSU25M"
  },
  {
    "name": "Raku Izakaya",
    "address": "129 Summer St, Orange NSW 2800, Australia",
    "suburb": "Orange NSW 2800",
    "state": "NSW",
    "rating": 4.6,
    "reviews": 360,
    "lat": -33.2829371,
    "lng": 149.0967498,
    "place_id": "ChIJWWziKZAtEGsRttVVZ41Ue3w",
    "maps_url": "https://www.google.com/maps/place/?q=place_id:ChIJWWziKZAtEGsRttVVZ41Ue3w"
  },
  {
    "name": "Fiorini's Osteria Italiana",
    "address": "816 Canobolas Rd, Canobolas NSW 2800, Australia",
    "suburb": "Canobolas NSW 2800",
    "state": "NSW",
    "rating": 4.8,
    "reviews": 62,
    "lat": -33.3261392,
    "lng": 149.0226973,
    "place_id": "ChIJ8c8k7BkyEGsRoYaWURR2oso",
    "maps_url": "https://www.google.com/maps/place/?q=place_id:ChIJ8c8k7BkyEGsRoYaWURR2oso"
  },
  {
    "name": "Telopea Chickenland",
    "address": "9 Telopea Way, Orange NSW 2800, Australia",
    "suburb": "Orange NSW 2800",
    "state": "NSW",
    "rating": 4.3,
    "reviews": 16,
    "lat": -33.253309,
    "lng": 149.1011922,
    "place_id": "ChIJKc4ku0ktEGsRyqRkTsbVtFk",
    "maps_url": "https://www.google.com/maps/place/?q=place_id:ChIJKc4ku0ktEGsRyqRkTsbVtFk"
  },
  {
    "name": "Eat Botanic restaurant and Bar",
    "address": "302 Hill St, Orange NSW 2800, Australia",
    "suburb": "Orange NSW 2800",
    "state": "NSW",
    "rating": 3.9,
    "reviews": 200,
    "lat": -33.2543661,
    "lng": 149.0965187,
    "place_id": "ChIJGyk_0K4sEGsRPCpQZ3rP6DU",
    "maps_url": "https://www.google.com/maps/place/?q=place_id:ChIJGyk_0K4sEGsRPCpQZ3rP6DU"
  },
  {
    "name": "Corinthian Rotisserie Restaurant",
    "address": "283 Marrickville Rd, Marrickville NSW 2204, Australia",
    "suburb": "Marrickville NSW 2204",
    "state": "NSW",
    "rating": 4.4,
    "reviews": 731,
    "lat": -33.9097999,
    "lng": 151.1550982,
    "place_id": "ChIJpTocXGSwEmsRha-VqiYF3yY",
    "maps_url": "https://www.google.com/maps/place/?q=place_id:ChIJpTocXGSwEmsRha-VqiYF3yY"
  },
  {
    "name": "Miia Mexiico Dubbo",
    "address": "209 Brisbane St, Dubbo NSW 2830, Australia",
    "suburb": "Dubbo NSW 2830",
    "state": "NSW",
    "rating": 4.8,
    "reviews": 407,
    "lat": -32.2526007,
    "lng": 148.6024896,
    "place_id": "ChIJTWTBPrFxD2sRiBZFwEleWBM",
    "maps_url": "https://www.google.com/maps/place/?q=place_id:ChIJTWTBPrFxD2sRiBZFwEleWBM"
  },
  {
    "name": "Vita Felice Cafe & Pasta Bar Dubbo",
    "address": "134 Macquarie St, Dubbo NSW 2830, Australia",
    "suburb": "Dubbo NSW 2830",
    "state": "NSW",
    "rating": 4.7,
    "reviews": 92,
    "lat": -32.2473887,
    "lng": 148.601563,
    "place_id": "ChIJZUgNs8JxD2sRGlP7uezByrU",
    "maps_url": "https://www.google.com/maps/place/?q=place_id:ChIJZUgNs8JxD2sRGlP7uezByrU"
  },
  {
    "name": "Tanoshi Dubbo",
    "address": "57 Talbragar St, Dubbo NSW 2830, Australia",
    "suburb": "Dubbo NSW 2830",
    "state": "NSW",
    "rating": 4.8,
    "reviews": 589,
    "lat": -32.2453514,
    "lng": 148.6030368,
    "place_id": "ChIJOa01MKxxD2sRztI2KyTfuUY",
    "maps_url": "https://www.google.com/maps/place/?q=place_id:ChIJOa01MKxxD2sRztI2KyTfuUY"
  },
  {
    "name": "Reflections Restaurant",
    "address": "165 Whylandra St, Dubbo NSW 2830, Australia",
    "suburb": "Dubbo NSW 2830",
    "state": "NSW",
    "rating": 4.4,
    "reviews": 165,
    "lat": -32.2590418,
    "lng": 148.5854056,
    "place_id": "ChIJM580JPFwD2sR40WwHhzJmIA",
    "maps_url": "https://www.google.com/maps/place/?q=place_id:ChIJM580JPFwD2sR40WwHhzJmIA"
  },
  {
    "name": "Dubbo Greek Orthodox Church",
    "address": "Roper Street &, Gipps St, Dubbo NSW 2830, Australia",
    "suburb": "Gipps St",
    "state": "NSW",
    "rating": 5,
    "reviews": 5,
    "lat": -32.2371533,
    "lng": 148.6132689,
    "place_id": "ChIJ1ysTSMZxD2sRl4gVJO0Kjq0",
    "maps_url": "https://www.google.com/maps/place/?q=place_id:ChIJ1ysTSMZxD2sRl4gVJO0Kjq0"
  },
  {
    "name": "Patrick’s",
    "address": "200 Fitzroy St, Dubbo NSW 2830, Australia",
    "suburb": "Dubbo NSW 2830",
    "state": "NSW",
    "rating": 4.8,
    "reviews": 102,
    "lat": -32.2540977,
    "lng": 148.6128504,
    "place_id": "ChIJHyp72EVxD2sRRICcjRgR9n4",
    "maps_url": "https://www.google.com/maps/place/?q=place_id:ChIJHyp72EVxD2sRRICcjRgR9n4"
  },
  {
    "name": "Spartans Pizzas, Pastas & Ribs",
    "address": "18 Cobra St, Dubbo NSW 2830, Australia",
    "suburb": "Dubbo NSW 2830",
    "state": "NSW",
    "rating": 4.5,
    "reviews": 606,
    "lat": -32.2529399,
    "lng": 148.6014409,
    "place_id": "ChIJQxpOCVFwD2sR5nlhxAELHdQ",
    "maps_url": "https://www.google.com/maps/place/?q=place_id:ChIJQxpOCVFwD2sR5nlhxAELHdQ"
  },
  {
    "name": "Cacao House Cafe",
    "address": "179 Brisbane St, Dubbo NSW 2830, Australia",
    "suburb": "Dubbo NSW 2830",
    "state": "NSW",
    "rating": 4.8,
    "reviews": 76,
    "lat": -32.2502227,
    "lng": 148.6029808,
    "place_id": "ChIJJ8zpK3FxD2sR9oPepL_-ajQ",
    "maps_url": "https://www.google.com/maps/place/?q=place_id:ChIJJ8zpK3FxD2sR9oPepL_-ajQ"
  },
  {
    "name": "Dahab Cafe",
    "address": "197 Brisbane St, Dubbo NSW 2830, Australia",
    "suburb": "Dubbo NSW 2830",
    "state": "NSW",
    "rating": 4.8,
    "reviews": 728,
    "lat": -32.2518371,
    "lng": 148.6027211,
    "place_id": "ChIJ3wh4iaxxD2sR5es7uM-Z8Pc",
    "maps_url": "https://www.google.com/maps/place/?q=place_id:ChIJ3wh4iaxxD2sR5es7uM-Z8Pc"
  },
  {
    "name": "Alchemy on Victoria",
    "address": "54 Victoria St, Dubbo NSW 2830, Australia",
    "suburb": "Dubbo NSW 2830",
    "state": "NSW",
    "rating": 4.3,
    "reviews": 395,
    "lat": -32.2461645,
    "lng": 148.5905669,
    "place_id": "ChIJn6GTyaFxD2sRO-lDzKbU1kg",
    "maps_url": "https://www.google.com/maps/place/?q=place_id:ChIJn6GTyaFxD2sRO-lDzKbU1kg"
  },
  {
    "name": "Ispa kebab",
    "address": "41 Whylandra St, Dubbo NSW 2830, Australia",
    "suburb": "Dubbo NSW 2830",
    "state": "NSW",
    "rating": 4.4,
    "reviews": 65,
    "lat": -32.2467635,
    "lng": 148.5938473,
    "place_id": "ChIJyUAyjm5xD2sRPxVoZKg8L8Q",
    "maps_url": "https://www.google.com/maps/place/?q=place_id:ChIJyUAyjm5xD2sRPxVoZKg8L8Q"
  },
  {
    "name": "Rose Garden Thai West",
    "address": "33-43 Whylandra St, Dubbo NSW 2830, Australia",
    "suburb": "Dubbo NSW 2830",
    "state": "NSW",
    "rating": 4.3,
    "reviews": 165,
    "lat": -32.2468042,
    "lng": 148.5936332,
    "place_id": "ChIJR6zlANpxD2sRTW_WiaBjd6s",
    "maps_url": "https://www.google.com/maps/place/?q=place_id:ChIJR6zlANpxD2sRTW_WiaBjd6s"
  },
  {
    "name": "Dubbo Feast House",
    "address": "248 Myall St, Dubbo NSW 2830, Australia",
    "suburb": "Dubbo NSW 2830",
    "state": "NSW",
    "rating": 3.8,
    "reviews": 21,
    "lat": -32.2419113,
    "lng": 148.6315981,
    "place_id": "ChIJvR63AURxD2sRsUCYHvEwlac",
    "maps_url": "https://www.google.com/maps/place/?q=place_id:ChIJvR63AURxD2sRsUCYHvEwlac"
  },
  {
    "name": "Rose Garden Central Dubbo",
    "address": "208 Brisbane St, Dubbo NSW 2830, Australia",
    "suburb": "Dubbo NSW 2830",
    "state": "NSW",
    "rating": 4,
    "reviews": 334,
    "lat": -32.2530424,
    "lng": 148.6029324,
    "place_id": "ChIJ30W3gatxD2sRfMOI2ytoE5o",
    "maps_url": "https://www.google.com/maps/place/?q=place_id:ChIJ30W3gatxD2sRfMOI2ytoE5o"
  },
  {
    "name": "The Shire Bar & Grill",
    "address": "193 Macquarie St, Dubbo NSW 2830, Australia",
    "suburb": "Dubbo NSW 2830",
    "state": "NSW",
    "rating": 4.2,
    "reviews": 565,
    "lat": -32.2506853,
    "lng": 148.6004901,
    "place_id": "ChIJvxxSrK5xD2sR5T4ZsOkogk0",
    "maps_url": "https://www.google.com/maps/place/?q=place_id:ChIJvxxSrK5xD2sR5T4ZsOkogk0"
  },
  {
    "name": "That Greek Tavern",
    "address": "1438 Malvern Rd, Glen Iris VIC 3146, Australia",
    "suburb": "Glen Iris VIC 3146",
    "state": "NSW",
    "rating": 4.6,
    "reviews": 279,
    "lat": -37.8536009,
    "lng": 145.0444364,
    "place_id": "ChIJowib-gNC1moR2GoEF0vrZok",
    "maps_url": "https://www.google.com/maps/place/?q=place_id:ChIJowib-gNC1moR2GoEF0vrZok"
  },
  {
    "name": "Mie Mie's Restaurant",
    "address": "75 Jordan Esplanade, Coffs Harbour NSW 2450, Australia",
    "suburb": "Coffs Harbour NSW 2450",
    "state": "NSW",
    "rating": 4.8,
    "reviews": 213,
    "lat": -30.3047527,
    "lng": 153.1397566,
    "place_id": "ChIJk53EIbsNnGsRsTvwl4HxcjA",
    "maps_url": "https://www.google.com/maps/place/?q=place_id:ChIJk53EIbsNnGsRsTvwl4HxcjA"
  },
  {
    "name": "Bruno's Mediterranean Kitchen",
    "address": "2 Oak St, Bellingen NSW 2454, Australia",
    "suburb": "Bellingen NSW 2454",
    "state": "NSW",
    "rating": 4.9,
    "reviews": 621,
    "lat": -30.452288,
    "lng": 152.8951982,
    "place_id": "ChIJpwGuAmkhnGsRyP5yIfI3jmI",
    "maps_url": "https://www.google.com/maps/place/?q=place_id:ChIJpwGuAmkhnGsRyP5yIfI3jmI"
  },
  {
    "name": "Latitude 30 Restaurant",
    "address": "8/1 Marina Dr, Coffs Harbour NSW 2450, Australia",
    "suburb": "Coffs Harbour NSW 2450",
    "state": "NSW",
    "rating": 4.6,
    "reviews": 2646,
    "lat": -30.3024581,
    "lng": 153.1446266,
    "place_id": "ChIJjcGa5tsNnGsRVvf2UNDpXhk",
    "maps_url": "https://www.google.com/maps/place/?q=place_id:ChIJjcGa5tsNnGsRVvf2UNDpXhk"
  },
  {
    "name": "Stef&Co",
    "address": "319-321 Harbour Dr, Coffs Harbour NSW 2450, Australia",
    "suburb": "Coffs Harbour NSW 2450",
    "state": "NSW",
    "rating": 4.5,
    "reviews": 520,
    "lat": -30.3049428,
    "lng": 153.132323,
    "place_id": "ChIJc9s_ku4NnGsRxXeNmQ9PJTw",
    "maps_url": "https://www.google.com/maps/place/?q=place_id:ChIJc9s_ku4NnGsRxXeNmQ9PJTw"
  },
  {
    "name": "99 On Park Restaurant & Bar",
    "address": "99 Park Beach Rd, Coffs Harbour NSW 2450, Australia",
    "suburb": "Coffs Harbour NSW 2450",
    "state": "NSW",
    "rating": 4.8,
    "reviews": 198,
    "lat": -30.2858069,
    "lng": 153.1353312,
    "place_id": "ChIJE1X6WHQNnGsRYYlQWyHU-2I",
    "maps_url": "https://www.google.com/maps/place/?q=place_id:ChIJE1X6WHQNnGsRYYlQWyHU-2I"
  },
  {
    "name": "Bistro Vue Coffs Harbour",
    "address": "384B Harbour Dr, Coffs Harbour NSW 2450, Australia",
    "suburb": "Coffs Harbour NSW 2450",
    "state": "NSW",
    "rating": 4.7,
    "reviews": 197,
    "lat": -30.304093,
    "lng": 153.1371949,
    "place_id": "ChIJlRfvP3gNnGsRDoLTPn1-n-Y",
    "maps_url": "https://www.google.com/maps/place/?q=place_id:ChIJlRfvP3gNnGsRDoLTPn1-n-Y"
  },
  {
    "name": "The Happy Frog",
    "address": "16 Park Ave, Coffs Harbour NSW 2450, Australia",
    "suburb": "Coffs Harbour NSW 2450",
    "state": "NSW",
    "rating": 4.6,
    "reviews": 634,
    "lat": -30.2981168,
    "lng": 153.1140401,
    "place_id": "ChIJ-6daRNkNnGsRE2NVkjH8F_k",
    "maps_url": "https://www.google.com/maps/place/?q=place_id:ChIJ-6daRNkNnGsRE2NVkjH8F_k"
  },
  {
    "name": "Papaveros",
    "address": "2-6 Vernon St, Coffs Harbour NSW 2450, Australia",
    "suburb": "Coffs Harbour NSW 2450",
    "state": "NSW",
    "rating": 4.3,
    "reviews": 71,
    "lat": -30.2957007,
    "lng": 153.1155568,
    "place_id": "ChIJB7cob80NnGsRauItCeyinLU",
    "maps_url": "https://www.google.com/maps/place/?q=place_id:ChIJB7cob80NnGsRauItCeyinLU"
  },
  {
    "name": "Jetty Pavilion - The Pav",
    "address": "Jetty Village Shopping Centre, 59/361 Harbour Dr, Coffs Harbour NSW 2450, Australia",
    "suburb": "59/361 Harbour Dr",
    "state": "NSW",
    "rating": 4.5,
    "reviews": 315,
    "lat": -30.3033565,
    "lng": 153.1376878,
    "place_id": "ChIJ45K3rXsNnGsRJGOBBSPX6Og",
    "maps_url": "https://www.google.com/maps/place/?q=place_id:ChIJ45K3rXsNnGsRJGOBBSPX6Og"
  },
  {
    "name": "Jetty Beach House Coffs Harbour",
    "address": "1 Jordan Esplanade, Coffs Harbour NSW 2450, Australia",
    "suburb": "Coffs Harbour NSW 2450",
    "state": "NSW",
    "rating": 4.1,
    "reviews": 619,
    "lat": -30.3113077,
    "lng": 153.140554,
    "place_id": "ChIJxQ3ih8cNnGsR19iA7Srr69I",
    "maps_url": "https://www.google.com/maps/place/?q=place_id:ChIJxQ3ih8cNnGsR19iA7Srr69I"
  },
  {
    "name": "Treehouse Restaurant",
    "address": "250 Pacific Hwy, North Boambee Valley NSW 2450, Australia",
    "suburb": "North Boambee Valley NSW 2450",
    "state": "NSW",
    "rating": 4.4,
    "reviews": 38,
    "lat": -30.30912249999999,
    "lng": 153.0975556,
    "place_id": "ChIJ1bw_JBAOnGsRbkXB_pEkX30",
    "maps_url": "https://www.google.com/maps/place/?q=place_id:ChIJ1bw_JBAOnGsRbkXB_pEkX30"
  },
  {
    "name": "Horizons Restaurant & Bar at Opal Cove Resort Coffs Coast",
    "address": "Opal Cove Resort, Opal Blvd, Korora NSW 2450, Australia",
    "suburb": "Opal Blvd",
    "state": "NSW",
    "rating": 4.1,
    "reviews": 181,
    "lat": -30.2519758,
    "lng": 153.1393275,
    "place_id": "ChIJOyoQsBUMnGsRfnB553P1sOo",
    "maps_url": "https://www.google.com/maps/place/?q=place_id:ChIJOyoQsBUMnGsRfnB553P1sOo"
  },
  {
    "name": "Silvio's Italiano",
    "address": "Shop 118, Park Beach Plaza, 253 Pacific Hwy, Coffs Harbour NSW 2450, Australia",
    "suburb": "Park Beach Plaza",
    "state": "NSW",
    "rating": 4.1,
    "reviews": 1100,
    "lat": -30.2826294,
    "lng": 153.1328508,
    "place_id": "ChIJwVJz-DUMnGsRYPCZojK2VrU",
    "maps_url": "https://www.google.com/maps/place/?q=place_id:ChIJwVJz-DUMnGsRYPCZojK2VrU"
  },
  {
    "name": "DONOVANS Surf Club Restaurant",
    "address": "23 Surf Club Rd, Coffs Harbour NSW 2450, Australia",
    "suburb": "Coffs Harbour NSW 2450",
    "state": "NSW",
    "rating": 4.3,
    "reviews": 1250,
    "lat": -30.2946949,
    "lng": 153.1392059,
    "place_id": "ChIJf1X2v7YNnGsRlOT91lbAdDg",
    "maps_url": "https://www.google.com/maps/place/?q=place_id:ChIJf1X2v7YNnGsRlOT91lbAdDg"
  },
  {
    "name": "The Green Galley",
    "address": "International Marina, 1/1 Marina Dr, Coffs Harbour NSW 2450, Australia",
    "suburb": "1/1 Marina Dr",
    "state": "NSW",
    "rating": 4.2,
    "reviews": 146,
    "lat": -30.3024581,
    "lng": 153.1446266,
    "place_id": "ChIJA5xfOqUNnGsRs4Y-Jr837PQ",
    "maps_url": "https://www.google.com/maps/place/?q=place_id:ChIJA5xfOqUNnGsRs4Y-Jr837PQ"
  },
  {
    "name": "MaMaGOTO",
    "address": "50-64 Harbour Dr, Coffs Harbour NSW 2450, Australia",
    "suburb": "Coffs Harbour NSW 2450",
    "state": "NSW",
    "rating": 4.7,
    "reviews": 223,
    "lat": -30.2973198,
    "lng": 153.1149886,
    "place_id": "ChIJId3e2dsNnGsRg8UaNY3QwIM",
    "maps_url": "https://www.google.com/maps/place/?q=place_id:ChIJId3e2dsNnGsRg8UaNY3QwIM"
  },
  {
    "name": "Dark Arts Cafe & Bar",
    "address": "Cox Ln, Coffs Harbour NSW 2450, Australia",
    "suburb": "Coffs Harbour NSW 2450",
    "state": "NSW",
    "rating": 4.6,
    "reviews": 1135,
    "lat": -30.2952225,
    "lng": 153.1139863,
    "place_id": "ChIJK2ZWktkNnGsRLeKXmqpzKQk",
    "maps_url": "https://www.google.com/maps/place/?q=place_id:ChIJK2ZWktkNnGsRLeKXmqpzKQk"
  },
  {
    "name": "Akdeniz Grill House",
    "address": "Unit 2/72 Clarence St, Port Macquarie NSW 2444, Australia",
    "suburb": "Port Macquarie NSW 2444",
    "state": "NSW",
    "rating": 4.8,
    "reviews": 304,
    "lat": -31.4293926,
    "lng": 152.9063694,
    "place_id": "ChIJFdn7CwD_nWsRisfNirpswOQ",
    "maps_url": "https://www.google.com/maps/place/?q=place_id:ChIJFdn7CwD_nWsRisfNirpswOQ"
  },
  {
    "name": "Little Fish Cafe",
    "address": "142 The Ruins Way, Port Macquarie NSW 2444, Australia",
    "suburb": "Port Macquarie NSW 2444",
    "state": "NSW",
    "rating": 4.6,
    "reviews": 579,
    "lat": -31.469908,
    "lng": 152.872448,
    "place_id": "ChIJ2WgnsiwAdmsRy4igeP9KRRI",
    "maps_url": "https://www.google.com/maps/place/?q=place_id:ChIJ2WgnsiwAdmsRy4igeP9KRRI"
  },
  {
    "name": "Zeus Street Greek Macquarie Centre",
    "address": "Shop no. 3402, Macquarie Centre, Cnr. Waterloo &, Herring Rd, North Ryde NSW 2113, Australia",
    "suburb": "Macquarie Centre",
    "state": "NSW",
    "rating": 4.6,
    "reviews": 632,
    "lat": -33.7767187,
    "lng": 151.1205172,
    "place_id": "ChIJbfRgVWCnEmsRrsVQQMvCHf8",
    "maps_url": "https://www.google.com/maps/place/?q=place_id:ChIJbfRgVWCnEmsRrsVQQMvCHf8"
  },
  {
    "name": "Reyhana",
    "address": "2/29 Horton St, Port Macquarie NSW 2444, Australia",
    "suburb": "Port Macquarie NSW 2444",
    "state": "NSW",
    "rating": 4.3,
    "reviews": 682,
    "lat": -31.4295039,
    "lng": 152.9079672,
    "place_id": "ChIJ3zfszCf_nWsRJ-PdJp75ku0",
    "maps_url": "https://www.google.com/maps/place/?q=place_id:ChIJ3zfszCf_nWsRJ-PdJp75ku0"
  },
  {
    "name": "The Other Side",
    "address": "38 William St, Port Macquarie NSW 2444, Australia",
    "suburb": "Port Macquarie NSW 2444",
    "state": "NSW",
    "rating": 4.2,
    "reviews": 90,
    "lat": -31.4309607,
    "lng": 152.918799,
    "place_id": "ChIJO1pPlhz_nWsRNhtS0HKc5PE",
    "maps_url": "https://www.google.com/maps/place/?q=place_id:ChIJO1pPlhz_nWsRNhtS0HKc5PE"
  },
  {
    "name": "Little Turkey",
    "address": "Shop 1/18 Park St, Port Macquarie NSW 2444, Australia",
    "suburb": "Port Macquarie NSW 2444",
    "state": "NSW",
    "rating": 4.3,
    "reviews": 371,
    "lat": -31.4284433,
    "lng": 152.8986656,
    "place_id": "ChIJC-Fe5Rb_nWsRiOO_m3sg4Kk",
    "maps_url": "https://www.google.com/maps/place/?q=place_id:ChIJC-Fe5Rb_nWsRiOO_m3sg4Kk"
  },
  {
    "name": "Pipeworks Cafe",
    "address": "4 Bay St, Port Macquarie NSW 2444, Australia",
    "suburb": "Port Macquarie NSW 2444",
    "state": "NSW",
    "rating": 4.5,
    "reviews": 562,
    "lat": -31.4281843,
    "lng": 152.8972524,
    "place_id": "ChIJqWLzYR__nWsRtRKqbOdC-mY",
    "maps_url": "https://www.google.com/maps/place/?q=place_id:ChIJqWLzYR__nWsRtRKqbOdC-mY"
  },
  {
    "name": "Anatolian Breeze",
    "address": "43 John Oxley Dr, Port Macquarie NSW 2444, Australia",
    "suburb": "Port Macquarie NSW 2444",
    "state": "NSW",
    "rating": 4.5,
    "reviews": 240,
    "lat": -31.4576668,
    "lng": 152.8750546,
    "place_id": "ChIJm3elg4P_nWsRwXjypDkmpds",
    "maps_url": "https://www.google.com/maps/place/?q=place_id:ChIJm3elg4P_nWsRwXjypDkmpds"
  },
  {
    "name": "187 Cantina",
    "address": "6 Nesbitt Ln, Lismore NSW 2480, Australia",
    "suburb": "Lismore NSW 2480",
    "state": "NSW",
    "rating": 4.8,
    "reviews": 321,
    "lat": -28.8088584,
    "lng": 153.2765588,
    "place_id": "ChIJvagMJ4-fkGsRvnttZ6O6Was",
    "maps_url": "https://www.google.com/maps/place/?q=place_id:ChIJvagMJ4-fkGsRvnttZ6O6Was"
  },
  {
    "name": "Ma Ma Moi",
    "address": "24 Carrington St, Lismore NSW 2480, Australia",
    "suburb": "Lismore NSW 2480",
    "state": "NSW",
    "rating": 4.7,
    "reviews": 314,
    "lat": -28.809007,
    "lng": 153.2771224,
    "place_id": "ChIJgQAcJxmekGsRJzFa9LRmFW0",
    "maps_url": "https://www.google.com/maps/place/?q=place_id:ChIJgQAcJxmekGsRJzFa9LRmFW0"
  },
  {
    "name": "The Garden Plate",
    "address": "86 Magellan St, Lismore NSW 2480, Australia",
    "suburb": "Lismore NSW 2480",
    "state": "NSW",
    "rating": 4.6,
    "reviews": 168,
    "lat": -28.8094843,
    "lng": 153.2776005,
    "place_id": "ChIJBy4mMBmekGsRtJym-hGRH5k",
    "maps_url": "https://www.google.com/maps/place/?q=place_id:ChIJBy4mMBmekGsRtJym-hGRH5k"
  },
  {
    "name": "Taco Love Bro's Lismore",
    "address": "20 Cathcart St, Lismore NSW 2480, Australia",
    "suburb": "Lismore NSW 2480",
    "state": "NSW",
    "rating": 4.8,
    "reviews": 195,
    "lat": -28.81369789999999,
    "lng": 153.2810888,
    "place_id": "ChIJP6LBwgKekGsR_al7QuTJaQc",
    "maps_url": "https://www.google.com/maps/place/?q=place_id:ChIJP6LBwgKekGsR_al7QuTJaQc"
  },
  {
    "name": "Mumbo's Pizza'N'Pasta",
    "address": "29 Keen St, Lismore NSW 2480, Australia",
    "suburb": "Lismore NSW 2480",
    "state": "NSW",
    "rating": 4.8,
    "reviews": 57,
    "lat": -28.8063783,
    "lng": 153.2801302,
    "place_id": "ChIJN_wJegCfkGsR4L7xzjwcUyY",
    "maps_url": "https://www.google.com/maps/place/?q=place_id:ChIJN_wJegCfkGsR4L7xzjwcUyY"
  },
  {
    "name": "Masala Fusion Indian Restaurant Lismore",
    "address": "171 Keen St, Lismore NSW 2480, Australia",
    "suburb": "Lismore NSW 2480",
    "state": "NSW",
    "rating": 4.7,
    "reviews": 477,
    "lat": -28.8101044,
    "lng": 153.2774998,
    "place_id": "ChIJxzhIzfafkGsRF-4nDXvkTAo",
    "maps_url": "https://www.google.com/maps/place/?q=place_id:ChIJxzhIzfafkGsRF-4nDXvkTAo"
  },
  {
    "name": "Uncle Lim Asian Fusion",
    "address": "3/178 Keen St, Lismore NSW 2480, Australia",
    "suburb": "Lismore NSW 2480",
    "state": "NSW",
    "rating": 4.5,
    "reviews": 384,
    "lat": -28.8101759,
    "lng": 153.2779654,
    "place_id": "ChIJl8Wsvfd1mmsRen9eyASXH2M",
    "maps_url": "https://www.google.com/maps/place/?q=place_id:ChIJl8Wsvfd1mmsRen9eyASXH2M"
  },
  {
    "name": "Hotel Metropole Lismore",
    "address": "98 Keen St, Lismore NSW 2480, Australia",
    "suburb": "Lismore NSW 2480",
    "state": "NSW",
    "rating": 4.4,
    "reviews": 240,
    "lat": -28.8084363,
    "lng": 153.2793391,
    "place_id": "ChIJL37JIWWfkGsRWT9dZwKsQXA",
    "maps_url": "https://www.google.com/maps/place/?q=place_id:ChIJL37JIWWfkGsRWT9dZwKsQXA"
  },
  {
    "name": "The Stockpot Kitchen - Smokehouse BBQ and Fried Chicken",
    "address": "133 Molesworth St, Lismore NSW 2480, Australia",
    "suburb": "Lismore NSW 2480",
    "state": "NSW",
    "rating": 4.7,
    "reviews": 554,
    "lat": -28.8091656,
    "lng": 153.2752284,
    "place_id": "ChIJMSUZ4oSIkGsRldriM5fQeNI",
    "maps_url": "https://www.google.com/maps/place/?q=place_id:ChIJMSUZ4oSIkGsRldriM5fQeNI"
  },
  {
    "name": "Banzai Japanese Restaurant",
    "address": "34 Molesworth St, Lismore NSW 2480, Australia",
    "suburb": "Lismore NSW 2480",
    "state": "NSW",
    "rating": 4.2,
    "reviews": 309,
    "lat": -28.805478,
    "lng": 153.278477,
    "place_id": "ChIJOT9T7xmekGsRVmyaLo51bq8",
    "maps_url": "https://www.google.com/maps/place/?q=place_id:ChIJOT9T7xmekGsRVmyaLo51bq8"
  },
  {
    "name": "Tel Aviv Yafo Ballina",
    "address": "126 River St, Ballina NSW 2478, Australia",
    "suburb": "Ballina NSW 2478",
    "state": "NSW",
    "rating": 4.9,
    "reviews": 505,
    "lat": -28.8707698,
    "lng": 153.560315,
    "place_id": "ChIJTWssjiyBkGsRCk3t8stq68o",
    "maps_url": "https://www.google.com/maps/place/?q=place_id:ChIJTWssjiyBkGsRCk3t8stq68o"
  },
  {
    "name": "Capiche",
    "address": "65 Lighthouse Parade, East Ballina NSW 2478, Australia",
    "suburb": "East Ballina NSW 2478",
    "state": "NSW",
    "rating": 4.7,
    "reviews": 690,
    "lat": -28.8680896,
    "lng": 153.591629,
    "place_id": "ChIJ4Y9uYCV_kGsRZ2Eo3fPBuEQ",
    "maps_url": "https://www.google.com/maps/place/?q=place_id:ChIJ4Y9uYCV_kGsRZ2Eo3fPBuEQ"
  },
  {
    "name": "Kelp Restaurant Ballina",
    "address": "175 River St, Ballina NSW 2478, Australia",
    "suburb": "Ballina NSW 2478",
    "state": "NSW",
    "rating": 4.7,
    "reviews": 347,
    "lat": -28.8698862,
    "lng": 153.5593974,
    "place_id": "ChIJvUapMcWBkGsRImpXykQv14A",
    "maps_url": "https://www.google.com/maps/place/?q=place_id:ChIJvUapMcWBkGsRImpXykQv14A"
  },
  {
    "name": "Saltbush Bar & Grill",
    "address": "2 Martin St, Ballina NSW 2478, Australia",
    "suburb": "Ballina NSW 2478",
    "state": "NSW",
    "rating": 4.2,
    "reviews": 137,
    "lat": -28.8727383,
    "lng": 153.5624064,
    "place_id": "ChIJK5ET2uqBkGsRvoe6M2S2yVc",
    "maps_url": "https://www.google.com/maps/place/?q=place_id:ChIJK5ET2uqBkGsRvoe6M2S2yVc"
  },
  {
    "name": "Cafe Boker",
    "address": "43 River St, Ballina NSW 2478, Australia",
    "suburb": "Ballina NSW 2478",
    "state": "NSW",
    "rating": 4.7,
    "reviews": 314,
    "lat": -28.8714918,
    "lng": 153.5631208,
    "place_id": "ChIJeYUx7cyBkGsRzXVyKJtgCHo",
    "maps_url": "https://www.google.com/maps/place/?q=place_id:ChIJeYUx7cyBkGsRzXVyKJtgCHo"
  },
  {
    "name": "Che Bon Restaurant",
    "address": "37/41 Cherry St, Ballina NSW 2478, Australia",
    "suburb": "Ballina NSW 2478",
    "state": "NSW",
    "rating": 4.7,
    "reviews": 563,
    "lat": -28.8696202,
    "lng": 153.5622228,
    "place_id": "ChIJE0kZdD-BkGsRbZeUe0UG3XQ",
    "maps_url": "https://www.google.com/maps/place/?q=place_id:ChIJE0kZdD-BkGsRbZeUe0UG3XQ"
  },
  {
    "name": "Hey Lady Diner",
    "address": "105 River St, Ballina NSW 2478, Australia",
    "suburb": "Ballina NSW 2478",
    "state": "NSW",
    "rating": 4.8,
    "reviews": 216,
    "lat": -28.8705127,
    "lng": 153.561058,
    "place_id": "ChIJgfOaG-GBkGsRXTOACNRt9kE",
    "maps_url": "https://www.google.com/maps/place/?q=place_id:ChIJgfOaG-GBkGsRXTOACNRt9kE"
  },
  {
    "name": "Tavola Restaurant Bar",
    "address": "1 Ronan Pl, Ballina NSW 2478, Australia",
    "suburb": "Ballina NSW 2478",
    "state": "NSW",
    "rating": 4.2,
    "reviews": 90,
    "lat": -28.8629184,
    "lng": 153.5370901,
    "place_id": "ChIJNS-bbzWBkGsRl4vLB1wHpug",
    "maps_url": "https://www.google.com/maps/place/?q=place_id:ChIJNS-bbzWBkGsRl4vLB1wHpug"
  },
  {
    "name": "baraka",
    "address": "Shop 8/92 Ballina St, Lennox Head NSW 2478, Australia",
    "suburb": "Lennox Head NSW 2478",
    "state": "NSW",
    "rating": 4.8,
    "reviews": 107,
    "lat": -28.7943144,
    "lng": 153.5935945,
    "place_id": "ChIJeZ9fu2J9kGsRvF26XW6vqJg",
    "maps_url": "https://www.google.com/maps/place/?q=place_id:ChIJeZ9fu2J9kGsRvF26XW6vqJg"
  },
  {
    "name": "La Cucina di Vino",
    "address": "2 Martin St, Ballina NSW 2478, Australia",
    "suburb": "Ballina NSW 2478",
    "state": "NSW",
    "rating": 4.4,
    "reviews": 471,
    "lat": -28.8725533,
    "lng": 153.5628521,
    "place_id": "ChIJVVlfgR6AkGsRVtlYIQsHDrw",
    "maps_url": "https://www.google.com/maps/place/?q=place_id:ChIJVVlfgR6AkGsRVtlYIQsHDrw"
  },
  {
    "name": "La Romana",
    "address": "85 Cherry St, Ballina NSW 2478, Australia",
    "suburb": "Ballina NSW 2478",
    "state": "NSW",
    "rating": 4.9,
    "reviews": 99,
    "lat": -28.8636004,
    "lng": 153.5655927,
    "place_id": "ChIJmXPj_6SBkGsRIRmffp5_XEI",
    "maps_url": "https://www.google.com/maps/place/?q=place_id:ChIJmXPj_6SBkGsRIRmffp5_XEI"
  },
  {
    "name": "Wharf Bar & Restaurant Ballina",
    "address": "12-24 Fawcett St, Ballina NSW 2478, Australia",
    "suburb": "Ballina NSW 2478",
    "state": "NSW",
    "rating": 4.3,
    "reviews": 2184,
    "lat": -28.8712156,
    "lng": 153.5597277,
    "place_id": "ChIJUd67Hx-AkGsR-5bAseCxJDA",
    "maps_url": "https://www.google.com/maps/place/?q=place_id:ChIJUd67Hx-AkGsR-5bAseCxJDA"
  },
  {
    "name": "Cyprus Tree",
    "address": "3/4 Bay Ln, Byron Bay NSW 2481, Australia",
    "suburb": "Byron Bay NSW 2481",
    "state": "NSW",
    "rating": 4.4,
    "reviews": 513,
    "lat": -28.641759,
    "lng": 153.61293,
    "place_id": "ChIJu8C_yjtikGsR7QNP1adyV8k",
    "maps_url": "https://www.google.com/maps/place/?q=place_id:ChIJu8C_yjtikGsR7QNP1adyV8k"
  },
  {
    "name": "Chah Bah",
    "address": "90-92 Ballina St, Lennox Head NSW 2479, Australia",
    "suburb": "Lennox Head NSW 2479",
    "state": "NSW",
    "rating": null,
    "reviews": 0,
    "lat": -28.7942903,
    "lng": 153.5935949,
    "place_id": "ChIJjd3AwOJ9kGsRwQoO8I4QNTc",
    "maps_url": "https://www.google.com/maps/place/?q=place_id:ChIJjd3AwOJ9kGsRwQoO8I4QNTc"
  },
  {
    "name": "The Belle General",
    "address": "12 Shelly Beach Rd, East Ballina NSW 2478, Australia",
    "suburb": "East Ballina NSW 2478",
    "state": "NSW",
    "rating": 4.5,
    "reviews": 644,
    "lat": -28.8627004,
    "lng": 153.5934082,
    "place_id": "ChIJY711Zeh_kGsR4VUTHMg0cWI",
    "maps_url": "https://www.google.com/maps/place/?q=place_id:ChIJY711Zeh_kGsR4VUTHMg0cWI"
  },
  {
    "name": "Henry Rous Tavern",
    "address": "177 River St, Ballina NSW 2478, Australia",
    "suburb": "Ballina NSW 2478",
    "state": "NSW",
    "rating": 4.3,
    "reviews": 640,
    "lat": -28.8695687,
    "lng": 153.55911,
    "place_id": "ChIJTyQ0zRiAkGsRS4vEE17NqIk",
    "maps_url": "https://www.google.com/maps/place/?q=place_id:ChIJTyQ0zRiAkGsRS4vEE17NqIk"
  },
  {
    "name": "Seven Mile Brewing Co",
    "address": "188-202 Southern Cross Dr, Ballina NSW 2478, Australia",
    "suburb": "Ballina NSW 2478",
    "state": "NSW",
    "rating": 4.8,
    "reviews": 381,
    "lat": -28.8388139,
    "lng": 153.5550642,
    "place_id": "ChIJqWP4oF2AkGsR5cqMmkvR8zo",
    "maps_url": "https://www.google.com/maps/place/?q=place_id:ChIJqWP4oF2AkGsR5cqMmkvR8zo"
  },
  {
    "name": "Dory's Takeaway",
    "address": "173 River St, Ballina NSW 2478, Australia",
    "suburb": "Ballina NSW 2478",
    "state": "NSW",
    "rating": 4.3,
    "reviews": 629,
    "lat": -28.8699581,
    "lng": 153.5593846,
    "place_id": "ChIJeeNFLiKAkGsRZyZM8dY3cTA",
    "maps_url": "https://www.google.com/maps/place/?q=place_id:ChIJeeNFLiKAkGsRZyZM8dY3cTA"
  },
  {
    "name": "Xenia Coolangatta",
    "address": "Shop 16/52-58 Marine Parade, Coolangatta QLD 4225, Australia",
    "suburb": "Coolangatta QLD 4225",
    "state": "NSW",
    "rating": 4.5,
    "reviews": 837,
    "lat": -28.1670837,
    "lng": 153.5357487,
    "place_id": "ChIJB20H_i0AkWsRzf7WnLBQtiE",
    "maps_url": "https://www.google.com/maps/place/?q=place_id:ChIJB20H_i0AkWsRzf7WnLBQtiE"
  },
  {
    "name": "George's Paragon Coolangatta",
    "address": "The Strand, level 1/72-80 Marine Parade, Coolangatta QLD 4225, Australia",
    "suburb": "level 1/72-80 Marine Parade",
    "state": "NSW",
    "rating": 4.3,
    "reviews": 1223,
    "lat": -28.1673534,
    "lng": 153.5374656,
    "place_id": "ChIJwQEaKS4AkWsRzaEsXcmu10o",
    "maps_url": "https://www.google.com/maps/place/?q=place_id:ChIJwQEaKS4AkWsRzaEsXcmu10o"
  },
  {
    "name": "La Fira restaurant",
    "address": "Shop 2/1726 Gold Coast Hwy, Burleigh Heads QLD 4220, Australia",
    "suburb": "Burleigh Heads QLD 4220",
    "state": "NSW",
    "rating": 4.7,
    "reviews": 286,
    "lat": -28.0887304,
    "lng": 153.4508758,
    "place_id": "ChIJ9899xhoDkWsRPg7ounbK4SM",
    "maps_url": "https://www.google.com/maps/place/?q=place_id:ChIJ9899xhoDkWsRPg7ounbK4SM"
  },
  {
    "name": "On Fire Broadbeach Greek Taverna",
    "address": "12/17 Albert Ave, Broadbeach QLD 4218, Australia",
    "suburb": "Broadbeach QLD 4218",
    "state": "NSW",
    "rating": 4.6,
    "reviews": 638,
    "lat": -28.028123,
    "lng": 153.43165,
    "place_id": "ChIJ-yLCtf0EkWsRKJbOkc9krx4",
    "maps_url": "https://www.google.com/maps/place/?q=place_id:ChIJ-yLCtf0EkWsRKJbOkc9krx4"
  },
  {
    "name": "The Yiros Shop - Burleigh Heads",
    "address": "5/27 Connor St, Burleigh Heads QLD 4220, Australia",
    "suburb": "Burleigh Heads QLD 4220",
    "state": "NSW",
    "rating": 4.4,
    "reviews": 1828,
    "lat": -28.0896097,
    "lng": 153.4516166,
    "place_id": "ChIJPVH1cHQDkWsR1Hz-x_cbkAs",
    "maps_url": "https://www.google.com/maps/place/?q=place_id:ChIJPVH1cHQDkWsR1Hz-x_cbkAs"
  },
  {
    "name": "Xenia Main Beach",
    "address": "30 Peak Ave, Main Beach QLD 4217, Australia",
    "suburb": "Main Beach QLD 4217",
    "state": "NSW",
    "rating": 4.6,
    "reviews": 535,
    "lat": -27.9790739,
    "lng": 153.4252225,
    "place_id": "ChIJEc34N0MPkWsRfSxCPwQuV3Y",
    "maps_url": "https://www.google.com/maps/place/?q=place_id:ChIJEc34N0MPkWsRfSxCPwQuV3Y"
  },
  {
    "name": "Chicken Mania Tweed Heads",
    "address": "15/99-101 Kennedy Dr, Tweed Heads NSW 2485, Australia",
    "suburb": "Tweed Heads NSW 2485",
    "state": "NSW",
    "rating": 4.8,
    "reviews": 217,
    "lat": -28.1867289,
    "lng": 153.5281549,
    "place_id": "ChIJzTeLzHb_kGsRhrTd8A6wpaY",
    "maps_url": "https://www.google.com/maps/place/?q=place_id:ChIJzTeLzHb_kGsRhrTd8A6wpaY"
  },
  {
    "name": "The Oyster Shed",
    "address": "Ample parking at rear of Seagulls Club, 11-17 Birds Bay Dr, Tweed Heads West NSW 2485, Australia",
    "suburb": "11-17 Birds Bay Dr",
    "state": "NSW",
    "rating": 4.1,
    "reviews": 377,
    "lat": -28.1982529,
    "lng": 153.5028319,
    "place_id": "ChIJmZ0a_0H_kGsR2BKv9VDgaXU",
    "maps_url": "https://www.google.com/maps/place/?q=place_id:ChIJmZ0a_0H_kGsR2BKv9VDgaXU"
  },
  {
    "name": "MĀRE Restaurant by La Luna",
    "address": "La Luna Beach Club, 74 Seaworld Dr, Main Beach QLD 4217, Australia",
    "suburb": "74 Seaworld Dr",
    "state": "NSW",
    "rating": 4.8,
    "reviews": 552,
    "lat": -27.9684324,
    "lng": 153.4249438,
    "place_id": "ChIJQcBRzPUPkWsRS-p9u4nwP-A",
    "maps_url": "https://www.google.com/maps/place/?q=place_id:ChIJQcBRzPUPkWsRS-p9u4nwP-A"
  },
  {
    "name": "Cooly Breeze Rooftop Restaurant & Bar",
    "address": "level 13/122 Griffith St, Coolangatta QLD 4225, Australia",
    "suburb": "Coolangatta QLD 4225",
    "state": "NSW",
    "rating": 4.7,
    "reviews": 1073,
    "lat": -28.1689923,
    "lng": 153.5405864,
    "place_id": "ChIJg5mH29EBkWsRAbwqRWxjnI8",
    "maps_url": "https://www.google.com/maps/place/?q=place_id:ChIJg5mH29EBkWsRAbwqRWxjnI8"
  },
  {
    "name": "Pipi's Restaurant",
    "address": "Level 1/275 Boundary St, Coolangatta QLD 4225, Australia",
    "suburb": "Coolangatta QLD 4225",
    "state": "NSW",
    "rating": 4.5,
    "reviews": 188,
    "lat": -28.1648931,
    "lng": 153.5503476,
    "place_id": "ChIJ707GgkgBkWsRo8gfRyFJnQU",
    "maps_url": "https://www.google.com/maps/place/?q=place_id:ChIJ707GgkgBkWsRo8gfRyFJnQU"
  },
  {
    "name": "Pokkoi Kitchen",
    "address": "Seaside resort, Beach House, 52-58 Marine Parade, Coolangatta QLD 4225, Australia",
    "suburb": "Beach House",
    "state": "NSW",
    "rating": 4.9,
    "reviews": 372,
    "lat": -28.167129,
    "lng": 153.535711,
    "place_id": "ChIJnf2Rq3MBkWsRoXYaU7TEVyE",
    "maps_url": "https://www.google.com/maps/place/?q=place_id:ChIJnf2Rq3MBkWsRoXYaU7TEVyE"
  },
  {
    "name": "Stalactites Restaurant",
    "address": "177/183 Lonsdale St, Melbourne VIC 3000, Australia",
    "suburb": "Melbourne VIC 3000",
    "state": "VIC",
    "rating": 4.3,
    "reviews": 9366,
    "lat": -37.8110808,
    "lng": 144.9670491,
    "place_id": "ChIJn2OLfMlC1moRMo8rw0Az54c",
    "maps_url": "https://www.google.com/maps/place/?q=place_id:ChIJn2OLfMlC1moRMo8rw0Az54c"
  },
  {
    "name": "Kafeneion \"emeis & emeis\" Melbourne",
    "address": "First Floor/161 Spring St, Melbourne VIC 3000, Australia",
    "suburb": "Melbourne VIC 3000",
    "state": "VIC",
    "rating": 4.3,
    "reviews": 295,
    "lat": -37.8108709,
    "lng": 144.9725904,
    "place_id": "ChIJ8-q2fQZD1moRUcRCfSPs4Gw",
    "maps_url": "https://www.google.com/maps/place/?q=place_id:ChIJ8-q2fQZD1moRUcRCfSPs4Gw"
  },
  {
    "name": "Mamos Greek Food",
    "address": "600 Bourke St, Melbourne VIC 3000, Australia",
    "suburb": "Melbourne VIC 3000",
    "state": "VIC",
    "rating": 4.8,
    "reviews": 11,
    "lat": -37.8162033,
    "lng": 144.9553759,
    "place_id": "ChIJZWWyBgBd1moRzNR6-bZUylU",
    "maps_url": "https://www.google.com/maps/place/?q=place_id:ChIJZWWyBgBd1moRzNR6-bZUylU"
  },
  {
    "name": "Aegli",
    "address": "226 Coventry St, South Melbourne VIC 3205, Australia",
    "suburb": "South Melbourne VIC 3205",
    "state": "VIC",
    "rating": 4.9,
    "reviews": 165,
    "lat": -37.8313425,
    "lng": 144.9613426,
    "place_id": "ChIJE8ZQJ0Jp1moRUQDa6oRbAGc",
    "maps_url": "https://www.google.com/maps/place/?q=place_id:ChIJE8ZQJ0Jp1moRUQDa6oRbAGc"
  },
  {
    "name": "Alpha Ouzeri",
    "address": "281 Victoria St, Brunswick VIC 3056, Australia",
    "suburb": "Brunswick VIC 3056",
    "state": "VIC",
    "rating": 4.9,
    "reviews": 218,
    "lat": -37.7668198,
    "lng": 144.961603,
    "place_id": "ChIJRX7UBwBD1moRr_N5ewLaZTQ",
    "maps_url": "https://www.google.com/maps/place/?q=place_id:ChIJRX7UBwBD1moRr_N5ewLaZTQ"
  },
  {
    "name": "SALONA | 260A SWAN ST RICHMOND | Est. 1969",
    "address": "260A Swan St, Richmond VIC 3121, Australia",
    "suburb": "Richmond VIC 3121",
    "state": "VIC",
    "rating": 4.7,
    "reviews": 522,
    "lat": -37.8259018,
    "lng": 144.9990078,
    "place_id": "ChIJQbpbvYxC1moRv13f16VxziQ",
    "maps_url": "https://www.google.com/maps/place/?q=place_id:ChIJQbpbvYxC1moRv13f16VxziQ"
  },
  {
    "name": "Eleni's Kitchen + Bar",
    "address": "28 Anderson St, Yarraville VIC 3013, Australia",
    "suburb": "Yarraville VIC 3013",
    "state": "VIC",
    "rating": 4.6,
    "reviews": 1652,
    "lat": -37.816575,
    "lng": 144.8904979,
    "place_id": "ChIJY4QRRUNn1moRdM8ZcRZErSI",
    "maps_url": "https://www.google.com/maps/place/?q=place_id:ChIJY4QRRUNn1moRdM8ZcRZErSI"
  },
  {
    "name": "Zeus Street Greek Carlton",
    "address": "280 Lygon St, Carlton VIC 3053, Australia",
    "suburb": "Carlton VIC 3053",
    "state": "VIC",
    "rating": 4.7,
    "reviews": 929,
    "lat": -37.800356,
    "lng": 144.967273,
    "place_id": "ChIJGZp0PflD1moR7Y-BoLCyVnE",
    "maps_url": "https://www.google.com/maps/place/?q=place_id:ChIJGZp0PflD1moR7Y-BoLCyVnE"
  },
  {
    "name": "Bahari | The Hellenic Palate",
    "address": "179 Swan St, Melbourne VIC 3121, Australia",
    "suburb": "Melbourne VIC 3121",
    "state": "VIC",
    "rating": 4.4,
    "reviews": 635,
    "lat": -37.8255448,
    "lng": 144.9975876,
    "place_id": "ChIJz3uC54xC1moRiLd_lbkKGUQ",
    "maps_url": "https://www.google.com/maps/place/?q=place_id:ChIJz3uC54xC1moRiLd_lbkKGUQ"
  },