[
  {
    "name": "Anytime Fitness Hyde Park",
    "address": "Level 4/227 Elizabeth St, Sydney",
    "suburb": "Sydney CBD",
    "state": "NSW",
    "lat": -33.874382,
    "lng": 151.2093658,
    "place_id": "ChIJb4yn5D2uEmsRzHcT0UsNbRs",
    "maps_url": "https://www.google.com/maps/place/?q=place_id:ChIJb4yn5D2uEmsRzHcT0UsNbRs",
    "rating": 4.1,
    "total_ratings": 464
  },
  {
    "name": "Anytime Fitness Surry Hills",
    "address": "Level 1/87 Foveaux St, Surry Hills",
    "suburb": "Sydney CBD",
    "state": "NSW",
    "lat": -33.884857,
    "lng": 151.211191,
    "place_id": "ChIJw_AthSKuEmsRb7SuXwa4_FI",
    "maps_url": "https://www.google.com/maps/place/?q=place_id:ChIJw_AthSKuEmsRb7SuXwa4_FI",
    "rating": 4.7,
    "total_ratings": 537
  },
  {
    "name": "Anytime Fitness Circular Quay",
    "address": "1/22 Pitt St, Sydney",
    "suburb": "Sydney CBD",
    "state": "NSW",
    "lat": -33.8620844,
    "lng": 151.2093516,
    "place_id": "ChIJvex9bEKuEmsRd1dJdhxrQiE",
    "maps_url": "https://www.google.com/maps/place/?q=place_id:ChIJvex9bEKuEmsRd1dJdhxrQiE",
    "rating": 4.4,
    "total_ratings": 267
  },
  {
    "name": "Anytime Fitness Kingsford",
    "address": "375 Anzac Parade, Kingsford",
    "suburb": "Sydney CBD",
    "state": "NSW",
    "lat": -33.9244303,
    "lng": 151.2275105,
    "place_id": "ChIJz_4xPFixEmsRLf1Egk9wJb0",
    "maps_url": "https://www.google.com/maps/place/?q=place_id:ChIJz_4xPFixEmsRLf1Egk9wJb0",
    "rating": 4.7,
    "total_ratings": 939
  },
  {
    "name": "Anytime Fitness Kensington",
    "address": "88 Anzac Parade, Kensington",
    "suburb": "Sydney CBD",
    "state": "NSW",
    "lat": -33.9063208,
    "lng": 151.2240385,
    "place_id": "ChIJcbyzf9CxEmsRC89W5ZW2XPw",
    "maps_url": "https://www.google.com/maps/place/?q=place_id:ChIJcbyzf9CxEmsRC89W5ZW2XPw",
    "rating": 4.8,
    "total_ratings": 639
  },
  {
    "name": "Anytime Fitness Haymarket",
    "address": "Lower Ground, Floor, 725/731 George St, Haymarket",
    "suburb": "Sydney CBD",
    "state": "NSW",
    "lat": -33.8811158,
    "lng": 151.2044888,
    "place_id": "ChIJewlviPWvEmsRFB2RGliEUco",
    "maps_url": "https://www.google.com/maps/place/?q=place_id:ChIJewlviPWvEmsRFB2RGliEUco",
    "rating": 4.6,
    "total_ratings": 906
  },
  {
    "name": "Anytime Fitness Potts Point",
    "address": "2-14 Kings Cross Rd, Potts Point",
    "suburb": "Sydney CBD",
    "state": "NSW",
    "lat": -33.8755465,
    "lng": 151.2226947,
    "place_id": "ChIJ8S4Nmg2uEmsRH7D6jgiV9Is",
    "maps_url": "https://www.google.com/maps/place/?q=place_id:ChIJ8S4Nmg2uEmsRH7D6jgiV9Is",
    "rating": 4.5,
    "total_ratings": 593
  },
  {
    "name": "Snap Fitness 24/7 Sydney City",
    "address": "35 Clarence St, Sydney",
    "suburb": "Sydney CBD",
    "state": "NSW",
    "lat": -33.8642648,
    "lng": 151.2045525,
    "place_id": "ChIJ___vMkGuEmsRFUR3ph7Xb5s",
    "maps_url": "https://www.google.com/maps/place/?q=place_id:ChIJ___vMkGuEmsRFUR3ph7Xb5s",
    "rating": 4,
    "total_ratings": 113
  },
  {
    "name": "Anytime Fitness Redfern",
    "address": "78-80 George St, Redfern",
    "suburb": "Sydney CBD",
    "state": "NSW",
    "lat": -33.891479,
    "lng": 151.2021166,
    "place_id": "ChIJ-VTUyQGxEmsRsqBRoTpQmT0",
    "maps_url": "https://www.google.com/maps/place/?q=place_id:ChIJ-VTUyQGxEmsRsqBRoTpQmT0",
    "rating": 4.2,
    "total_ratings": 230
  },
  {
    "name": "Anytime Fitness North Sydney",
    "address": "Level 1/118 Walker St, North Sydney",
    "suburb": "Sydney CBD",
    "state": "NSW",
    "lat": -33.8376502,
    "lng": 151.2089691,
    "place_id": "ChIJefIQXO2uEmsR8DhX58mWQRg",
    "maps_url": "https://www.google.com/maps/place/?q=place_id:ChIJefIQXO2uEmsR8DhX58mWQRg",
    "rating": 4.3,
    "total_ratings": 186
  },
  {
    "name": "Anytime Fitness Martin Place",
    "address": "80 Elizabeth St, Sydney",
    "suburb": "Sydney CBD",
    "state": "NSW",
    "lat": -33.868412,
    "lng": 151.2107696,
    "place_id": "ChIJ96FoQzCvEmsR1BUQfqyPV8E",
    "maps_url": "https://www.google.com/maps/place/?q=place_id:ChIJ96FoQzCvEmsR1BUQfqyPV8E",
    "rating": 4.6,
    "total_ratings": 334
  },
  {
    "name": "Apex Gym 24/7 Ashfield",
    "address": "Shop 1/2A Brown St, Ashfield",
    "suburb": "Sydney CBD",
    "state": "NSW",
    "lat": -33.8886154,
    "lng": 151.1259375,
    "place_id": "ChIJNW5ilsK7EmsR7ojvU-wTuBQ",
    "maps_url": "https://www.google.com/maps/place/?q=place_id:ChIJNW5ilsK7EmsR7ojvU-wTuBQ",
    "rating": 4.9,
    "total_ratings": 72
  },
  {
    "name": "Anytime Fitness Alexandria",
    "address": "74 McEvoy St, Alexandria",
    "suburb": "Sydney CBD",
    "state": "NSW",
    "lat": -33.9020631,
    "lng": 151.1996955,
    "place_id": "ChIJs91r0sWxEmsRi_GWubgZtRQ",
    "maps_url": "https://www.google.com/maps/place/?q=place_id:ChIJs91r0sWxEmsRi_GWubgZtRQ",
    "rating": 4,
    "total_ratings": 225
  },
  {
    "name": "Plus Fitness 24/7 St Peters",
    "address": "Shop 1 & 2/81 Princes Hwy, St Peters",
    "suburb": "Sydney CBD",
    "state": "NSW",
    "lat": -33.9105371,
    "lng": 151.1802043,
    "place_id": "ChIJlUT1_ZaxEmsRW4tpbkhaNRc",
    "maps_url": "https://www.google.com/maps/place/?q=place_id:ChIJlUT1_ZaxEmsRW4tpbkhaNRc",
    "rating": 4.6,
    "total_ratings": 30
  },
  {
    "name": "ONYX Gym & Fitness 24/7",
    "address": "20 Bowden St, Alexandria",
    "suburb": "Sydney CBD",
    "state": "NSW",
    "lat": -33.9043722,
    "lng": 151.1961933,
    "place_id": "ChIJOWzbfr-xEmsRqUmVAWqnCoA",
    "maps_url": "https://www.google.com/maps/place/?q=place_id:ChIJOWzbfr-xEmsRqUmVAWqnCoA",
    "rating": 5,
    "total_ratings": 428
  },
  {
    "name": "Snap Fitness 24/7 Zetland",
    "address": "56-60 O'Dea Ave, Waterloo",
    "suburb": "Sydney CBD",
    "state": "NSW",
    "lat": -33.9035898,
    "lng": 151.2137094,
    "place_id": "ChIJ7cAxG-mxEmsR9yFgWovoREE",
    "maps_url": "https://www.google.com/maps/place/?q=place_id:ChIJ7cAxG-mxEmsR9yFgWovoREE",
    "rating": 4.7,
    "total_ratings": 437
  },
  {
    "name": "Snap Fitness 24/7 Gladesville",
    "address": "1 Meriton St, Gladesville",
    "suburb": "Sydney CBD",
    "state": "NSW",
    "lat": -33.8333028,
    "lng": 151.1268796,
    "place_id": "ChIJZRsYDt2lEmsR4qUOWlwC8Wk",
    "maps_url": "https://www.google.com/maps/place/?q=place_id:ChIJZRsYDt2lEmsR4qUOWlwC8Wk",
    "rating": 3.8,
    "total_ratings": 59
  },
  {
    "name": "Anytime Fitness Newtown",
    "address": "level 1/93/99 King St, Newtown",
    "suburb": "Sydney CBD",
    "state": "NSW",
    "lat": -33.8927951,
    "lng": 151.1850815,
    "place_id": "ChIJj2ucZS2wEmsRY30sNcPkdwA",
    "maps_url": "https://www.google.com/maps/place/?q=place_id:ChIJj2ucZS2wEmsRY30sNcPkdwA",
    "rating": 4.3,
    "total_ratings": 230
  },
  {
    "name": "Anytime Fitness Bondi Junction",
    "address": "Level 1/133-135 Oxford St, Bondi Junction",
    "suburb": "Sydney CBD",
    "state": "NSW",
    "lat": -33.8920569,
    "lng": 151.2475776,
    "place_id": "ChIJwyxeWfGtEmsRAu3yR6L_k5E",
    "maps_url": "https://www.google.com/maps/place/?q=place_id:ChIJwyxeWfGtEmsRAu3yR6L_k5E",
    "rating": 4.4,
    "total_ratings": 418
  },
  {
    "name": "Anytime Fitness Paddington",
    "address": "387-389 Oxford St, Paddington",
    "suburb": "Sydney CBD",
    "state": "NSW",
    "lat": -33.8868184,
    "lng": 151.2294414,
    "place_id": "ChIJJezI9QauEmsRAfZWAye8mY4",
    "maps_url": "https://www.google.com/maps/place/?q=place_id:ChIJJezI9QauEmsRAfZWAye8mY4",
    "rating": 4.8,
    "total_ratings": 178
  },
  {
    "name": "Anytime Fitness Leichhardt",
    "address": "55 Norton St, Leichhardt",
    "suburb": "Sydney CBD",
    "state": "NSW",
    "lat": -33.8856925,
    "lng": 151.1574497,
    "place_id": "ChIJE0CEGRqwEmsRUdmGE0Bs3Y0",
    "maps_url": "https://www.google.com/maps/place/?q=place_id:ChIJE0CEGRqwEmsRUdmGE0Bs3Y0",
    "rating": 4.3,
    "total_ratings": 215
  },
  {
    "name": "Anytime Fitness St Leonards",
    "address": "657 Pacific Hwy, St Leonards",
    "suburb": "Sydney CBD",
    "state": "NSW",
    "lat": -33.8230105,
    "lng": 151.1950883,
    "place_id": "ChIJUZ8_mN2uEmsRXySMdhbToKg",
    "maps_url": "https://www.google.com/maps/place/?q=place_id:ChIJUZ8_mN2uEmsRXySMdhbToKg",
    "rating": 4.7,
    "total_ratings": 628
  },
  {
    "name": "Plus Fitness 24/7 Wolli Creek",
    "address": "Shop 7/35 Arncliffe St, Wolli Creek",
    "suburb": "Sydney CBD",
    "state": "NSW",
    "lat": -33.9302333,
    "lng": 151.1538569,
    "place_id": "ChIJbwOywJCwEmsR6-QUK5yBkhw",
    "maps_url": "https://www.google.com/maps/place/?q=place_id:ChIJbwOywJCwEmsR6-QUK5yBkhw",
    "rating": 4.1,
    "total_ratings": 234
  },
  {
    "name": "Anytime Fitness Camperdown",
    "address": "112-118 Parramatta Rd, Camperdown",
    "suburb": "Sydney CBD",
    "state": "NSW",
    "lat": -33.8861102,
    "lng": 151.1784474,
    "place_id": "ChIJG9cXKSmwEmsR7g6HN9yClP4",
    "maps_url": "https://www.google.com/maps/place/?q=place_id:ChIJG9cXKSmwEmsR7g6HN9yClP4",
    "rating": 4.2,
    "total_ratings": 348
  },
  {
    "name": "Anytime Fitness Pyrmont",
    "address": "1/210 Harris St, Pyrmont",
    "suburb": "Sydney CBD",
    "state": "NSW",
    "lat": -33.8708714,
    "lng": 151.1948103,
    "place_id": "ChIJUaaqOzGuEmsRoH3CWd-zgAA",
    "maps_url": "https://www.google.com/maps/place/?q=place_id:ChIJUaaqOzGuEmsRoH3CWd-zgAA",
    "rating": 4.5,
    "total_ratings": 273
  },
  {
    "name": "Anytime Fitness Balmain",
    "address": "91-95 Victoria Rd, Rozelle",
    "suburb": "Sydney CBD",
    "state": "NSW",
    "lat": -33.8644338,
    "lng": 151.1711054,
    "place_id": "ChIJvW4CIcSvEmsRVA1xudwbXeo",
    "maps_url": "https://www.google.com/maps/place/?q=place_id:ChIJvW4CIcSvEmsRVA1xudwbXeo",
    "rating": 4,
    "total_ratings": 124
  },
  {
    "name": "Plus Fitness 24/7 Crows Nest",
    "address": "398/400 Pacific Hwy, Crows Nest",
    "suburb": "Sydney CBD",
    "state": "NSW",
    "lat": -33.8258146,
    "lng": 151.1985445,
    "place_id": "ChIJP4wUBPWvEmsRMjVxXVKD25E",
    "maps_url": "https://www.google.com/maps/place/?q=place_id:ChIJP4wUBPWvEmsRMjVxXVKD25E",
    "rating": 4.7,
    "total_ratings": 112
  },
  {
    "name": "Snap Fitness 24/7 Petersham",
    "address": "The Majestic, Shop 1/49 New Canterbury Rd, Petersham",
    "suburb": "Sydney CBD",
    "state": "NSW",
    "lat": -33.8962568,
    "lng": 151.153218,
    "place_id": "ChIJXZjvQ22wEmsRGz9VhzX9RAw",
    "maps_url": "https://www.google.com/maps/place/?q=place_id:ChIJXZjvQ22wEmsRGz9VhzX9RAw",
    "rating": 4.7,
    "total_ratings": 222
  },
  {
    "name": "Anytime Fitness Neutral Bay",
    "address": "124 Military Rd, Neutral Bay",
    "suburb": "Sydney CBD",
    "state": "NSW",
    "lat": -33.8302879,
    "lng": 151.2198181,
    "place_id": "ChIJrzyfY72uEmsRrdxAdY1_yFs",
    "maps_url": "https://www.google.com/maps/place/?q=place_id:ChIJrzyfY72uEmsRrdxAdY1_yFs",
    "rating": 4.4,
    "total_ratings": 210
  },
  {
    "name": "Plus Fitness",
    "address": "586 Parramatta Rd, Petersham",
    "suburb": "Sydney CBD",
    "state": "NSW",
    "lat": -33.8890747,
    "lng": 151.1546138,
    "place_id": "ChIJObfGCBGwEmsRzAagn4Nwq1w",
    "maps_url": "https://www.google.com/maps/place/?q=place_id:ChIJObfGCBGwEmsRzAagn4Nwq1w",
    "rating": 4.3,
    "total_ratings": 172
  },
  {
    "name": "Anytime Fitness Maroubra",
    "address": "205 Maroubra Rd, Maroubra",
    "suburb": "Sydney CBD",
    "state": "NSW",
    "lat": -33.9418185,
    "lng": 151.239751,
    "place_id": "ChIJPTbG89OzEmsRi-sJ-oyo-lY",
    "maps_url": "https://www.google.com/maps/place/?q=place_id:ChIJPTbG89OzEmsRi-sJ-oyo-lY",
    "rating": 4.1,
    "total_ratings": 129
  },
  {
    "name": "Plus Fitness 24/7",
    "address": "25 Market St, Sydney",
    "suburb": "Sydney CBD",
    "state": "NSW",
    "lat": -33.87102120000001,
    "lng": 151.2049713,
    "place_id": "ChIJiT0CAD-uEmsRfdq3ftznH6Q",
    "maps_url": "https://www.google.com/maps/place/?q=place_id:ChIJiT0CAD-uEmsRfdq3ftznH6Q",
    "rating": 4.1,
    "total_ratings": 192
  },
  {
    "name": "Snap Fitness 24/7 Maroubra",
    "address": "165-167 Maroubra Rd, Maroubra",
    "suburb": "Sydney CBD",
    "state": "NSW",
    "lat": -33.941521,
    "lng": 151.2375572,
    "place_id": "ChIJ9cd6O9SzEmsRHtDsmU8-AJU",
    "maps_url": "https://www.google.com/maps/place/?q=place_id:ChIJ9cd6O9SzEmsRHtDsmU8-AJU",
    "rating": 4.5,
    "total_ratings": 127
  },
  {
    "name": "Snap Fitness 24/7 Rose Bay",
    "address": "513 Old South Head Rd, Rose Bay",
    "suburb": "Sydney CBD",
    "state": "NSW",
    "lat": -33.8744754,
    "lng": 151.273232,
    "place_id": "ChIJu2UF_LGtEmsR73WqyFmNyUo",
    "maps_url": "https://www.google.com/maps/place/?q=place_id:ChIJu2UF_LGtEmsR73WqyFmNyUo",
    "rating": 3.7,
    "total_ratings": 91
  },
  {
    "name": "Anytime Fitness Manly",
    "address": "3/5 Pittwater Rd, Manly",
    "suburb": "Sydney CBD",
    "state": "NSW",
    "lat": -33.795271,
    "lng": 151.2849523,
    "place_id": "ChIJm6HuGQarEmsRltlmeSPo-58",
    "maps_url": "https://www.google.com/maps/place/?q=place_id:ChIJm6HuGQarEmsRltlmeSPo-58",
    "rating": 4.8,
    "total_ratings": 544
  },
  {
    "name": "Anytime Fitness Rose Bay",
    "address": "737 New South Head Rd, Rose Bay",
    "suburb": "Sydney CBD",
    "state": "NSW",
    "lat": -33.8710435,
    "lng": 151.2681035,
    "place_id": "ChIJCR2MLLCtEmsRa-Lzfqf7dKY",
    "maps_url": "https://www.google.com/maps/place/?q=place_id:ChIJCR2MLLCtEmsRa-Lzfqf7dKY",
    "rating": 4.8,
    "total_ratings": 281
  },
  {
    "name": "Anytime Fitness Edgecliff",
    "address": "179-191 New South Head Rd, Edgecliff",
    "suburb": "Sydney CBD",
    "state": "NSW",
    "lat": -33.87851819999999,
    "lng": 151.2343969,
    "place_id": "ChIJv9n6xeGtEmsR-K_KyKaeCzo",
    "maps_url": "https://www.google.com/maps/place/?q=place_id:ChIJv9n6xeGtEmsR-K_KyKaeCzo",
    "rating": 4.6,
    "total_ratings": 285
  },
  {
    "name": "Anytime Fitness Glebe",
    "address": "1/1-9 Glebe Point Rd, Glebe",
    "suburb": "Sydney CBD",
    "state": "NSW",
    "lat": -33.8840963,
    "lng": 151.1928701,
    "place_id": "ChIJK5_W9ymuEmsRq-Nlv-7eHcg",
    "maps_url": "https://www.google.com/maps/place/?q=place_id:ChIJK5_W9ymuEmsRq-Nlv-7eHcg",
    "rating": 4,
    "total_ratings": 340
  },
  {
    "name": "Plus Fitness 24/7 Gladesville",
    "address": "219 Victoria Rd, Gladesville",
    "suburb": "Sydney CBD",
    "state": "NSW",
    "lat": -33.8319136,
    "lng": 151.1271895,
    "place_id": "ChIJcVAmvnClEmsRKFCOp090VLk",
    "maps_url": "https://www.google.com/maps/place/?q=place_id:ChIJcVAmvnClEmsRKFCOp090VLk",
    "rating": 3.9,
    "total_ratings": 93
  },
  {
    "name": "Anytime Fitness Lane Cove",
    "address": "Ground/71 Longueville Rd, Lane Cove",
    "suburb": "Sydney CBD",
    "state": "NSW",
    "lat": -33.8128718,
    "lng": 151.1704708,
    "place_id": "ChIJBQ0ZCDyvEmsRotTpmQANCrE",
    "maps_url": "https://www.google.com/maps/place/?q=place_id:ChIJBQ0ZCDyvEmsRotTpmQANCrE",
    "rating": 4.7,
    "total_ratings": 716
  },
  {
    "name": "Plus Fitness 24/7 North Sydney",
    "address": "G02/75 Miller St, North Sydney",
    "suburb": "Sydney CBD",
    "state": "NSW",
    "lat": -33.8401643,
    "lng": 151.2068507,
    "place_id": "ChIJ5yK-rfOuEmsR0N3-94RsA60",
    "maps_url": "https://www.google.com/maps/place/?q=place_id:ChIJ5yK-rfOuEmsR0N3-94RsA60",
    "rating": 4,
    "total_ratings": 180
  },
  {
    "name": "Anytime Fitness Marrickville",
    "address": "142 Marrickville Rd, Marrickville",
    "suburb": "Sydney CBD",
    "state": "NSW",
    "lat": -33.9133711,
    "lng": 151.161351,
    "place_id": "ChIJJ_cy0GCwEmsRHWSnVNboROA",
    "maps_url": "https://www.google.com/maps/place/?q=place_id:ChIJJ_cy0GCwEmsRHWSnVNboROA",
    "rating": 4.1,
    "total_ratings": 401
  },
  {
    "name": "Snap Fitness 24/7 Neutral Bay",
    "address": "355 Ernest St, Neutral Bay",
    "suburb": "Sydney CBD",
    "state": "NSW",
    "lat": -33.8286366,
    "lng": 151.2181023,
    "place_id": "ChIJgyMe7wmvEmsRzNOA3M-om98",
    "maps_url": "https://www.google.com/maps/place/?q=place_id:ChIJgyMe7wmvEmsRzNOA3M-om98",
    "rating": 1,
    "total_ratings": 2
  },
  {
    "name": "Anytime Fitness Chatswood",
    "address": "level 2/370 Victoria Ave, Chatswood",
    "suburb": "Sydney CBD",
    "state": "NSW",
    "lat": -33.79627809999999,
    "lng": 151.1834644,
    "place_id": "ChIJqcnkMdSoEmsR2GOmmbjzw1Y",
    "maps_url": "https://www.google.com/maps/place/?q=place_id:ChIJqcnkMdSoEmsR2GOmmbjzw1Y",
    "rating": 4.7,
    "total_ratings": 973
  },
  {
    "name": "Anytime Fitness McMahons Point",
    "address": "Ground Floor/182-186 Blues Point Rd, McMahons Point",
    "suburb": "Sydney CBD",
    "state": "NSW",
    "lat": -33.8430411,
    "lng": 151.2044597,
    "place_id": "ChIJx13amfauEmsRedL7UW4_gh4",
    "maps_url": "https://www.google.com/maps/place/?q=place_id:ChIJx13amfauEmsRedL7UW4_gh4",
    "rating": 4.6,
    "total_ratings": 172
  },
  {
    "name": "Anytime Fitness Lewisham",
    "address": "118 Old Canterbury Rd, Lewisham",
    "suburb": "Sydney CBD",
    "state": "NSW",
    "lat": -33.8947974,
    "lng": 151.1443456,
    "place_id": "ChIJwwjh7nSwEmsRh-R-HmgFfl0",
    "maps_url": "https://www.google.com/maps/place/?q=place_id:ChIJwwjh7nSwEmsRh-R-HmgFfl0",
    "rating": 4.4,
    "total_ratings": 166
  },
  {
    "name": "Snap Fitness 24/7 Lane Cove",
    "address": "99-101 Longueville Rd, Lane Cove",
    "suburb": "Sydney CBD",
    "state": "NSW",
    "lat": -33.8138381,
    "lng": 151.1696575,
    "place_id": "ChIJ8zGxlZWvEmsR2QEnk9fh_H0",
    "maps_url": "https://www.google.com/maps/place/?q=place_id:ChIJ8zGxlZWvEmsR2QEnk9fh_H0",
    "rating": 5,
    "total_ratings": 103
  },
  {
    "name": "Plus Fitness 24/7 Waterloo",
    "address": "11A Lachlan St, Waterloo",
    "suburb": "Sydney CBD",
    "state": "NSW",
    "lat": -33.9006302,
    "lng": 151.2118744,
    "place_id": "ChIJS_3hbeixEmsRPE5Z22VLY-g",
    "maps_url": "https://www.google.com/maps/place/?q=place_id:ChIJS_3hbeixEmsRPE5Z22VLY-g",
    "rating": 4.7,
    "total_ratings": 502
  },
  {
    "name": "Plus Fitness Bondi Junction",
    "address": "7/251 Oxford St, Bondi Junction",
    "suburb": "Sydney CBD",
    "state": "NSW",
    "lat": -33.8913863,
    "lng": 151.2525663,
    "place_id": "ChIJ5VakOPKtEmsRH5MMrFv_8ow",
    "maps_url": "https://www.google.com/maps/place/?q=place_id:ChIJ5VakOPKtEmsRH5MMrFv_8ow",
    "rating": 3.1,
    "total_ratings": 106
  },
  {
    "name": "Strive Fitness Marrickville",
    "address": "18-22 Murray St, Marrickville",
    "suburb": "Sydney CBD",
    "state": "NSW",
    "lat": -33.9070531,
    "lng": 151.1732969,
    "place_id": "ChIJxbj7fayxEmsRVxYM5FnJDPI",
    "maps_url": "https://www.google.com/maps/place/?q=place_id:ChIJxbj7fayxEmsRVxYM5FnJDPI",
    "rating": 4.3,
    "total_ratings": 276
  },
  {
    "name": "Anytime Fitness Wolli Creek",
    "address": "1/20-22 Princes Hwy, Wolli Creek",
    "suburb": "Sydney CBD",
    "state": "NSW",
    "lat": -33.9335513,
    "lng": 151.1532012,
    "place_id": "ChIJv8t5dpewEmsRL2MYnoaQtVY",
    "maps_url": "https://www.google.com/maps/place/?q=place_id:ChIJv8t5dpewEmsRL2MYnoaQtVY",
    "rating": 4.5,
    "total_ratings": 423
  },
  {
    "name": "Plus Fitness 24/7 Cammeray",
    "address": "Shop 19A, Cammeray Square, 450/456 Miller St, Cammeray",
    "suburb": "Sydney CBD",
    "state": "NSW",
    "lat": -33.8236048,
    "lng": 151.2094417,
    "place_id": "ChIJex_g5IivEmsRg33wEyq2lD8",
    "maps_url": "https://www.google.com/maps/place/?q=place_id:ChIJex_g5IivEmsRg33wEyq2lD8",
    "rating": 4,
    "total_ratings": 12
  },
  {
    "name": "Plus Fitness 24/7 Glebe",
    "address": "Level 1/15-21 Glebe Point Rd, Glebe",
    "suburb": "Sydney CBD",
    "state": "NSW",
    "lat": -33.8839188,
    "lng": 151.1926203,
    "place_id": "ChIJnS_StCuwEmsRwAy6Y69jbcA",
    "maps_url": "https://www.google.com/maps/place/?q=place_id:ChIJnS_StCuwEmsRwAy6Y69jbcA",
    "rating": 4.3,
    "total_ratings": 80
  },
  {
    "name": "Snap Fitness Pyrmont",
    "address": "Entrance on Pyrmont, Shop 1 / 209 Harris St, Bridge Rd, Pyrmont",
    "suburb": "Sydney CBD",
    "state": "NSW",
    "lat": -33.871835,
    "lng": 151.1947611,
    "place_id": "ChIJL8A2GjGuEmsRLRdgHs6WqnQ",
    "maps_url": "https://www.google.com/maps/place/?q=place_id:ChIJL8A2GjGuEmsRLRdgHs6WqnQ",
    "rating": 4.5,
    "total_ratings": 179
  },
  {
    "name": "Anytime Fitness Haberfield",
    "address": "163-165 Ramsay St, Haberfield",
    "suburb": "Sydney CBD",
    "state": "NSW",
    "lat": -33.8796624,
    "lng": 151.138651,
    "place_id": "ChIJnTZ5Oea7EmsR9AQ56g3KPG4",
    "maps_url": "https://www.google.com/maps/place/?q=place_id:ChIJnTZ5Oea7EmsR9AQ56g3KPG4",
    "rating": 4.8,
    "total_ratings": 210
  },
  {
    "name": "Snap Fitness 24/7 Mascot",
    "address": "675 Gardeners Rd, Mascot",
    "suburb": "Sydney CBD",
    "state": "NSW",
    "lat": -33.9201672,
    "lng": 151.1851605,
    "place_id": "ChIJV6KC-n2xEmsRiMqGufDw4OU",
    "maps_url": "https://www.google.com/maps/place/?q=place_id:ChIJV6KC-n2xEmsRiMqGufDw4OU",
    "rating": 4.7,
    "total_ratings": 132
  },
  {
    "name": "Snap Fitness 24/7 Haberfield",
    "address": "155-157 Parramatta Rd, Haberfield",
    "suburb": "Sydney CBD",
    "state": "NSW",
    "lat": -33.8838565,
    "lng": 151.1349095,
    "place_id": "ChIJU-WMCZO7EmsRry7LPci32w4",
    "maps_url": "https://www.google.com/maps/place/?q=place_id:ChIJU-WMCZO7EmsRry7LPci32w4",
    "rating": 4.7,
    "total_ratings": 198
  },
  {
    "name": "Plus Fitness 24/7 Alexandria",
    "address": "Suite G03/90/96 Bourke Rd, Alexandria",
    "suburb": "Sydney CBD",
    "state": "NSW",
    "lat": -33.9106217,
    "lng": 151.1955565,
    "place_id": "ChIJlRj5M7GxEmsRIJhlds0DtaM",
    "maps_url": "https://www.google.com/maps/place/?q=place_id:ChIJlRj5M7GxEmsRIJhlds0DtaM",
    "rating": 4.6,
    "total_ratings": 127
  },
  {
    "name": "Anytime Fitness Mascot",
    "address": "230 Coward St, Mascot",
    "suburb": "Sydney CBD",
    "state": "NSW",
    "lat": -33.9240913,
    "lng": 151.187622,
    "place_id": "ChIJ9014paqxEmsRvaxI23ZkAI4",
    "maps_url": "https://www.google.com/maps/place/?q=place_id:ChIJ9014paqxEmsRvaxI23ZkAI4",
    "rating": 4.3,
    "total_ratings": 319
  },
  {
    "name": "Anytime Fitness Ashfield",
    "address": "1 The Esplanade, Ashfield",
    "suburb": "Sydney CBD",
    "state": "NSW",
    "lat": -33.8875493,
    "lng": 151.1243149,
    "place_id": "ChIJkw-e9L26EmsRyvEmrHlEvYI",
    "maps_url": "https://www.google.com/maps/place/?q=place_id:ChIJkw-e9L26EmsRyvEmrHlEvYI",
    "rating": 4.6,
    "total_ratings": 795
  },
  {
    "name": "Anytime Fitness Freshwater",
    "address": "1 Moore Rd, Freshwater",
    "suburb": "North Sydney",
    "state": "NSW",
    "lat": -33.7790719,
    "lng": 151.28572,
    "place_id": "ChIJZVBt4t-rEmsRtxW1uMCTv24",
    "maps_url": "https://www.google.com/maps/place/?q=place_id:ChIJZVBt4t-rEmsRtxW1uMCTv24",
    "rating": 5,
    "total_ratings": 17
  },
  {
    "name": "Anytime Fitness Macquarie Park",
    "address": "2 Coolinga St, Macquarie Park",
    "suburb": "North Sydney",
    "state": "NSW",
    "lat": -33.7848269,
    "lng": 151.1263306,
    "place_id": "ChIJnxZtgQimEmsRS1QJjRCQTnw",
    "maps_url": "https://www.google.com/maps/place/?q=place_id:ChIJnxZtgQimEmsRS1QJjRCQTnw",
    "rating": 4.3,
    "total_ratings": 322
  },
  {
    "name": "Snap Fitness 24/7 North Ryde",
    "address": "Lachlan's Square Village, 17 Halifax St, Macquarie Park",
    "suburb": "North Sydney",
    "state": "NSW",
    "lat": -33.7934644,
    "lng": 151.134269,
    "place_id": "ChIJj2wBriWlEmsRnYBGmsiSiXs",
    "maps_url": "https://www.google.com/maps/place/?q=place_id:ChIJj2wBriWlEmsRnYBGmsiSiXs",
    "rating": 4.4,
    "total_ratings": 92
  },
  {
    "name": "Anytime Fitness Willoughby",
    "address": "G08/150 Mowbray Rd, Willoughby",
    "suburb": "North Sydney",
    "state": "NSW",
    "lat": -33.8035696,
    "lng": 151.1986203,
    "place_id": "ChIJL_xVXy2pEmsR52PufceY13E",
    "maps_url": "https://www.google.com/maps/place/?q=place_id:ChIJL_xVXy2pEmsR52PufceY13E",
    "rating": 4.7,
    "total_ratings": 462
  },
  {
    "name": "Plus Fitness 24/7 Cremorne",
    "address": "Level 1/362-364 Military Rd, Cremorne",
    "suburb": "North Sydney",
    "state": "NSW",
    "lat": -33.828359,
    "lng": 151.229121,
    "place_id": "ChIJo-PJnKKuEmsRRDvVLF6yQfY",
    "maps_url": "https://www.google.com/maps/place/?q=place_id:ChIJo-PJnKKuEmsRRDvVLF6yQfY",
    "rating": 4.5,
    "total_ratings": 115
  },
  {
    "name": "Snap Fitness 24/7 Newtown",
    "address": "and, 32 Alice St CNR Alice St, Walenore Ave, Newtown",
    "suburb": "North Sydney",
    "state": "NSW",
    "lat": -33.9036873,
    "lng": 151.177964,
    "place_id": "ChIJ9045cMKxEmsRlk4kdB4By2o",
    "maps_url": "https://www.google.com/maps/place/?q=place_id:ChIJ9045cMKxEmsRlk4kdB4By2o",
    "rating": 4.9,
    "total_ratings": 188
  },
  {
    "name": "Plus Fitness 24/7 Balgowlah",
    "address": "206 Condamine St, Balgowlah",
    "suburb": "North Sydney",
    "state": "NSW",
    "lat": -33.787374,
    "lng": 151.2668109,
    "place_id": "ChIJkbyTlbGrEmsRzq6_IaBb5h0",
    "maps_url": "https://www.google.com/maps/place/?q=place_id:ChIJkbyTlbGrEmsRzq6_IaBb5h0",
    "rating": 4.1,
    "total_ratings": 109
  },
  {
    "name": "Snap Fitness 24/7 Leichhardt",
    "address": "140 Norton St, Leichhardt",
    "suburb": "North Sydney",
    "state": "NSW",
    "lat": -33.882455,
    "lng": 151.156603,
    "place_id": "ChIJmzdQqIqxEmsR8LzwpSmb69Q",
    "maps_url": "https://www.google.com/maps/place/?q=place_id:ChIJmzdQqIqxEmsR8LzwpSmb69Q",
    "rating": 4.9,
    "total_ratings": 18
  },
  {
    "name": "Anytime Fitness Mosman",
    "address": "Suite 1/22 Spit Rd, Mosman",
    "suburb": "North Sydney",
    "state": "NSW",
    "lat": -33.8241182,
    "lng": 151.2411684,
    "place_id": "ChIJ3bRS6QSsEmsRko_KdpYWj7k",
    "maps_url": "https://www.google.com/maps/place/?q=place_id:ChIJ3bRS6QSsEmsRko_KdpYWj7k",
    "rating": 4.7,
    "total_ratings": 185
  },
  {
    "name": "Snap Fitness 24/7 St. Ives",
    "address": "186 Mona Vale Rd, St Ives",
    "suburb": "Chatswood",
    "state": "NSW",
    "lat": -33.7302474,
    "lng": 151.1595916,
    "place_id": "ChIJGxdaVFOpEmsRcX3F11Zq4rI",
    "maps_url": "https://www.google.com/maps/place/?q=place_id:ChIJGxdaVFOpEmsRcX3F11Zq4rI",
    "rating": 4.5,
    "total_ratings": 184
  },
  {
    "name": "Anytime Fitness St Ives",
    "address": "Shop G1 + G2, St Ives Shopping Village, 166-172 Mona Vale Rd, St Ives",
    "suburb": "Chatswood",
    "state": "NSW",
    "lat": -33.7304684,
    "lng": 151.1580596,
    "place_id": "ChIJIfFBkw6pEmsRZeQDvL15AjM",
    "maps_url": "https://www.google.com/maps/place/?q=place_id:ChIJIfFBkw6pEmsRZeQDvL15AjM",
    "rating": 3.7,
    "total_ratings": 55
  },
  {
    "name": "Forest 24/7 Fitness",
    "address": "39 The Centre, Forestville",
    "suburb": "Chatswood",
    "state": "NSW",
    "lat": -33.7621669,
    "lng": 151.215032,
    "place_id": "ChIJH48zSZmpEmsRduVOmY3gcZI",
    "maps_url": "https://www.google.com/maps/place/?q=place_id:ChIJH48zSZmpEmsRduVOmY3gcZI",
    "rating": 4.6,
    "total_ratings": 46
  },
  {
    "name": "Anytime Fitness Five Dock",
    "address": "120 Great N Rd, Five Dock",
    "suburb": "Chatswood",
    "state": "NSW",
    "lat": -33.8669465,
    "lng": 151.1303018,
    "place_id": "ChIJC1zPQlKlEmsRvRgc6yzzr0U",
    "maps_url": "https://www.google.com/maps/place/?q=place_id:ChIJC1zPQlKlEmsRvRgc6yzzr0U",
    "rating": 4.3,
    "total_ratings": 339
  },
  {
    "name": "Anytime Fitness Ryde",
    "address": "724-730 Victoria Rd, Ryde",
    "suburb": "Chatswood",
    "state": "NSW",
    "lat": -33.8171575,
    "lng": 151.1046736,
    "place_id": "ChIJLRbuhhelEmsRnk6pP8bqir8",
    "maps_url": "https://www.google.com/maps/place/?q=place_id:ChIJLRbuhhelEmsRnk6pP8bqir8",
    "rating": 4.6,
    "total_ratings": 188
  },
  {
    "name": "Snap Fitness 24/7 Gordon",
    "address": "Arcade, Shop B1/767 Pacific Hwy, Gordon",
    "suburb": "Chatswood",
    "state": "NSW",
    "lat": -33.7550661,
    "lng": 151.1528364,
    "place_id": "ChIJyaY5896pEmsR_Vb7kgYpyYQ",
    "maps_url": "https://www.google.com/maps/place/?q=place_id:ChIJyaY5896pEmsR_Vb7kgYpyYQ",
    "rating": 4.7,
    "total_ratings": 142
  },
  {
    "name": "Plus Fitness 24/7 Frenchs Forest",
    "address": "Allambie Grove Business Park, 11/25 Frenchs Forest Rd E, Frenchs Forest",
    "suburb": "Chatswood",
    "state": "NSW",
    "lat": -33.7523667,
    "lng": 151.2413421,
    "place_id": "ChIJO9bqAE2rEmsRjeEo1q4JT2Q",
    "maps_url": "https://www.google.com/maps/place/?q=place_id:ChIJO9bqAE2rEmsRjeEo1q4JT2Q",
    "rating": 4.2,
    "total_ratings": 68
  },
  {
    "name": "Plus Fitness 24/7 Gordon",
    "address": "751 Pacific Hwy, Gordon",
    "suburb": "Chatswood",
    "state": "NSW",
    "lat": -33.7555556,
    "lng": 151.152936,
    "place_id": "ChIJucdwxoeoEmsR7TSBqbbjBVQ",
    "maps_url": "https://www.google.com/maps/place/?q=place_id:ChIJucdwxoeoEmsR7TSBqbbjBVQ",
    "rating": 4.8,
    "total_ratings": 553
  },
  {
    "name": "Anytime Fitness Belrose",
    "address": "T24/56-58 Glen Street and, Glenrose Pl, Belrose",
    "suburb": "Chatswood",
    "state": "NSW",
    "lat": -33.73892,
    "lng": 151.2109055,
    "place_id": "ChIJkU_8FsKpEmsR2AhfI-nWl0U",
    "maps_url": "https://www.google.com/maps/place/?q=place_id:ChIJkU_8FsKpEmsR2AhfI-nWl0U",
    "rating": 4.9,
    "total_ratings": 183
  },
  {
    "name": "Anytime Fitness Frenchs Forest",
    "address": "Level 1, Suite 2/18 Aquatic Dr, Frenchs Forest",
    "suburb": "Chatswood",
    "state": "NSW",
    "lat": -33.754441,
    "lng": 151.2354264,
    "place_id": "ChIJ31sHIx-qEmsRAbVl7TqxmKE",
    "maps_url": "https://www.google.com/maps/place/?q=place_id:ChIJ31sHIx-qEmsRAbVl7TqxmKE",
    "rating": 4.8,
    "total_ratings": 175
  },
  {
    "name": "Anytime Fitness Drummoyne",
    "address": "71 Victoria Rd, Drummoyne",
    "suburb": "Chatswood",
    "state": "NSW",
    "lat": -33.8550124,
    "lng": 151.1580707,
    "place_id": "ChIJl00TqJSvEmsRQEj2n6RUBJU",
    "maps_url": "https://www.google.com/maps/place/?q=place_id:ChIJl00TqJSvEmsRQEj2n6RUBJU",
    "rating": 4.2,
    "total_ratings": 166
  },
  {
    "name": "Anytime Fitness Northbridge",
    "address": "135 Sailors Bay Rd, Northbridge",
    "suburb": "Chatswood",
    "state": "NSW",
    "lat": -33.8105556,
    "lng": 151.2102778,
    "place_id": "ChIJ7XCRh7WuEmsRtIKOBPFA69c",
    "maps_url": "https://www.google.com/maps/place/?q=place_id:ChIJ7XCRh7WuEmsRtIKOBPFA69c",
    "rating": 4.8,
    "total_ratings": 224
  },
  {
    "name": "Plus Fitness 24/7 Drummoyne",
    "address": "Unit 5/150 Victoria Rd, Drummoyne",
    "suburb": "Chatswood",
    "state": "NSW",
    "lat": -33.8523108,
    "lng": 151.1560226,
    "place_id": "ChIJxZZ4o5OvEmsRqASFZ81y8To",
    "maps_url": "https://www.google.com/maps/place/?q=place_id:ChIJxZZ4o5OvEmsRqASFZ81y8To",
    "rating": 4.7,
    "total_ratings": 153
  },
  {
    "name": "Anytime Fitness North Rocks",
    "address": "328-336 N Rocks Rd, North Rocks",
    "suburb": "Hornsby",
    "state": "NSW",
    "lat": -33.7688449,
    "lng": 151.0298149,
    "place_id": "ChIJUe-IQeSjEmsRw_F_NPt3do8",
    "maps_url": "https://www.google.com/maps/place/?q=place_id:ChIJUe-IQeSjEmsRw_F_NPt3do8",
    "rating": 4.7,
    "total_ratings": 432
  },
  {
    "name": "Anytime Fitness Epping",
    "address": "119-121 Midson Rd, Epping",
    "suburb": "Hornsby",
    "state": "NSW",
    "lat": -33.7756133,
    "lng": 151.0714832,
    "place_id": "ChIJZyzSxSGkEmsRsCFKLQ6PJqA",
    "maps_url": "https://www.google.com/maps/place/?q=place_id:ChIJZyzSxSGkEmsRsCFKLQ6PJqA",
    "rating": 4.2,
    "total_ratings": 224
  },
  {
    "name": "Snap Fitness 24/7 Dural",
    "address": "Units 3 & 4, 256/258 New Line Rd, Dural",
    "suburb": "Hornsby",
    "state": "NSW",
    "lat": -33.7004147,
    "lng": 151.028326,
    "place_id": "ChIJ7aoPyyehEmsREVCdUZKWrI0",
    "maps_url": "https://www.google.com/maps/place/?q=place_id:ChIJ7aoPyyehEmsREVCdUZKWrI0",
    "rating": 4.7,
    "total_ratings": 164
  },
  {
    "name": "Plus Fitness 24/7 Thornleigh",
    "address": "14/2-10 Central Ave, Thornleigh",
    "suburb": "Hornsby",
    "state": "NSW",
    "lat": -33.73002330000001,
    "lng": 151.0822119,
    "place_id": "ChIJccVKwRynEmsRui2zWh9IItY",
    "maps_url": "https://www.google.com/maps/place/?q=place_id:ChIJccVKwRynEmsRui2zWh9IItY",
    "rating": 4.6,
    "total_ratings": 145
  },
  {
    "name": "Snap Fitness 24/7 Beecroft",
    "address": "4 Hannah St, Beecroft",
    "suburb": "Hornsby",
    "state": "NSW",
    "lat": -33.7490781,
    "lng": 151.0659516,
    "place_id": "ChIJNQ6rUMmnEmsR1tMHPtbXA-c",
    "maps_url": "https://www.google.com/maps/place/?q=place_id:ChIJNQ6rUMmnEmsR1tMHPtbXA-c",
    "rating": 4.9,
    "total_ratings": 168
  },
  {
    "name": "Hornsby 24/7 Gym",
    "address": "100/102 George St, Hornsby",
    "suburb": "Hornsby",
    "state": "NSW",
    "lat": -33.702187,
    "lng": 151.0997078,
    "place_id": "ChIJ2-vdz4anEmsRFM-qqODOsNc",
    "maps_url": "https://www.google.com/maps/place/?q=place_id:ChIJ2-vdz4anEmsRFM-qqODOsNc",
    "rating": 4,
    "total_ratings": 102
  },
  {
    "name": "Anytime Fitness Mount Colah",
    "address": "533 Pacific Hwy, Mount Colah",
    "suburb": "Hornsby",
    "state": "NSW",
    "lat": -33.676775,
    "lng": 151.112008,
    "place_id": "ChIJWfBqO_FZDWsRNZOlhFwEX1g",
    "maps_url": "https://www.google.com/maps/place/?q=place_id:ChIJWfBqO_FZDWsRNZOlhFwEX1g",
    "rating": 4.2,
    "total_ratings": 54
  },
  {
    "name": "Anytime Fitness Pymble",
    "address": "107 Grandview St, Pymble",
    "suburb": "Hornsby",
    "state": "NSW",
    "lat": -33.74409,
    "lng": 151.1413015,
    "place_id": "ChIJ6e5as3ioEmsReXOB5iyiw00",
    "maps_url": "https://www.google.com/maps/place/?q=place_id:ChIJ6e5as3ioEmsReXOB5iyiw00",
    "rating": 3.8,
    "total_ratings": 108
  },
  {
    "name": "Anytime Fitness Dural",
    "address": "5 & 6, 14/288 New Line Rd, Dural",
    "suburb": "Hornsby",
    "state": "NSW",
    "lat": -33.6961678,
    "lng": 151.0319838,
    "place_id": "ChIJTRgCgLmgEmsR8-gYyMsX-g0",
    "maps_url": "https://www.google.com/maps/place/?q=place_id:ChIJTRgCgLmgEmsR8-gYyMsX-g0",
    "rating": 4.7,
    "total_ratings": 273
  },
  {
    "name": "Plus Fitness 24/7 Epping",
    "address": "40 Beecroft Rd, Epping",
    "suburb": "Hornsby",
    "state": "NSW",
    "lat": -33.7735809,
    "lng": 151.0817596,
    "place_id": "ChIJB07dM52mEmsRkoI51B1rz_k",
    "maps_url": "https://www.google.com/maps/place/?q=place_id:ChIJB07dM52mEmsRkoI51B1rz_k",
    "rating": 3.8,
    "total_ratings": 308
  },
  {
    "name": "Plus Fitness 24/7 Hornsby",
    "address": "310 Peats Ferry Rd, Hornsby",
    "suburb": "Hornsby",
    "state": "NSW",
    "lat": -33.698558,
    "lng": 151.0980517,
    "place_id": "ChIJpV_4v4CnEmsRsAZX5PsXdMQ",
    "maps_url": "https://www.google.com/maps/place/?q=place_id:ChIJpV_4v4CnEmsRsAZX5PsXdMQ",
    "rating": 4.4,
    "total_ratings": 114
  },
  {
    "name": "Plus Fitness 24/7 Carlingford",
    "address": "2 & 3/639-641 Pennant Hills Rd, Carlingford",
    "suburb": "Hornsby",
    "state": "NSW",
    "lat": -33.7635677,
    "lng": 151.0480591,
    "place_id": "ChIJYyY-JKumEmsRYfJHI5CgNec",
    "maps_url": "https://www.google.com/maps/place/?q=place_id:ChIJYyY-JKumEmsRYfJHI5CgNec",
    "rating": 4.2,
    "total_ratings": 119
  },
  {
    "name": "Plus Fitness 24/7 Lindfield",
    "address": "Ground Floor, 368-370 Pacific Hwy, Lindfield",
    "suburb": "Hornsby",
    "state": "NSW",
    "lat": -33.7744386,
    "lng": 151.1677195,
    "place_id": "ChIJb8hmaXepEmsR1od97_s2nKQ",
    "maps_url": "https://www.google.com/maps/place/?q=place_id:ChIJb8hmaXepEmsR1od97_s2nKQ",
    "rating": 4.7,
    "total_ratings": 107
  },
  {
    "name": "Plus Fitness 24/7 Dural",
    "address": "5/829 Old Northern Rd, Dural",
    "suburb": "Hornsby",
    "state": "NSW",
    "lat": -33.6949958,
    "lng": 151.032628,
    "place_id": "ChIJfdyyubugEmsRw39pXKPSr2I",
    "maps_url": "https://www.google.com/maps/place/?q=place_id:ChIJfdyyubugEmsRw39pXKPSr2I",
    "rating": 4,
    "total_ratings": 56
  },
  {
    "name": "Anytime Fitness Killara",
    "address": "692B-694 Pacific Hwy, Killara",
    "suburb": "Hornsby",
    "state": "NSW",
    "lat": -33.7630635,
    "lng": 151.1550192,
    "place_id": "ChIJ4wG0LQCpEmsRHKdMSwb6bkE",
    "maps_url": "https://www.google.com/maps/place/?q=place_id:ChIJ4wG0LQCpEmsRHKdMSwb6bkE",
    "rating": 4.9,
    "total_ratings": 183
  },
  {
    "name": "Plus Fitness 24/7 Turramurra",
    "address": "27A Rohini Street Cnr Gilroy Road &, Gilroy Ln, Turramurra",
    "suburb": "Hornsby",
    "state": "NSW",
    "lat": -33.7319809,
    "lng": 151.1293459,
    "place_id": "ChIJLZLJN9unEmsRmNkPfWouxzY",
    "maps_url": "https://www.google.com/maps/place/?q=place_id:ChIJLZLJN9unEmsRmNkPfWouxzY",
    "rating": 4.5,
    "total_ratings": 169
  },
  {
    "name": "Anytime Fitness Cromer",
    "address": "9/4-10 Inman Rd, Cromer",
    "suburb": "Manly",
    "state": "NSW",
    "lat": -33.7390421,
    "lng": 151.2872071,
    "place_id": "ChIJ5bp0wCJVDWsRiF4jly_3Phw",
    "maps_url": "https://www.google.com/maps/place/?q=place_id:ChIJ5bp0wCJVDWsRiF4jly_3Phw",
    "rating": 5,
    "total_ratings": 306
  },
  {
    "name": "Anytime Fitness Crows Nest",
    "address": "104/106 Alexander St, Crows Nest",
    "suburb": "Manly",
    "state": "NSW",
    "lat": -33.8246497,
    "lng": 151.2024353,
    "place_id": "ChIJOaoSTUCvEmsRvWahJs70s5s",
    "maps_url": "https://www.google.com/maps/place/?q=place_id:ChIJOaoSTUCvEmsRvWahJs70s5s",
    "rating": 5,
    "total_ratings": 29
  },
  {
    "name": "Anytime Fitness Chatswood East",
    "address": "Chatswood East, 372 Eastern Valley Way, Chatswood",
    "suburb": "Manly",
    "state": "NSW",
    "lat": -33.7850681,
    "lng": 151.2003008,
    "place_id": "ChIJ_4RhBbupEmsRKXXyoS9WP8c",
    "maps_url": "https://www.google.com/maps/place/?q=place_id:ChIJ_4RhBbupEmsRKXXyoS9WP8c",
    "rating": 4.8,
    "total_ratings": 100
  },
  {
    "name": "Lyf 24/7 North Sydney",
    "address": "2/76 Berry St, North Sydney",
    "suburb": "Manly",
    "state": "NSW",
    "lat": -33.8367167,
    "lng": 151.2089402,
    "place_id": "ChIJDSjWaKavEmsRovMCbtOAgK8",
    "maps_url": "https://www.google.com/maps/place/?q=place_id:ChIJDSjWaKavEmsRovMCbtOAgK8",
    "rating": 4.7,
    "total_ratings": 52
  },
  {
    "name": "Anytime Fitness Auburn",
    "address": "Shops 29-32 57/59 Queen St, Auburn",
    "suburb": "Parramatta",
    "state": "NSW",
    "lat": -33.8501169,
    "lng": 151.0317886,
    "place_id": "ChIJoQK7ErG8EmsRdu-Xm7Gghac",
    "maps_url": "https://www.google.com/maps/place/?q=place_id:ChIJoQK7ErG8EmsRdu-Xm7Gghac",
    "rating": 3.2,
    "total_ratings": 258
  },
  {
    "name": "Anytime Fitness Wentworth Point",
    "address": "409/5 Footbridge Boulevard Marina Square Shopping Centre, Wentworth Point",
    "suburb": "Parramatta",
    "state": "NSW",
    "lat": -33.8253858,
    "lng": 151.0786488,
    "place_id": "ChIJEUlfZxOlEmsR6O4rcxKGF_Q",
    "maps_url": "https://www.google.com/maps/place/?q=place_id:ChIJEUlfZxOlEmsR6O4rcxKGF_Q",
    "rating": 4.3,
    "total_ratings": 365
  },
  {
    "name": "Anytime Fitness North Parramatta",
    "address": "7/9 Victoria Rd, Parramatta",
    "suburb": "Parramatta",
    "state": "NSW",
    "lat": -33.8089356,
    "lng": 151.0066421,
    "place_id": "ChIJM-6AmByjEmsRyyI99YnMqm8",
    "maps_url": "https://www.google.com/maps/place/?q=place_id:ChIJM-6AmByjEmsRyyI99YnMqm8",
    "rating": 3.9,
    "total_ratings": 235
  },
  {
    "name": "Anytime Fitness Baulkham Hills",
    "address": "21-23 Old Northern Rd, Baulkham Hills",
    "suburb": "Parramatta",
    "state": "NSW",
    "lat": -33.7587133,
    "lng": 150.9931528,
    "place_id": "ChIJI-a76i6iEmsRjHj7q7_hLgg",
    "maps_url": "https://www.google.com/maps/place/?q=place_id:ChIJI-a76i6iEmsRjHj7q7_hLgg",
    "rating": 4.7,
    "total_ratings": 580
  },
  {
    "name": "Anytime Fitness North Strathfield",
    "address": "13 George St, North Strathfield",
    "suburb": "Parramatta",
    "state": "NSW",
    "lat": -33.860607,
    "lng": 151.0875385,
    "place_id": "ChIJp3L5gyy7EmsR3xFPRJl3RdE",
    "maps_url": "https://www.google.com/maps/place/?q=place_id:ChIJp3L5gyy7EmsR3xFPRJl3RdE",
    "rating": 4.1,
    "total_ratings": 441
  },
  {
    "name": "Anytime Fitness West Ryde",
    "address": "998 Victoria Rd, West Ryde",
    "suburb": "Parramatta",
    "state": "NSW",
    "lat": -33.8075954,
    "lng": 151.0871993,
    "place_id": "ChIJvxXc71GkEmsR4AphvXEoz7Q",
    "maps_url": "https://www.google.com/maps/place/?q=place_id:ChIJvxXc71GkEmsR4AphvXEoz7Q",
    "rating": 4.4,
    "total_ratings": 726
  },
  {
    "name": "Anytime Fitness Granville",
    "address": "L103/35 East St, Granville",
    "suburb": "Parramatta",
    "state": "NSW",
    "lat": -33.8321994,
    "lng": 151.0128371,
    "place_id": "ChIJVSebjx2jEmsRPJ77O8KMHXE",
    "maps_url": "https://www.google.com/maps/place/?q=place_id:ChIJVSebjx2jEmsRPJ77O8KMHXE",
    "rating": 4.3,
    "total_ratings": 192
  },
  {
    "name": "Snap Fitness 24/7 Auburn",
    "address": "61/71 Queen St, Auburn",
    "suburb": "Parramatta",
    "state": "NSW",
    "lat": -33.8486591,
    "lng": 151.0303669,
    "place_id": "ChIJuc1T7nW9EmsRHmtySSZVDfI",
    "maps_url": "https://www.google.com/maps/place/?q=place_id:ChIJuc1T7nW9EmsRHmtySSZVDfI",
    "rating": 4,
    "total_ratings": 156
  },
  {
    "name": "Snap Fitness 24/7 Concord West",
    "address": "19 Victoria Ave, Concord West",
    "suburb": "Parramatta",
    "state": "NSW",
    "lat": -33.847806,
    "lng": 151.0870698,
    "place_id": "ChIJvf-m0ValEmsRWYlcLIxNWQc",
    "maps_url": "https://www.google.com/maps/place/?q=place_id:ChIJvf-m0ValEmsRWYlcLIxNWQc",
    "rating": 4.9,
    "total_ratings": 349
  },
  {
    "name": "Anytime Fitness Winston Hills",
    "address": "53 Buckleys Rd, Winston Hills",
    "suburb": "Parramatta",
    "state": "NSW",
    "lat": -33.7757871,
    "lng": 150.9678686,
    "place_id": "ChIJ5zivmm-iEmsRKdFRKu23yek",
    "maps_url": "https://www.google.com/maps/place/?q=place_id:ChIJ5zivmm-iEmsRKdFRKu23yek",
    "rating": 4.7,
    "total_ratings": 380
  },
  {
    "name": "Anytime Fitness Toongabbie",
    "address": "Portico Plaza, Shop G4 Junia Ave, Toongabbie",
    "suburb": "Parramatta",
    "state": "NSW",
    "lat": -33.7874679,
    "lng": 150.9490113,
    "place_id": "ChIJmYrkW3mYEmsRQfJP2YB0VXM",
    "maps_url": "https://www.google.com/maps/place/?q=place_id:ChIJmYrkW3mYEmsRQfJP2YB0VXM",
    "rating": 4.2,
    "total_ratings": 367
  },
  {
    "name": "Anytime Fitness Newington / Silverwater",
    "address": "Park Sydney Australia, 44/2 Slough Ave, Newington",
    "suburb": "Parramatta",
    "state": "NSW",
    "lat": -33.8314937,
    "lng": 151.0502293,
    "place_id": "ChIJSWWvA6GkEmsRd04p_MLs53Y",
    "maps_url": "https://www.google.com/maps/place/?q=place_id:ChIJSWWvA6GkEmsRd04p_MLs53Y",
    "rating": 3.9,
    "total_ratings": 209
  },
  {
    "name": "Snap Fitness 24/7 Merrylands",
    "address": "Unit 1/280 Merrylands Rd, Merrylands",
    "suburb": "Parramatta",
    "state": "NSW",
    "lat": -33.8360489,
    "lng": 150.9860717,
    "place_id": "ChIJcYUvDLq9EmsRyjBh9Y10qow",
    "maps_url": "https://www.google.com/maps/place/?q=place_id:ChIJcYUvDLq9EmsRyjBh9Y10qow",
    "rating": 4.1,
    "total_ratings": 163
  },
  {
    "name": "Anytime Fitness Parramatta South",
    "address": "39 Cowper St, Parramatta",
    "suburb": "Parramatta",
    "state": "NSW",
    "lat": -33.8198173,
    "lng": 151.0066097,
    "place_id": "ChIJvw8N1iOjEmsRZD9Ts9r5fnI",
    "maps_url": "https://www.google.com/maps/place/?q=place_id:ChIJvw8N1iOjEmsRZD9Ts9r5fnI",
    "rating": 4.3,
    "total_ratings": 459
  },
  {
    "name": "Plus Fitness 24/7 Parramatta",
    "address": "181 Macquarie St, Parramatta",
    "suburb": "Parramatta",
    "state": "NSW",
    "lat": -33.8165357,
    "lng": 151.0089191,
    "place_id": "ChIJeQMBYhijEmsRZ9qFvHyl_Cw",
    "maps_url": "https://www.google.com/maps/place/?q=place_id:ChIJeQMBYhijEmsRZ9qFvHyl_Cw",
    "rating": 4.3,
    "total_ratings": 329
  },
  {
    "name": "Anytime Fitness Kings Park",
    "address": "1/152 Sunnyholt Rd, Kings Park",
    "suburb": "Parramatta",
    "state": "NSW",
    "lat": -33.7522201,
    "lng": 150.9148101,
    "place_id": "ChIJg83_it2YEmsRJF0jUQ8T7yE",
    "maps_url": "https://www.google.com/maps/place/?q=place_id:ChIJg83_it2YEmsRJF0jUQ8T7yE",
    "rating": 4.4,
    "total_ratings": 284
  },
  {
    "name": "Anytime Fitness Wentworthville",
    "address": "326 Great Western Hwy, Wentworthville",
    "suburb": "Parramatta",
    "state": "NSW",
    "lat": -33.815463,
    "lng": 150.971638,
    "place_id": "ChIJ8w99frmiEmsRQig2EDsDq3U",
    "maps_url": "https://www.google.com/maps/place/?q=place_id:ChIJ8w99frmiEmsRQig2EDsDq3U",
    "rating": 4.3,
    "total_ratings": 494
  },
  {
    "name": "Plus Fitness 24/7 Westmead",
    "address": "Shop 1/181-183 Great Western Hwy, Mays Hill",
    "suburb": "Parramatta",
    "state": "NSW",
    "lat": -33.8196952,
    "lng": 150.9866468,
    "place_id": "ChIJDe1mfwGjEmsR3urThnLwFxs",
    "maps_url": "https://www.google.com/maps/place/?q=place_id:ChIJDe1mfwGjEmsR3urThnLwFxs",
    "rating": 3.9,
    "total_ratings": 140
  },
  {
    "name": "Plus Fitness 24/7 Merrylands West",
    "address": "Shop 3/23-27 Paton St, Merrylands",
    "suburb": "Parramatta",
    "state": "NSW",
    "lat": -33.8346092,
    "lng": 150.9678742,
    "place_id": "ChIJLaDWTvO9EmsRCVx0hxqlZfk",
    "maps_url": "https://www.google.com/maps/place/?q=place_id:ChIJLaDWTvO9EmsRCVx0hxqlZfk",
    "rating": 4.7,
    "total_ratings": 321
  },
  {
    "name": "Strive Fitness Parramatta",
    "address": "110-112 Church St, Parramatta",
    "suburb": "Parramatta",
    "state": "NSW",
    "lat": -33.8187265,
    "lng": 151.0039403,
    "place_id": "ChIJPV4ARZGjEmsRTetGjPt_AnU",
    "maps_url": "https://www.google.com/maps/place/?q=place_id:ChIJPV4ARZGjEmsRTetGjPt_AnU",
    "rating": 4.6,
    "total_ratings": 682
  },
  {
    "name": "Plus Fitness 24/7 Eastwood",
    "address": "570 Blaxland Rd, Eastwood",
    "suburb": "Parramatta",
    "state": "NSW",
    "lat": -33.7909393,
    "lng": 151.0867004,
    "place_id": "ChIJ1Z2CczmkEmsR3MJaNG-c9KE",
    "maps_url": "https://www.google.com/maps/place/?q=place_id:ChIJ1Z2CczmkEmsR3MJaNG-c9KE",
    "rating": 4,
    "total_ratings": 256
  },
  {
    "name": "Anytime Fitness Fairfield East",
    "address": "6/708 Woodville Rd, Fairfield East",
    "suburb": "Parramatta",
    "state": "NSW",
    "lat": -33.8710809,
    "lng": 150.9842036,
    "place_id": "ChIJ7xZZvAm9EmsRBzQFOlyr51s",
    "maps_url": "https://www.google.com/maps/place/?q=place_id:ChIJ7xZZvAm9EmsRBzQFOlyr51s",
    "rating": 4.7,
    "total_ratings": 556
  },
  {
    "name": "Snap Fitness 24/7 Fairfield NSW",
    "address": "Forum, 8, Shop 15A/36 Station St, Fairfield",
    "suburb": "Parramatta",
    "state": "NSW",
    "lat": -33.8682794,
    "lng": 150.9534021,
    "place_id": "ChIJt__MQCqWEmsRpkNX7jvAOuc",
    "maps_url": "https://www.google.com/maps/place/?q=place_id:ChIJt__MQCqWEmsRpkNX7jvAOuc",
    "rating": 4.6,
    "total_ratings": 253
  },
  {
    "name": "Plus Fitness 24/7 Guildford West",
    "address": "323 Guildford Rd, Guildford",
    "suburb": "Parramatta",
    "state": "NSW",
    "lat": -33.8539052,
    "lng": 150.9861342,
    "place_id": "ChIJx-NntRe9EmsR4nZKO65GpLE",
    "maps_url": "https://www.google.com/maps/place/?q=place_id:ChIJx-NntRe9EmsR4nZKO65GpLE",
    "rating": 4.3,
    "total_ratings": 228
  },
  {
    "name": "Plus Fitness 24/7 Sefton",
    "address": "72 Ferndell St, South Granville",
    "suburb": "Parramatta",
    "state": "NSW",
    "lat": -33.871746,
    "lng": 151.006958,
    "place_id": "ChIJ6ZZ9hfu8EmsRV_9Olo2fmCM",
    "maps_url": "https://www.google.com/maps/place/?q=place_id:ChIJ6ZZ9hfu8EmsRV_9Olo2fmCM",
    "rating": 4.3,
    "total_ratings": 147
  },
  {
    "name": "Anytime Fitness Fairfield West",
    "address": "366 Hamilton Rd, Fairfield West",
    "suburb": "Parramatta",
    "state": "NSW",
    "lat": -33.8689636,
    "lng": 150.9236994,
    "place_id": "ChIJuTDOWSWWEmsRkbYE5dfIp4c",
    "maps_url": "https://www.google.com/maps/place/?q=place_id:ChIJuTDOWSWWEmsRkbYE5dfIp4c",
    "rating": 4.6,
    "total_ratings": 665
  },
  {
    "name": "Plus Fitness 24/7 North Parramatta Victoria Rd",
    "address": "Shop9/20c Victoria Rd, North Parramatta",
    "suburb": "Parramatta",
    "state": "NSW",
    "lat": -33.8081211,
    "lng": 151.0065503,
    "place_id": "ChIJzbTOC9yjEmsRB-c_U8CbPqw",
    "maps_url": "https://www.google.com/maps/place/?q=place_id:ChIJzbTOC9yjEmsRB-c_U8CbPqw",
    "rating": 4.8,
    "total_ratings": 104
  },
  {
    "name": "Plus Fitness 24/7 Rydalmere",
    "address": "275 Victoria Rd, Rydalmere",
    "suburb": "Parramatta",
    "state": "NSW",
    "lat": -33.8115463,
    "lng": 151.0341491,
    "place_id": "ChIJ_RU4inCjEmsRJezLY1nO-9A",
    "maps_url": "https://www.google.com/maps/place/?q=place_id:ChIJ_RU4inCjEmsRJezLY1nO-9A",
    "rating": 4.2,
    "total_ratings": 221
  },
  {
    "name": "Plus Fitness 24/7 Lidcombe",
    "address": "2/82 Parramatta Rd, Lidcombe",
    "suburb": "Parramatta",
    "state": "NSW",
    "lat": -33.8497734,
    "lng": 151.0510101,
    "place_id": "ChIJh3WcwVS7EmsRAtPJvqufDnQ",
    "maps_url": "https://www.google.com/maps/place/?q=place_id:ChIJh3WcwVS7EmsRAtPJvqufDnQ",
    "rating": 3.4,
    "total_ratings": 183
  },
  {
    "name": "Snap Fitness Olympic Park 24/7",
    "address": "3 Australia Ave, Sydney Olympic Park",
    "suburb": "Parramatta",
    "state": "NSW",
    "lat": -33.8478329,
    "lng": 151.0731761,
    "place_id": "ChIJZ1ZPpMmkEmsR1hgAB0eYI9o",
    "maps_url": "https://www.google.com/maps/place/?q=place_id:ChIJZ1ZPpMmkEmsR1hgAB0eYI9o",
    "rating": 4.5,
    "total_ratings": 172
  },
  {
    "name": "Anytime Fitness Blacktown",
    "address": "Shop, C1/14 St Martins Cres, Blacktown",
    "suburb": "Parramatta",
    "state": "NSW",
    "lat": -33.7800971,
    "lng": 150.9199772,
    "place_id": "ChIJ2TDHe1qYEmsRiKnheXIwrks",
    "maps_url": "https://www.google.com/maps/place/?q=place_id:ChIJ2TDHe1qYEmsRiKnheXIwrks",
    "rating": 4.5,
    "total_ratings": 245
  },
  {
    "name": "Plus Fitness 24/7 Chester Hill",
    "address": "79 Middleton Rd, Chester Hill",
    "suburb": "Parramatta",
    "state": "NSW",
    "lat": -33.8704123,
    "lng": 150.9858518,
    "place_id": "ChIJ-Q1eAAm9EmsR2zQP0mTvA1c",
    "maps_url": "https://www.google.com/maps/place/?q=place_id:ChIJ-Q1eAAm9EmsR2zQP0mTvA1c",
    "rating": 4.7,
    "total_ratings": 110
  },
  {
    "name": "Plus Fitness 24/7 Carramar",
    "address": "2 Laurel St, Carramar",
    "suburb": "Parramatta",
    "state": "NSW",
    "lat": -33.8850258,
    "lng": 150.9671408,
    "place_id": "ChIJvyuyqQq9EmsRduYBLAAXNUE",
    "maps_url": "https://www.google.com/maps/place/?q=place_id:ChIJvyuyqQq9EmsRduYBLAAXNUE",
    "rating": 4.5,
    "total_ratings": 54
  },
  {
    "name": "Plus Fitness 24/7 Homebush",
    "address": "shop 1/9-21 Hillcrest St, Homebush",
    "suburb": "Parramatta",
    "state": "NSW",
    "lat": -33.862316,
    "lng": 151.0793941,
    "place_id": "ChIJ7SQ4PT-7EmsRPKVfOo7JSDM",
    "maps_url": "https://www.google.com/maps/place/?q=place_id:ChIJ7SQ4PT-7EmsRPKVfOo7JSDM",
    "rating": 3.9,
    "total_ratings": 205
  },
  {
    "name": "Plus Fitness 24/7",
    "address": "75 Powers Rd, Seven Hills",
    "suburb": "Parramatta",
    "state": "NSW",
    "lat": -33.7747015,
    "lng": 150.9606574,
    "place_id": "ChIJW5d234OYEmsRAHh9db4-aTc",
    "maps_url": "https://www.google.com/maps/place/?q=place_id:ChIJW5d234OYEmsRAHh9db4-aTc",
    "rating": 4.5,
    "total_ratings": 308
  },
  {
    "name": "Plus Fitness 24/7 Granville",
    "address": "41 Berry St, Clyde",
    "suburb": "Parramatta",
    "state": "NSW",
    "lat": -33.8338208,
    "lng": 151.0186853,
    "place_id": "ChIJJwNAzzajEmsR7hf1ntEnN9A",
    "maps_url": "https://www.google.com/maps/place/?q=place_id:ChIJJwNAzzajEmsR7hf1ntEnN9A",
    "rating": 4,
    "total_ratings": 276
  },
  {
    "name": "Plus Fitness 24/7 Wentworthville",
    "address": "Level 1/73-75 Dunmore St, Wentworthville",
    "suburb": "Parramatta",
    "state": "NSW",
    "lat": -33.807178,
    "lng": 150.9698462,
    "place_id": "ChIJJdOMIpaiEmsRh7hcz96rcGk",
    "maps_url": "https://www.google.com/maps/place/?q=place_id:ChIJJdOMIpaiEmsRh7hcz96rcGk",
    "rating": 3.3,
    "total_ratings": 179
  },
  {
    "name": "Plus Fitness 24/7 Northmead",
    "address": "201 Windsor Rd, Northmead",
    "suburb": "Parramatta",
    "state": "NSW",
    "lat": -33.7772164,
    "lng": 151.0011204,
    "place_id": "ChIJscM3KLWjEmsRMhCz-Oyw1Hk",
    "maps_url": "https://www.google.com/maps/place/?q=place_id:ChIJscM3KLWjEmsRMhCz-Oyw1Hk",
    "rating": 4.3,
    "total_ratings": 191
  },
  {
    "name": "Anytime Fitness Parramatta Central",
    "address": "12 Union St, Parramatta",
    "suburb": "Parramatta",
    "state": "NSW",
    "lat": -33.8156283,
    "lng": 151.0097455,
    "place_id": "ChIJNQ09xvijEmsRyJ6B0mcxNGA",
    "maps_url": "https://www.google.com/maps/place/?q=place_id:ChIJNQ09xvijEmsRyJ6B0mcxNGA",
    "rating": 4.8,
    "total_ratings": 23
  },
  {
    "name": "Plus Fitness 24/7 Silverwater",
    "address": "1/28 Vore St, Silverwater",
    "suburb": "Parramatta",
    "state": "NSW",
    "lat": -33.8363941,
    "lng": 151.0444241,
    "place_id": "ChIJ2b1BGECjEmsRHUX2WENvgxA",
    "maps_url": "https://www.google.com/maps/place/?q=place_id:ChIJ2b1BGECjEmsRHUX2WENvgxA",
    "rating": 4.7,
    "total_ratings": 65
  },
  {
    "name": "Anytime Fitness Merrylands",
    "address": "Merrylands RSL, Roof Top Carpark, 12 Miller St, Merrylands",
    "suburb": "Parramatta",
    "state": "NSW",
    "lat": -33.8371745,
    "lng": 150.9905414,
    "place_id": "ChIJv7_x2y29EmsRFy4uWBFx8zc",
    "maps_url": "https://www.google.com/maps/place/?q=place_id:ChIJv7_x2y29EmsRFy4uWBFx8zc",
    "rating": 4.4,
    "total_ratings": 181
  },
  {
    "name": "Anytime Fitness Merrylands West",
    "address": "Shop 4,5 & 6, 33/37 Sherwood Rd, Merrylands West",
    "suburb": "Parramatta",
    "state": "NSW",
    "lat": -33.8347788,
    "lng": 150.9683733,
    "place_id": "ChIJs6TWG8e9EmsRqEAVaDKFEHc",
    "maps_url": "https://www.google.com/maps/place/?q=place_id:ChIJs6TWG8e9EmsRqEAVaDKFEHc",
    "rating": 4.3,
    "total_ratings": 37
  },
  {
    "name": "@Fitness Guildford",
    "address": "549 Woodville Rd, Guildford",
    "suburb": "Parramatta",
    "state": "NSW",
    "lat": -33.8612842,
    "lng": 150.9931104,
    "place_id": "ChIJvT48vBu9EmsRycL3Pe4fGKY",
    "maps_url": "https://www.google.com/maps/place/?q=place_id:ChIJvT48vBu9EmsRycL3Pe4fGKY",
    "rating": 4,
    "total_ratings": 43
  },
  {
    "name": "Planet Fitness",
    "address": "19 Stoddart Rd, Prospect",
    "suburb": "Parramatta",
    "state": "NSW",
    "lat": -33.8005848,
    "lng": 150.9200808,
    "place_id": "ChIJtxO50D-ZEmsREgmoOzm363E",
    "maps_url": "https://www.google.com/maps/place/?q=place_id:ChIJtxO50D-ZEmsREgmoOzm363E",
    "rating": 4.6,
    "total_ratings": 45
  },
  {
    "name": "Anytime Fitness Prospect (NSW)",
    "address": "4c/1 Rowood Rd, Prospect",
    "suburb": "Parramatta",
    "state": "NSW",
    "lat": -33.8012308,
    "lng": 150.9269162,
    "place_id": "ChIJKwjTenyZEmsRGWS2PqXeVQs",
    "maps_url": "https://www.google.com/maps/place/?q=place_id:ChIJKwjTenyZEmsRGWS2PqXeVQs",
    "rating": 4.7,
    "total_ratings": 151
  },
  {
    "name": "Lyf 24/7 Seven Hills",
    "address": "Shop 38B/224 Prospect Hwy, Seven Hills",
    "suburb": "Parramatta",
    "state": "NSW",
    "lat": -33.7757996,
    "lng": 150.931984,
    "place_id": "ChIJQ5tLeHKZEmsRtbEHzHKl9PA",
    "maps_url": "https://www.google.com/maps/place/?q=place_id:ChIJQ5tLeHKZEmsRtbEHzHKl9PA",
    "rating": 4.7,
    "total_ratings": 76
  },
  {
    "name": "World Gym North Parramatta",
    "address": "1 Windsor Rd, North Rocks",
    "suburb": "Parramatta",
    "state": "NSW",
    "lat": -33.7920818,
    "lng": 150.9993455,
    "place_id": "ChIJo3ZCNl6jEmsRDh-KbjaJ-3Y",
    "maps_url": "https://www.google.com/maps/place/?q=place_id:ChIJo3ZCNl6jEmsRDh-KbjaJ-3Y",
    "rating": 4.3,
    "total_ratings": 204
  },
  {
    "name": "Planet Fitness",
    "address": "300 Parramatta Rd, Auburn",
    "suburb": "Parramatta",
    "state": "NSW",
    "lat": -33.83905,
    "lng": 151.02851,
    "place_id": "ChIJzSmY5GqjEmsRvEveHrknol4",
    "maps_url": "https://www.google.com/maps/place/?q=place_id:ChIJzSmY5GqjEmsRvEveHrknol4",
    "rating": 4.2,
    "total_ratings": 455
  },
  {
    "name": "Anytime Fitness Castle Hill",
    "address": "7/10 Hudson Ave, Castle Hill",
    "suburb": "Blacktown",
    "state": "NSW",
    "lat": -33.7312587,
    "lng": 150.9735511,
    "place_id": "ChIJhQbIjuuhEmsRIO9wnlr8Seg",
    "maps_url": "https://www.google.com/maps/place/?q=place_id:ChIJhQbIjuuhEmsRIO9wnlr8Seg",
    "rating": 4.2,
    "total_ratings": 142
  },
  {
    "name": "Snap Fitness 24/7 Mount Druitt",
    "address": "14 Mount St, Mount Druitt",
    "suburb": "Blacktown",
    "state": "NSW",
    "lat": -33.7653195,
    "lng": 150.8252446,
    "place_id": "ChIJuXHxcJCbEmsRWwFhwzqOaO4",
    "maps_url": "https://www.google.com/maps/place/?q=place_id:ChIJuXHxcJCbEmsRWwFhwzqOaO4",
    "rating": 4.9,
    "total_ratings": 782
  },
  {
    "name": "Snap Fitness 24/7 Blacktown",
    "address": "92 Main St, Blacktown",
    "suburb": "Blacktown",
    "state": "NSW",
    "lat": -33.7704496,
    "lng": 150.909339,
    "place_id": "ChIJi3TT9OyZEmsREf8PDlh7DVg",
    "maps_url": "https://www.google.com/maps/place/?q=place_id:ChIJi3TT9OyZEmsREf8PDlh7DVg",
    "rating": 4.7,
    "total_ratings": 118
  },
  {
    "name": "Snap Fitness 24/7 Doonside",
    "address": "185 Knox Rd, Doonside",
    "suburb": "Blacktown",
    "state": "NSW",
    "lat": -33.7487727,
    "lng": 150.8671389,
    "place_id": "ChIJ81hiDg6ZEmsR5ls2LEvnBrA",
    "maps_url": "https://www.google.com/maps/place/?q=place_id:ChIJ81hiDg6ZEmsR5ls2LEvnBrA",
    "rating": 4.6,
    "total_ratings": 295
  },
  {
    "name": "Anytime Fitness Castle Hill Showground",
    "address": "Showground Village, Shop/18 Showground Rd, Castle Hill",
    "suburb": "Blacktown",
    "state": "NSW",
    "lat": -33.7270596,
    "lng": 150.9869504,
    "place_id": "ChIJUfNpr_ShEmsRC2eWarU4rIY",
    "maps_url": "https://www.google.com/maps/place/?q=place_id:ChIJUfNpr_ShEmsRC2eWarU4rIY",
    "rating": 4.5,
    "total_ratings": 13
  },
  {
    "name": "Snap Fitness 24/7 Marsden Park",
    "address": "2 Ultimo Pl, Marsden Park",
    "suburb": "Blacktown",
    "state": "NSW",
    "lat": -33.712258,
    "lng": 150.8430482,
    "place_id": "ChIJNSSQ5NqdEmsRSlFhB8gSIwM",
    "maps_url": "https://www.google.com/maps/place/?q=place_id:ChIJNSSQ5NqdEmsRSlFhB8gSIwM",
    "rating": 4.9,
    "total_ratings": 238
  },
  {
    "name": "Anytime Fitness Rooty Hill",
    "address": "Lot 2/12 Station St, Rooty Hill",
    "suburb": "Blacktown",
    "state": "NSW",
    "lat": -33.7700866,
    "lng": 150.8441499,
    "place_id": "ChIJvRf6iaSbEmsRSFqCdQczrBE",
    "maps_url": "https://www.google.com/maps/place/?q=place_id:ChIJvRf6iaSbEmsRSFqCdQczrBE",
    "rating": 4.7,
    "total_ratings": 75
  },
  {
    "name": "Snap Fitness 24/7 Beaumont Hills",
    "address": "Beaumont Village, Shop 15/70 The Pkwy, Beaumont Hills",
    "suburb": "Blacktown",
    "state": "NSW",
    "lat": -33.6983113,
    "lng": 150.9410189,
    "place_id": "ChIJmQcvhuKfEmsRKHDqwDyDibA",
    "maps_url": "https://www.google.com/maps/place/?q=place_id:ChIJmQcvhuKfEmsRKHDqwDyDibA",
    "rating": 4.8,
    "total_ratings": 243
  },
  {
    "name": "Anytime Fitness Quakers Hill",
    "address": "shop 4/216 Farnham Rd, Quakers Hill",
    "suburb": "Blacktown",
    "state": "NSW",
    "lat": -33.7272422,
    "lng": 150.9048804,
    "place_id": "ChIJ1c6jqtWeEmsRUJrcwQlj188",
    "maps_url": "https://www.google.com/maps/place/?q=place_id:ChIJ1c6jqtWeEmsRUJrcwQlj188",
    "rating": 4.1,
    "total_ratings": 210
  },
  {
    "name": "Plus Fitness 24/7 Colebee",
    "address": "88 Stonecutters Dr, Colebee",
    "suburb": "Blacktown",
    "state": "NSW",
    "lat": -33.7225537,
    "lng": 150.8640005,
    "place_id": "ChIJIwxwS5yZEmsR20XNIR5hE4k",
    "maps_url": "https://www.google.com/maps/place/?q=place_id:ChIJIwxwS5yZEmsR20XNIR5hE4k",
    "rating": 4.4,
    "total_ratings": 21
  },
  {
    "name": "Anytime Fitness Bella Vista",
    "address": "3/1-3 Meridian Pl, Bella Vista",
    "suburb": "Blacktown",
    "state": "NSW",
    "lat": -33.7344927,
    "lng": 150.9470845,
    "place_id": "ChIJQUXVQFGfEmsRnYKWQd3gyTE",
    "maps_url": "https://www.google.com/maps/place/?q=place_id:ChIJQUXVQFGfEmsRnYKWQd3gyTE",
    "rating": 3.9,
    "total_ratings": 185
  },
  {
    "name": "Anytime Fitness Marsden Park",
    "address": "near Anaconda and Rebel Sport, Home Co, 17/43 Hollinsworth Rd, Marsden Park",
    "suburb": "Blacktown",
    "state": "NSW",
    "lat": -33.7217514,
    "lng": 150.8427514,
    "place_id": "ChIJz_jBhY-bEmsR-qnA14JYzl4",
    "maps_url": "https://www.google.com/maps/place/?q=place_id:ChIJz_jBhY-bEmsR-qnA14JYzl4",
    "rating": 4.5,
    "total_ratings": 132
  },
  {
    "name": "Plus Fitness 24/7 Bella Vista",
    "address": "2.13/31 Lexington Dr, Bella Vista",
    "suburb": "Blacktown",
    "state": "NSW",
    "lat": -33.7334183,
    "lng": 150.9461986,
    "place_id": "ChIJBZLWE1GfEmsR5lHKvZaoqcM",
    "maps_url": "https://www.google.com/maps/place/?q=place_id:ChIJBZLWE1GfEmsR5lHKvZaoqcM",
    "rating": 3.2,
    "total_ratings": 108
  },
  {
    "name": "Anytime Fitness Kellyville",
    "address": "and, Cnr Severn Vale Dr, Memorial Ave, Kellyville",
    "suburb": "Blacktown",
    "state": "NSW",
    "lat": -33.7189137,
    "lng": 150.9544475,
    "place_id": "ChIJD2P-28KhEmsRdZARdVgnsr4",
    "maps_url": "https://www.google.com/maps/place/?q=place_id:ChIJD2P-28KhEmsRdZARdVgnsr4",
    "rating": 3.5,
    "total_ratings": 37
  },
  {
    "name": "Plus Fitness 24/7 Kings Park",
    "address": "2 Melissa Pl, Kings Park",
    "suburb": "Blacktown",
    "state": "NSW",
    "lat": -33.746829,
    "lng": 150.9085501,
    "place_id": "ChIJVwLnprCZEmsRFL_LCMGbsIw",
    "maps_url": "https://www.google.com/maps/place/?q=place_id:ChIJVwLnprCZEmsRFL_LCMGbsIw",
    "rating": 4.4,
    "total_ratings": 127
  },
  {
    "name": "Anytime Fitness Glendenning",
    "address": "6/197 Power St, Glendenning",
    "suburb": "Blacktown",
    "state": "NSW",
    "lat": -33.7524146,
    "lng": 150.8491544,
    "place_id": "ChIJ6Z8JCtKbEmsRevfm6N0p45U",
    "maps_url": "https://www.google.com/maps/place/?q=place_id:ChIJ6Z8JCtKbEmsRevfm6N0p45U",
    "rating": 4.7,
    "total_ratings": 474
  },
  {
    "name": "Plus Fitness 24/7 Arndell Park",
    "address": "LG1/69 Holbeche Rd, Arndell Park",
    "suburb": "Blacktown",
    "state": "NSW",
    "lat": -33.7895316,
    "lng": 150.8889132,
    "place_id": "ChIJW8vnKMGZEmsRzGNEY9Gnfjo",
    "maps_url": "https://www.google.com/maps/place/?q=place_id:ChIJW8vnKMGZEmsRzGNEY9Gnfjo",
    "rating": 4.1,
    "total_ratings": 163
  },
  {
    "name": "Anytime Fitness Mount Druitt",
    "address": "Shop Number Pad 3 Carlisle Ave, Mount Druitt",
    "suburb": "Blacktown",
    "state": "NSW",
    "lat": -33.765235,
    "lng": 150.8183209,
    "place_id": "ChIJb1Gn2F6aEmsR06pCCUpZyFM",
    "maps_url": "https://www.google.com/maps/place/?q=place_id:ChIJb1Gn2F6aEmsR06pCCUpZyFM",
    "rating": 4.6,
    "total_ratings": 463
  },
  {
    "name": "Plus Fitness 24/7 Mount Druitt",
    "address": "11d/6-10 Mount St, Mount Druitt",
    "suburb": "Blacktown",
    "state": "NSW",
    "lat": -33.7666118,
    "lng": 150.8253937,
    "place_id": "ChIJHZeetlyaEmsRvuYU2C8dSCg",
    "maps_url": "https://www.google.com/maps/place/?q=place_id:ChIJHZeetlyaEmsRvuYU2C8dSCg",
    "rating": 4,
    "total_ratings": 163
  },
  {
    "name": "Revo Fitness - Castle Hill",
    "address": "16-18 Victoria Ave, Castle Hill",
    "suburb": "Blacktown",
    "state": "NSW",
    "lat": -33.7280067,
    "lng": 150.975146,
    "place_id": "ChIJ64S6o-ChEmsRy2sNY2tAVFM",
    "maps_url": "https://www.google.com/maps/place/?q=place_id:ChIJ64S6o-ChEmsRy2sNY2tAVFM",
    "rating": 4.9,
    "total_ratings": 175
  },
  {
    "name": "Anytime Fitness Arndell Park",
    "address": "1 Holbeche Rd, Arndell Park",
    "suburb": "Blacktown",
    "state": "NSW",
    "lat": -33.7868364,
    "lng": 150.8734154,
    "place_id": "ChIJj4lsNvqZEmsREaQWl25VxD0",
    "maps_url": "https://www.google.com/maps/place/?q=place_id:ChIJj4lsNvqZEmsREaQWl25VxD0",
    "rating": 4.9,
    "total_ratings": 134
  },
  {
    "name": "Plus Fitness 24/7 Kellyville",
    "address": "1/25 Windsor Rd, Kellyville",
    "suburb": "Blacktown",
    "state": "NSW",
    "lat": -33.7126524,
    "lng": 150.9587237,
    "place_id": "ChIJG2_EizKgEmsRIJOvAPCTEyc",
    "maps_url": "https://www.google.com/maps/place/?q=place_id:ChIJG2_EizKgEmsRIJOvAPCTEyc",
    "rating": 3.8,
    "total_ratings": 130
  },
  {
    "name": "Plus Fitness 24/7 Eastern Creek",
    "address": "2A Southridge St, Eastern Creek",
    "suburb": "Blacktown",
    "state": "NSW",
    "lat": -33.8138331,
    "lng": 150.8428961,
    "place_id": "ChIJQ4mZ1L6QEmsRaid-DjBbpjg",
    "maps_url": "https://www.google.com/maps/place/?q=place_id:ChIJQ4mZ1L6QEmsRaid-DjBbpjg",
    "rating": 4.6,
    "total_ratings": 66
  },
  {
    "name": "Plus Fitness 24/7 Castle Hill",
    "address": "Super Centre North, Building - Shop 2/18 Victoria Ave, Castle Hill",
    "suburb": "Blacktown",
    "state": "NSW",
    "lat": -33.72651159999999,
    "lng": 150.97692,
    "place_id": "ChIJKeSE97mhEmsRtbsPTt0ApcE",
    "maps_url": "https://www.google.com/maps/place/?q=place_id:ChIJKeSE97mhEmsRtbsPTt0ApcE",
    "rating": 4.6,
    "total_ratings": 98
  },
  {
    "name": "24-7 Fitness - Blacktown (Westpoint)",
    "address": "34 Kildare Rd, Blacktown",
    "suburb": "Blacktown",
    "state": "NSW",
    "lat": -33.7690023,
    "lng": 150.9048833,
    "place_id": "ChIJTUZiXwCZEmsRTrZfJEVs_KU",
    "maps_url": "https://www.google.com/maps/place/?q=place_id:ChIJTUZiXwCZEmsRTrZfJEVs_KU",
    "rating": 4.5,
    "total_ratings": 292
  },
  {
    "name": "Plus Fitness 24/7 Blacktown",
    "address": "Level 1/40 Third Ave, Blacktown",
    "suburb": "Blacktown",
    "state": "NSW",
    "lat": -33.7654164,
    "lng": 150.9087004,
    "place_id": "ChIJ20Wk7v2YEmsR7PIsSsHuamo",
    "maps_url": "https://www.google.com/maps/place/?q=place_id:ChIJ20Wk7v2YEmsR7PIsSsHuamo",
    "rating": 4,
    "total_ratings": 193
  },
  {
    "name": "Plus Fitness 24/7 Minchinbury",
    "address": "M Centre, Lot 28/40 Sterling Rd, Minchinbury",
    "suburb": "Blacktown",
    "state": "NSW",
    "lat": -33.7815997,
    "lng": 150.8170483,
    "place_id": "ChIJ55wntGqbEmsRBdVQ4EUfpsw",
    "maps_url": "https://www.google.com/maps/place/?q=place_id:ChIJ55wntGqbEmsRBdVQ4EUfpsw",
    "rating": 4.3,
    "total_ratings": 106
  },
  {
    "name": "Elite Fitness",
    "address": "C 49/24-32 Lexington Dr, Bella Vista",
    "suburb": "Blacktown",
    "state": "NSW",
    "lat": -33.7343208,
    "lng": 150.9446445,
    "place_id": "ChIJues0elGfEmsRicIcQKfCMkU",
    "maps_url": "https://www.google.com/maps/place/?q=place_id:ChIJues0elGfEmsRicIcQKfCMkU",
    "rating": 3.8,
    "total_ratings": 107
  },
  {
    "name": "XGYM Castle Hill 24/7 Gym",
    "address": "5/9 Salisbury Rd, Castle Hill",
    "suburb": "Blacktown",
    "state": "NSW",
    "lat": -33.7292518,
    "lng": 150.9773357,
    "place_id": "ChIJ96LT6hyhEmsR78vXs7IA8Ww",
    "maps_url": "https://www.google.com/maps/place/?q=place_id:ChIJ96LT6hyhEmsR78vXs7IA8Ww",
    "rating": 5,
    "total_ratings": 225
  },
  {
    "name": "Anytime Fitness Stanhope Gardens",
    "address": "2 Sentry Dr, Stanhope Gardens",
    "suburb": "Blacktown",
    "state": "NSW",
    "lat": -33.717851,
    "lng": 150.9207309,
    "place_id": "ChIJ75n97K2fEmsRTY5sRv3ePa4",
    "maps_url": "https://www.google.com/maps/place/?q=place_id:ChIJ75n97K2fEmsRTY5sRv3ePa4",
    "rating": 4.8,
    "total_ratings": 130
  },
  {
    "name": "Transform 180 Fitness Centre",
    "address": "3 Rooty Hill Rd S, Rooty Hill",
    "suburb": "Blacktown",
    "state": "NSW",
    "lat": -33.7725491,
    "lng": 150.8446466,
    "place_id": "ChIJgyc0d76bEmsRhnf5QgXfMbc",
    "maps_url": "https://www.google.com/maps/place/?q=place_id:ChIJgyc0d76bEmsRhnf5QgXfMbc",
    "rating": 4.7,
    "total_ratings": 83
  },
  {
    "name": "Strive Fitness Marsden Park",
    "address": "861 Richmond Rd, Marsden Park",
    "suburb": "Blacktown",
    "state": "NSW",
    "lat": -33.7185859,
    "lng": 150.8453521,
    "place_id": "ChIJSUXc2_abEmsRZQK9rm7FwFE",
    "maps_url": "https://www.google.com/maps/place/?q=place_id:ChIJSUXc2_abEmsRZQK9rm7FwFE",
    "rating": 4.5,
    "total_ratings": 398
  },
  {
    "name": "Anytime Fitness Kingswood",
    "address": "64-68 Derby St, Kingswood",
    "suburb": "Penrith",
    "state": "NSW",
    "lat": -33.7613833,
    "lng": 150.7120193,
    "place_id": "ChIJDSDVUv6FEmsRZITWCGV-70Y",
    "maps_url": "https://www.google.com/maps/place/?q=place_id:ChIJDSDVUv6FEmsRZITWCGV-70Y",
    "rating": 4.6,
    "total_ratings": 68
  },
  {
    "name": "Anytime Fitness Werrington County",
    "address": "201 Dunheved Rd, Werrington County",
    "suburb": "Penrith",
    "state": "NSW",
    "lat": -33.7465171,
    "lng": 150.7403259,
    "place_id": "ChIJ0_jnK8KFEmsRYIWugo5vLwk",
    "maps_url": "https://www.google.com/maps/place/?q=place_id:ChIJ0_jnK8KFEmsRYIWugo5vLwk",
    "rating": 4.9,
    "total_ratings": 122
  },
  {
    "name": "24-7 Fitness Penrith (Westfield)",
    "address": "25 Station St, Penrith",
    "suburb": "Penrith",
    "state": "NSW",
    "lat": -33.7515028,
    "lng": 150.6954853,
    "place_id": "ChIJtxklIJSFEmsRDgAlguA_x9s",
    "maps_url": "https://www.google.com/maps/place/?q=place_id:ChIJtxklIJSFEmsRDgAlguA_x9s",
    "rating": 4.9,
    "total_ratings": 76
  },
  {
    "name": "Anytime Fitness St Marys",
    "address": "2/498-500 Great Western Hwy, St Marys",
    "suburb": "Penrith",
    "state": "NSW",
    "lat": -33.7702448,
    "lng": 150.7680664,
    "place_id": "ChIJ7VlfsayaEmsRDQFim-prvHQ",
    "maps_url": "https://www.google.com/maps/place/?q=place_id:ChIJ7VlfsayaEmsRDQFim-prvHQ",
    "rating": 4.4,
    "total_ratings": 228
  },
  {
    "name": "Snap Fitness 24/7 Cranebrook",
    "address": "Corner of Renshaw and, Level 1 & 2 (Building C), 111 Andrews Road, Laycock St, Cranebrook",
    "suburb": "Penrith",
    "state": "NSW",
    "lat": -33.7305679,
    "lng": 150.7059478,
    "place_id": "ChIJM-zjnrSFEmsRCuXr6QuDStI",
    "maps_url": "https://www.google.com/maps/place/?q=place_id:ChIJM-zjnrSFEmsRCuXr6QuDStI",
    "rating": 4.9,
    "total_ratings": 342
  },
  {
    "name": "Plus Fitness 24/7 Glenmore Park Gym",
    "address": "L04/11 Town Terrace, Glenmore Park",
    "suburb": "Penrith",
    "state": "NSW",
    "lat": -33.787352,
    "lng": 150.6689575,
    "place_id": "ChIJAwtAfNaIEmsRSDCXyRKnTlY",
    "maps_url": "https://www.google.com/maps/place/?q=place_id:ChIJAwtAfNaIEmsRSDCXyRKnTlY",
    "rating": 4.7,
    "total_ratings": 283
  },
  {
    "name": "Anytime Fitness Ropes Crossing",
    "address": "1/302 Wianamatta Pkwy, Ropes Crossing",
    "suburb": "Penrith",
    "state": "NSW",
    "lat": -33.7326271,
    "lng": 150.7769888,
    "place_id": "ChIJi-8q3yWbEmsRyv1xDazuI_I",
    "maps_url": "https://www.google.com/maps/place/?q=place_id:ChIJi-8q3yWbEmsRyv1xDazuI_I",
    "rating": 4.8,
    "total_ratings": 258
  },
  {
    "name": "Plus Fitness",
    "address": "Shop 5/564 High St, Penrith",
    "suburb": "Penrith",
    "state": "NSW",
    "lat": -33.7526466,
    "lng": 150.6929121,
    "place_id": "ChIJzdXEeMqIEmsRJMdI7w-lFFY",
    "maps_url": "https://www.google.com/maps/place/?q=place_id:ChIJzdXEeMqIEmsRJMdI7w-lFFY",
    "rating": 4.5,
    "total_ratings": 78
  },
  {
    "name": "Snap Fitness 24/7 Glenmore Park",
    "address": "92/98 Glenmore Ridge Dr, Glenmore Park",
    "suburb": "Penrith",
    "state": "NSW",
    "lat": -33.8015949,
    "lng": 150.6816364,
    "place_id": "ChIJCRlI-H-PEmsRSt5QVNZXXc0",
    "maps_url": "https://www.google.com/maps/place/?q=place_id:ChIJCRlI-H-PEmsRSt5QVNZXXc0",
    "rating": 4.9,
    "total_ratings": 239
  },
  {
    "name": "Anytime Fitness Jordan Springs",
    "address": "Woolworths Shopping Village, 1 Lakeside Parade, Jordan Springs",
    "suburb": "Penrith",
    "state": "NSW",
    "lat": -33.7276417,
    "lng": 150.7255966,
    "place_id": "ChIJmyXWxgOFEmsR7OGyxDcfG2E",
    "maps_url": "https://www.google.com/maps/place/?q=place_id:ChIJmyXWxgOFEmsR7OGyxDcfG2E",
    "rating": 4.6,
    "total_ratings": 126
  },
  {
    "name": "Plus Fitness 24/7 Caddens",
    "address": "68 O'Connell St, Caddens",
    "suburb": "Penrith",
    "state": "NSW",
    "lat": -33.7698898,
    "lng": 150.7350616,
    "place_id": "ChIJHVVXR0mPEmsRsmFC_uV1w1k",
    "maps_url": "https://www.google.com/maps/place/?q=place_id:ChIJHVVXR0mPEmsRsmFC_uV1w1k",
    "rating": 4.5,
    "total_ratings": 118
  },
  {
    "name": "Anytime Fitness Penrith",
    "address": "2/69 York Rd, South Penrith",
    "suburb": "Penrith",
    "state": "NSW",
    "lat": -33.7687968,
    "lng": 150.6876486,
    "place_id": "ChIJs2iC0FiPEmsRnyzvcErslGU",
    "maps_url": "https://www.google.com/maps/place/?q=place_id:ChIJs2iC0FiPEmsRnyzvcErslGU",
    "rating": 4.5,
    "total_ratings": 120
  },
  {
    "name": "Plus Fitness 24/7 St Marys",
    "address": "3/2-10 Gallipoli St, St Marys",
    "suburb": "Penrith",
    "state": "NSW",
    "lat": -33.7808288,
    "lng": 150.7703472,
    "place_id": "ChIJwY5dvQGQEmsR6LUfmOI3GLE",
    "maps_url": "https://www.google.com/maps/place/?q=place_id:ChIJwY5dvQGQEmsR6LUfmOI3GLE",
    "rating": 4.4,
    "total_ratings": 129
  },
  {
    "name": "Snap Fitness 24/7 Penrith",
    "address": "Shop C05/2 Lord Sheffield Cct, Penrith",
    "suburb": "Penrith",
    "state": "NSW",
    "lat": -33.7472509,
    "lng": 150.6952449,
    "place_id": "ChIJ4wYMhsaFEmsRmpUR1uwCH3I",
    "maps_url": "https://www.google.com/maps/place/?q=place_id:ChIJ4wYMhsaFEmsRmpUR1uwCH3I",
    "rating": 5,
    "total_ratings": 436
  },
  {
    "name": "Plus Fitness 24/7 Blaxland",
    "address": "7/6 Hope St, Blaxland",
    "suburb": "Penrith",
    "state": "NSW",
    "lat": -33.7447191,
    "lng": 150.6094503,
    "place_id": "ChIJPa9Qh3KIEmsRuqUm3VMGisE",
    "maps_url": "https://www.google.com/maps/place/?q=place_id:ChIJPa9Qh3KIEmsRuqUm3VMGisE",
    "rating": 4.4,
    "total_ratings": 90
  },
  {
    "name": "Planet Fitness",
    "address": "72-82 Mulgoa Rd, Penrith",
    "suburb": "Penrith",
    "state": "NSW",
    "lat": -33.7643187,
    "lng": 150.6829017,
    "place_id": "ChIJ9R0Bd6-PEmsRXo8uw7QEjTE",
    "maps_url": "https://www.google.com/maps/place/?q=place_id:ChIJ9R0Bd6-PEmsRXo8uw7QEjTE",
    "rating": 3.8,
    "total_ratings": 60
  },
  {
    "name": "Anytime Fitness Glenmore Park",
    "address": "Level 3/33 Town Terrace, Glenmore Park",
    "suburb": "Penrith",
    "state": "NSW",
    "lat": -33.7895117,
    "lng": 150.6687814,
    "place_id": "ChIJTdWqXfOJEmsR5sRN-Xc4HPk",
    "maps_url": "https://www.google.com/maps/place/?q=place_id:ChIJTdWqXfOJEmsR5sRN-Xc4HPk",
    "rating": 5,
    "total_ratings": 90
  },
  {
    "name": "Plus Fitness 24/7 Cranebrook",
    "address": "5 Willett Cl, Cranebrook",
    "suburb": "Penrith",
    "state": "NSW",
    "lat": -33.7305938,
    "lng": 150.7045505,
    "place_id": "ChIJ1QTdngGFEmsRS7pRRG9Ff44",
    "maps_url": "https://www.google.com/maps/place/?q=place_id:ChIJ1QTdngGFEmsRS7pRRG9Ff44",
    "rating": 4.2,
    "total_ratings": 70
  },
  {
    "name": "Anytime Fitness Blaxland",
    "address": "78 St Johns Rd, Blaxland",
    "suburb": "Penrith",
    "state": "NSW",
    "lat": -33.7506713,
    "lng": 150.6062128,
    "place_id": "ChIJS5B-R2uIEmsRP0zlLAtACe4",
    "maps_url": "https://www.google.com/maps/place/?q=place_id:ChIJS5B-R2uIEmsRP0zlLAtACe4",
    "rating": 4.7,
    "total_ratings": 101
  },
  {
    "name": "Empowa Health & Wellness 24/7",
    "address": "Corner Queen St, 251 Queen St, Great Western Hwy, St Marys",
    "suburb": "Penrith",
    "state": "NSW",
    "lat": -33.7697049,
    "lng": 150.7732225,
    "place_id": "ChIJZQvoaZybEmsRE3h8edBL6wc",
    "maps_url": "https://www.google.com/maps/place/?q=place_id:ChIJZQvoaZybEmsRE3h8edBL6wc",
    "rating": null,
    "total_ratings": 0
  },
  {
    "name": "Revolutions Health & Fitness Centre",
    "address": "85A Great Western Hwy, Emu Plains",
    "suburb": "Penrith",
    "state": "NSW",
    "lat": -33.7464602,
    "lng": 150.6742533,
    "place_id": "ChIJUbI0UgeGEmsR-83Q7csYoXw",
    "maps_url": "https://www.google.com/maps/place/?q=place_id:ChIJUbI0UgeGEmsR-83Q7csYoXw",
    "rating": 4.8,
    "total_ratings": 134
  },
  {
    "name": "Club Lime Penrith",
    "address": "103-109 Henry St, Penrith",
    "suburb": "Penrith",
    "state": "NSW",
    "lat": -33.7521883,
    "lng": 150.6982848,
    "place_id": "ChIJSTLIsoyFEmsRwc4WEjb2rJ0",
    "maps_url": "https://www.google.com/maps/place/?q=place_id:ChIJSTLIsoyFEmsRwc4WEjb2rJ0",
    "rating": 4.1,
    "total_ratings": 129
  },
  {
    "name": "Atmosphere Health & Fitness Club",
    "address": "16-19 Lambridge Pl, Penrith",
    "suburb": "Penrith",
    "state": "NSW",
    "lat": -33.7336746,
    "lng": 150.6973288,
    "place_id": "ChIJEZeGnsCFEmsRdfKaqZOGKDQ",
    "maps_url": "https://www.google.com/maps/place/?q=place_id:ChIJEZeGnsCFEmsRdfKaqZOGKDQ",
    "rating": 4.7,
    "total_ratings": 450
  },
  {
    "name": "NXTSET Health & Fitness - 24Hrs Ladies Area",
    "address": "Unit 9 , 524-526 The, Great Western Hwy, St Marys",
    "suburb": "Penrith",
    "state": "NSW",
    "lat": -33.7705116,
    "lng": 150.7657928,
    "place_id": "ChIJH7Iezd6FEmsRhlsItGx6LiM",
    "maps_url": "https://www.google.com/maps/place/?q=place_id:ChIJH7Iezd6FEmsRhlsItGx6LiM",
    "rating": 4.1,
    "total_ratings": 58
  },
  {
    "name": "Trainstation Gym 247",
    "address": "72/80 Queen St, St Marys",
    "suburb": "Penrith",
    "state": "NSW",
    "lat": -33.764711,
    "lng": 150.7747228,
    "place_id": "ChIJ7Rg1cbGaEmsRyZfRpVgaVk0",
    "maps_url": "https://www.google.com/maps/place/?q=place_id:ChIJ7Rg1cbGaEmsRyZfRpVgaVk0",
    "rating": 4.2,
    "total_ratings": 198
  },
  {
    "name": "Revolutions Health & Fitness Centre",
    "address": "47 Chapel St, St Marys",
    "suburb": "Penrith",
    "state": "NSW",
    "lat": -33.766648,
    "lng": 150.775095,
    "place_id": "ChIJNeJ3R6yaEmsRdI7t0DficoI",
    "maps_url": "https://www.google.com/maps/place/?q=place_id:ChIJNeJ3R6yaEmsRdI7t0DficoI",
    "rating": 4.5,
    "total_ratings": 317
  },
  {
    "name": "Anytime Fitness Moorebank",
    "address": "Brighton Lakes Recreation & Golf Club, 43 Brickmakers Dr, Moorebank",
    "suburb": "Liverpool",
    "state": "NSW",
    "lat": -33.9420418,
    "lng": 150.9574533,
    "place_id": "ChIJwU2hyoiVEmsRfGxgwqjf7r4",
    "maps_url": "https://www.google.com/maps/place/?q=place_id:ChIJwU2hyoiVEmsRfGxgwqjf7r4",
    "rating": 4.7,
    "total_ratings": 699
  },
  {
    "name": "Anytime Fitness",
    "address": "Westfield Liverpool, 6b/25 George St, Liverpool",
    "suburb": "Liverpool",
    "state": "NSW",
    "lat": -33.9201762,
    "lng": 150.9249495,
    "place_id": "ChIJQQ_4MseVEmsRnW3NG9qKLLk",
    "maps_url": "https://www.google.com/maps/place/?q=place_id:ChIJQQ_4MseVEmsRnW3NG9qKLLk",
    "rating": 4.5,
    "total_ratings": 428
  },
  {
    "name": "Anytime Fitness Bonnyrigg",
    "address": "38/100 Bonnyrigg Ave, Bonnyrigg",
    "suburb": "Liverpool",
    "state": "NSW",
    "lat": -33.8876592,
    "lng": 150.886884,
    "place_id": "ChIJwfTCZp6WEmsR5hEXaPuSYyY",
    "maps_url": "https://www.google.com/maps/place/?q=place_id:ChIJwfTCZp6WEmsR5hEXaPuSYyY",
    "rating": 4.5,
    "total_ratings": 279
  },
  {
    "name": "Anytime Fitness Edmondson Park",
    "address": "1956 Camden Valley Wy, Edmondson Park",
    "suburb": "Liverpool",
    "state": "NSW",
    "lat": -33.95421839999999,
    "lng": 150.857256,
    "place_id": "ChIJrZqVLFGTEmsRxMEfVp_VHyY",
    "maps_url": "https://www.google.com/maps/place/?q=place_id:ChIJrZqVLFGTEmsRxMEfVp_VHyY",
    "rating": 3.9,
    "total_ratings": 171
  },
  {
    "name": "Anytime Fitness Hoxton Park",
    "address": "KFC, 20 Mustang Close Behind, Hoxton Park",
    "suburb": "Liverpool",
    "state": "NSW",
    "lat": -33.9230857,
    "lng": 150.8481021,
    "place_id": "ChIJy4CoQXeTEmsRdgCP9WKcTv4",
    "maps_url": "https://www.google.com/maps/place/?q=place_id:ChIJy4CoQXeTEmsRdgCP9WKcTv4",
    "rating": 3.9,
    "total_ratings": 142
  },
  {
    "name": "Anytime Fitness Ed Square",
    "address": "Shop A1 MM04 Edmondson Park Shopping Centre, 52 Soldiers Parade, Edmondson Park",
    "suburb": "Liverpool",
    "state": "NSW",
    "lat": -33.9705081,
    "lng": 150.8589844,
    "place_id": "ChIJGbTXYGbtEmsRhKVqPFb7rAk",
    "maps_url": "https://www.google.com/maps/place/?q=place_id:ChIJGbTXYGbtEmsRhKVqPFb7rAk",
    "rating": 3.8,
    "total_ratings": 111
  },
  {
    "name": "Anytime Fitness Miller",
    "address": "51/90 Cartwright Ave, Miller",
    "suburb": "Liverpool",
    "state": "NSW",
    "lat": -33.9191457,
    "lng": 150.8830422,
    "place_id": "ChIJBXny-WeUEmsRVdvosLNNNMg",
    "maps_url": "https://www.google.com/maps/place/?q=place_id:ChIJBXny-WeUEmsRVdvosLNNNMg",
    "rating": 4.3,
    "total_ratings": 215
  },
  {
    "name": "Anytime Fitness Casula",
    "address": "1/605 Hume Hwy, Casula",
    "suburb": "Liverpool",
    "state": "NSW",
    "lat": -33.9540836,
    "lng": 150.8974875,
    "place_id": "ChIJzbCqE92UEmsRA_xGdMYjVkw",
    "maps_url": "https://www.google.com/maps/place/?q=place_id:ChIJzbCqE92UEmsRA_xGdMYjVkw",
    "rating": 4.8,
    "total_ratings": 367
  },
  {
    "name": "Snap Fitness 24/7 Moorebank",
    "address": "19/42 Stockton Ave, Moorebank",
    "suburb": "Liverpool",
    "state": "NSW",
    "lat": -33.9329465,
    "lng": 150.9500161,
    "place_id": "ChIJH0XD8t6VEmsR3Rxbgc1Nzqk",
    "maps_url": "https://www.google.com/maps/place/?q=place_id:ChIJH0XD8t6VEmsR3Rxbgc1Nzqk",
    "rating": 4.3,
    "total_ratings": 74
  },
  {
    "name": "Snap Fitness 24/7 Casula",
    "address": "629-631 Hume Hwy, Casula",
    "suburb": "Liverpool",
    "state": "NSW",
    "lat": -33.9555564,
    "lng": 150.8927291,
    "place_id": "ChIJATxp1syVEmsRiz9HNf0XzVE",
    "maps_url": "https://www.google.com/maps/place/?q=place_id:ChIJATxp1syVEmsRiz9HNf0XzVE",
    "rating": 4.6,
    "total_ratings": 100
  },
  {
    "name": "Anytime Fitness Prestons",
    "address": "279 Kurrajong Rd, Prestons",
    "suburb": "Liverpool",
    "state": "NSW",
    "lat": -33.9408246,
    "lng": 150.8596944,
    "place_id": "ChIJCRDJobqTEmsRYm749uyXwXI",
    "maps_url": "https://www.google.com/maps/place/?q=place_id:ChIJCRDJobqTEmsRYm749uyXwXI",
    "rating": 4.2,
    "total_ratings": 130
  },
  {
    "name": "Anytime Fitness",
    "address": "Victoria Rd & Brooks Street Shop 88, Glenquarie Town Centre, Macquarie Fields",
    "suburb": "Liverpool",
    "state": "NSW",
    "lat": -33.9874129,
    "lng": 150.89046,
    "place_id": "ChIJOYv5AzvrEmsRfvC6-k_7h2o",
    "maps_url": "https://www.google.com/maps/place/?q=place_id:ChIJOYv5AzvrEmsRfvC6-k_7h2o",
    "rating": 4.1,
    "total_ratings": 185
  },
  {
    "name": "Anytime Fitness Cabramatta",
    "address": "8/169 Hume Hwy, Cabramatta",
    "suburb": "Liverpool",
    "state": "NSW",
    "lat": -33.8951835,
    "lng": 150.9550476,
    "place_id": "ChIJG9oo7Pe9EmsRlvQvRde9Was",
    "maps_url": "https://www.google.com/maps/place/?q=place_id:ChIJG9oo7Pe9EmsRlvQvRde9Was",
    "rating": 4.8,
    "total_ratings": 605
  },
  {
    "name": "Plus Fitness 24/7 MILPERRA",
    "address": "1/211 Beaconsfield St, Milperra",
    "suburb": "Liverpool",
    "state": "NSW",
    "lat": -33.9425251,
    "lng": 150.9971426,
    "place_id": "ChIJM03nzAu_EmsR2K0oqoxFU1U",
    "maps_url": "https://www.google.com/maps/place/?q=place_id:ChIJM03nzAu_EmsR2K0oqoxFU1U",
    "rating": 4.7,
    "total_ratings": 30
  },
  {
    "name": "Anytime Fitness Wetherill Park",
    "address": "Greenway Supacenta, 10/1187 The Horsley Dr, Wetherill Park",
    "suburb": "Liverpool",
    "state": "NSW",
    "lat": -33.8500627,
    "lng": 150.8986452,
    "place_id": "ChIJG8Q8Of2WEmsRoFPzkoHzYXc",
    "maps_url": "https://www.google.com/maps/place/?q=place_id:ChIJG8Q8Of2WEmsRoFPzkoHzYXc",
    "rating": 4.8,
    "total_ratings": 591
  },
  {
    "name": "Plus Fitness 24/7 Edmondson Park",
    "address": "2074 Camden Valley Wy, Edmondson Park",
    "suburb": "Liverpool",
    "state": "NSW",
    "lat": -33.9565592,
    "lng": 150.86513,
    "place_id": "ChIJAbbdRDWVEmsRPHUz5_nPVMg",
    "maps_url": "https://www.google.com/maps/place/?q=place_id:ChIJAbbdRDWVEmsRPHUz5_nPVMg",
    "rating": 4,
    "total_ratings": 48
  },
  {
    "name": "Anytime Fitness Milperra",
    "address": "w7/3-13 Marigold St, Revesby",
    "suburb": "Liverpool",
    "state": "NSW",
    "lat": -33.9338584,
    "lng": 150.9996142,
    "place_id": "ChIJq97WXl--EmsR9oh4oVjIR0s",
    "maps_url": "https://www.google.com/maps/place/?q=place_id:ChIJq97WXl--EmsR9oh4oVjIR0s",
    "rating": 4.3,
    "total_ratings": 360
  },
  {
    "name": "Snap Fitness 24/7 Liverpool",
    "address": "138-140 Elizabeth Dr, Liverpool",
    "suburb": "Liverpool",
    "state": "NSW",
    "lat": -33.9160522,
    "lng": 150.9099741,
    "place_id": "ChIJJ4NT4myVEmsRDRomD_Fa_K0",
    "maps_url": "https://www.google.com/maps/place/?q=place_id:ChIJJ4NT4myVEmsRDRomD_Fa_K0",
    "rating": 4.9,
    "total_ratings": 406
  },
  {
    "name": "Plus Fitness 24/7 Bonnyrigg",
    "address": "620 Elizabeth Dr, Bonnyrigg Heights",
    "suburb": "Liverpool",
    "state": "NSW",
    "lat": -33.8875095,
    "lng": 150.8728399,
    "place_id": "ChIJ_4yCYG2VEmsRCizNZRp7dX0",
    "maps_url": "https://www.google.com/maps/place/?q=place_id:ChIJ_4yCYG2VEmsRCizNZRp7dX0",
    "rating": 4.4,
    "total_ratings": 51
  },
  {
    "name": "Plus Fitness 24/7 Moorebank",
    "address": "2/167 Cnr Newbridge Rd &, Gov Macquarie Dr, Moorebank",
    "suburb": "Liverpool",
    "state": "NSW",
    "lat": -33.9282371,
    "lng": 150.9625993,
    "place_id": "ChIJwXwVeyK-EmsRn3YBQ1603Mc",
    "maps_url": "https://www.google.com/maps/place/?q=place_id:ChIJwXwVeyK-EmsRn3YBQ1603Mc",
    "rating": 4.2,
    "total_ratings": 87
  },
  {
    "name": "Fitness Central 24hr Gym",
    "address": "1/340 Hoxton Park Rd, Hoxton Park",
    "suburb": "Liverpool",
    "state": "NSW",
    "lat": -33.9280174,
    "lng": 150.8841696,
    "place_id": "ChIJHZj0roqUEmsRO-66_PXzl7w",
    "maps_url": "https://www.google.com/maps/place/?q=place_id:ChIJHZj0roqUEmsRO-66_PXzl7w",
    "rating": 4.4,
    "total_ratings": 21
  },
  {
    "name": "Plus Fitness 24/7",
    "address": "1269 The Horsley Dr, Wetherill Park",
    "suburb": "Liverpool",
    "state": "NSW",
    "lat": -33.8520459,
    "lng": 150.8912642,
    "place_id": "ChIJqRf-t-OWEmsRW80ahBvlPGM",
    "maps_url": "https://www.google.com/maps/place/?q=place_id:ChIJqRf-t-OWEmsRW80ahBvlPGM",
    "rating": 4.5,
    "total_ratings": 138
  },
  {
    "name": "Plus Fitness 24/7 Ingleburn",
    "address": "unit 4/89a Williamson Rd, Ingleburn",
    "suburb": "Liverpool",
    "state": "NSW",
    "lat": -33.9879852,
    "lng": 150.8597383,
    "place_id": "ChIJCwt9lWLrEmsRKJOphFOcq08",
    "maps_url": "https://www.google.com/maps/place/?q=place_id:ChIJCwt9lWLrEmsRKJOphFOcq08",
    "rating": 4.2,
    "total_ratings": 161
  },
  {
    "name": "Plus Fitness 24/7 Cabramatta",
    "address": "29/24-32 Hughes St, Cabramatta",
    "suburb": "Liverpool",
    "state": "NSW",
    "lat": -33.8934467,
    "lng": 150.9355921,
    "place_id": "ChIJyfeHMQyWEmsRID0uGR8Js1Y",
    "maps_url": "https://www.google.com/maps/place/?q=place_id:ChIJyfeHMQyWEmsRID0uGR8Js1Y",
    "rating": 4.7,
    "total_ratings": 206
  },
  {
    "name": "Plus Fitness 24/7 East Hills",
    "address": "enter via, 9/31 Maclaurin Avenue, Cook Cres, East Hills",
    "suburb": "Liverpool",
    "state": "NSW",
    "lat": -33.9630906,
    "lng": 150.9834722,
    "place_id": "ChIJ9-CY3LC_EmsRoVGnkL2lBaY",
    "maps_url": "https://www.google.com/maps/place/?q=place_id:ChIJ9-CY3LC_EmsRoVGnkL2lBaY",
    "rating": 4.5,
    "total_ratings": 112
  },
  {
    "name": "Anytime Fitness Prestons North",
    "address": "358 Hoxton Park Rd, Prestons",
    "suburb": "Liverpool",
    "state": "NSW",
    "lat": -33.9281752,
    "lng": 150.8817367,
    "place_id": "ChIJaTUWDACVEmsRs7EE-ggtFak",
    "maps_url": "https://www.google.com/maps/place/?q=place_id:ChIJaTUWDACVEmsRs7EE-ggtFak",
    "rating": 4.4,
    "total_ratings": 29
  },
  {
    "name": "Plus Fitness 24/7 Hoxton Park",
    "address": "176 Hoxton Park Rd, Lurnea",
    "suburb": "Liverpool",
    "state": "NSW",
    "lat": -33.9273473,
    "lng": 150.8963679,
    "place_id": "ChIJ9VGUxoGUEmsRdckZ7sMP744",
    "maps_url": "https://www.google.com/maps/place/?q=place_id:ChIJ9VGUxoGUEmsRdckZ7sMP744",
    "rating": 3.9,
    "total_ratings": 146
  },
  {
    "name": "Plus Fitness 24/7 Bass Hill",
    "address": "Shop 3/862 Hume Hwy, Bass Hill",
    "suburb": "Liverpool",
    "state": "NSW",
    "lat": -33.9010513,
    "lng": 150.9990874,
    "place_id": "ChIJ30YdLdG9EmsR03Ckd1Nuw_Y",
    "maps_url": "https://www.google.com/maps/place/?q=place_id:ChIJ30YdLdG9EmsR03Ckd1Nuw_Y",
    "rating": 4.4,
    "total_ratings": 92
  },
  {
    "name": "Plus Fitness 24/7 Warwick Farm",
    "address": "Shop 2A/1 Sappho Rd, Warwick Farm",
    "suburb": "Liverpool",
    "state": "NSW",
    "lat": -33.9085926,
    "lng": 150.9390975,
    "place_id": "ChIJ-9JE9OSVEmsR3FwuopyRrbE",
    "maps_url": "https://www.google.com/maps/place/?q=place_id:ChIJ-9JE9OSVEmsR3FwuopyRrbE",
    "rating": 4.6,
    "total_ratings": 108
  },
  {
    "name": "Anytime Fitness Cabramatta City",
    "address": "Shop 101-108/263 Cabramatta Rd W, Cabramatta",
    "suburb": "Liverpool",
    "state": "NSW",
    "lat": -33.8955946,
    "lng": 150.9336872,
    "place_id": "ChIJw4WIajuXEmsRGY2AZ29gJ98",
    "maps_url": "https://www.google.com/maps/place/?q=place_id:ChIJw4WIajuXEmsRGY2AZ29gJ98",
    "rating": 4.9,
    "total_ratings": 159
  },
  {
    "name": "Anytime Fitness",
    "address": "Unit 3B/2 Garner Pl, Ingleburn",
    "suburb": "Liverpool",
    "state": "NSW",
    "lat": -33.9871766,
    "lng": 150.8672963,
    "place_id": "ChIJVVVVMGfrEmsR69bxUC1QP1U",
    "maps_url": "https://www.google.com/maps/place/?q=place_id:ChIJVVVVMGfrEmsR69bxUC1QP1U",
    "rating": 4.8,
    "total_ratings": 137
  },
  {
    "name": "Snap Fitness 24/7 Campbelltown",
    "address": "202 Queen St, Campbelltown",
    "suburb": "Campbelltown",
    "state": "NSW",
    "lat": -34.0674574,
    "lng": 150.813942,
    "place_id": "ChIJA5A8JzvvEmsRC-ndfnit-HM",
    "maps_url": "https://www.google.com/maps/place/?q=place_id:ChIJA5A8JzvvEmsRC-ndfnit-HM",
    "rating": 4.9,
    "total_ratings": 374
  },
  {
    "name": "Anytime Fitness Oran Park",
    "address": "101/101-351 Oran Park Dr, Oran Park",
    "suburb": "Campbelltown",
    "state": "NSW",
    "lat": -33.999507,
    "lng": 150.7401111,
    "place_id": "ChIJodPhiiDyEmsR1PIjn0Lvt2Q",
    "maps_url": "https://www.google.com/maps/place/?q=place_id:ChIJodPhiiDyEmsR1PIjn0Lvt2Q",
    "rating": 4.2,
    "total_ratings": 175
  },
  {
    "name": "Plus Fitness 24/7 Oran Park",
    "address": "30 Southwell Rd, Oran Park",
    "suburb": "Campbelltown",
    "state": "NSW",
    "lat": -33.9938812,
    "lng": 150.730914,
    "place_id": "ChIJ64BLAnfzEmsRmlSZTYF0oVM",
    "maps_url": "https://www.google.com/maps/place/?q=place_id:ChIJ64BLAnfzEmsRmlSZTYF0oVM",
    "rating": 4.7,
    "total_ratings": 31
  },
  {
    "name": "Snap Fitness 24/7 Mount Annan",
    "address": "Mt Annan Marketplace, Shop T31-T32/11-13 Main St, Mount Annan",
    "suburb": "Campbelltown",
    "state": "NSW",
    "lat": -34.0484799,
    "lng": 150.7592552,
    "place_id": "ChIJhyk60sTxEmsR3tDIuAK6H14",
    "maps_url": "https://www.google.com/maps/place/?q=place_id:ChIJhyk60sTxEmsR3tDIuAK6H14",
    "rating": 4.8,
    "total_ratings": 340
  },
  {
    "name": "Snap Fitness 24/7 Minto",
    "address": "46 Ben Lomond Rd, Minto",
    "suburb": "Campbelltown",
    "state": "NSW",
    "lat": -34.0319632,
    "lng": 150.8487661,
    "place_id": "ChIJPeArqRrsEmsRvnICmY69yXk",
    "maps_url": "https://www.google.com/maps/place/?q=place_id:ChIJPeArqRrsEmsRvnICmY69yXk",
    "rating": 4.4,
    "total_ratings": 97
  },
  {
    "name": "Plus Fitness 24/7",
    "address": "1/9 Rodeo Rd, Gregory Hills",
    "suburb": "Campbelltown",
    "state": "NSW",
    "lat": -34.0251094,
    "lng": 150.7605967,
    "place_id": "ChIJIzQCwPvxEmsRMLjNj11vO70",
    "maps_url": "https://www.google.com/maps/place/?q=place_id:ChIJIzQCwPvxEmsRMLjNj11vO70",
    "rating": 4.4,
    "total_ratings": 84
  },
  {
    "name": "Snap Fitness 24/7 Raby",
    "address": "2 Hurricane Dr, Raby",
    "suburb": "Campbelltown",
    "state": "NSW",
    "lat": -34.0257187,
    "lng": 150.8201918,
    "place_id": "ChIJUynzhJXtEmsRxUk6FtGtyrA",
    "maps_url": "https://www.google.com/maps/place/?q=place_id:ChIJUynzhJXtEmsRxUk6FtGtyrA",
    "rating": 5,
    "total_ratings": 108
  },
  {
    "name": "Plus Fitness 24/7 Minto",
    "address": "Shop 4-5/40 Ben Lomond Rd, Minto",
    "suburb": "Campbelltown",
    "state": "NSW",
    "lat": -34.0315855,
    "lng": 150.8505014,
    "place_id": "ChIJAZQf8w_sEmsRBYtrg4w4j48",
    "maps_url": "https://www.google.com/maps/place/?q=place_id:ChIJAZQf8w_sEmsRBYtrg4w4j48",
    "rating": 4.2,
    "total_ratings": 101
  },
  {
    "name": "Plus Fitness 24/7 Emerald Hills",
    "address": "5 Emerald Hills Blvd, Leppington",
    "suburb": "Campbelltown",
    "state": "NSW",
    "lat": -33.9953945,
    "lng": 150.7918813,
    "place_id": "ChIJSRGxEi7tEmsRxx0ZkBLQAdQ",
    "maps_url": "https://www.google.com/maps/place/?q=place_id:ChIJSRGxEi7tEmsRxx0ZkBLQAdQ",
    "rating": 4.1,
    "total_ratings": 134
  },
  {
    "name": "Plus Fitness 24/7 Campbelltown",
    "address": "8 Blaxland Rd, Campbelltown",
    "suburb": "Campbelltown",
    "state": "NSW",
    "lat": -34.0547561,
    "lng": 150.8217773,
    "place_id": "ChIJr-Kl4YzuEmsRtvc1qSTbeHs",
    "maps_url": "https://www.google.com/maps/place/?q=place_id:ChIJr-Kl4YzuEmsRtvc1qSTbeHs",
    "rating": 4,
    "total_ratings": 159
  },
  {
    "name": "Anytime Fitness Mount Annan",
    "address": "14/2-4 Main St, Mount Annan",
    "suburb": "Campbelltown",
    "state": "NSW",
    "lat": -34.0498221,
    "lng": 150.7566306,
    "place_id": "ChIJWwG2GNDxEmsRn0iVQfDtYV0",
    "maps_url": "https://www.google.com/maps/place/?q=place_id:ChIJWwG2GNDxEmsRn0iVQfDtYV0",
    "rating": 4.7,
    "total_ratings": 164
  },
  {
    "name": "Anytime Fitness Campbelltown",
    "address": "L28 Campbelltown Mall Shopping Centre 271 Queen Street Entry off, Hurley St, Campbelltown",
    "suburb": "Campbelltown",
    "state": "NSW",
    "lat": -34.0685002,
    "lng": 150.809839,
    "place_id": "ChIJh3a8k1TuEmsRK_XeUBmwTto",
    "maps_url": "https://www.google.com/maps/place/?q=place_id:ChIJh3a8k1TuEmsRK_XeUBmwTto",
    "rating": 4.1,
    "total_ratings": 181
  },
  {
    "name": "Anytime Fitness Narellan",
    "address": "2 Maxwell Pl, Narellan",
    "suburb": "Campbelltown",
    "state": "NSW",
    "lat": -34.039636,
    "lng": 150.7441042,
    "place_id": "ChIJNdNQmbnxEmsRkEsJP9o57G0",
    "maps_url": "https://www.google.com/maps/place/?q=place_id:ChIJNdNQmbnxEmsRkEsJP9o57G0",
    "rating": 4.5,
    "total_ratings": 200
  },
  {
    "name": "Plus Fitness 24/7 Ambarvale",
    "address": "67 Woodhouse Dr, Ambarvale",
    "suburb": "Campbelltown",
    "state": "NSW",
    "lat": -34.0872153,
    "lng": 150.7997351,
    "place_id": "ChIJyQThQHzvEmsRuPnEXlC1UqQ",
    "maps_url": "https://www.google.com/maps/place/?q=place_id:ChIJyQThQHzvEmsRuPnEXlC1UqQ",
    "rating": 4,
    "total_ratings": 53
  },
  {
    "name": "Anytime Fitness Gregory Hills",
    "address": "Level 3/39-47 Lasso Rd, Gregory Hills",
    "suburb": "Campbelltown",
    "state": "NSW",
    "lat": -34.0221237,
    "lng": 150.7638505,
    "place_id": "ChIJ30CoSwDxEmsR13A6cK6Pp_I",
    "maps_url": "https://www.google.com/maps/place/?q=place_id:ChIJ30CoSwDxEmsR13A6cK6Pp_I",
    "rating": 4.4,
    "total_ratings": 51
  },
  {
    "name": "Anytime Fitness Campbelltown West",
    "address": "1/20 Badgally Rd, Campbelltown",
    "suburb": "Campbelltown",
    "state": "NSW",
    "lat": -34.0575634,
    "lng": 150.8122626,
    "place_id": "ChIJBcT-El7vEmsRFvJRuZAPEtU",
    "maps_url": "https://www.google.com/maps/place/?q=place_id:ChIJBcT-El7vEmsRFvJRuZAPEtU",
    "rating": 4.2,
    "total_ratings": 103
  },
  {
    "name": "Plus Fitness 24/7 Newbrook",
    "address": "Shop 2, Newbrook Shopping Village, 44 Riverside Dr, Airds",
    "suburb": "Campbelltown",
    "state": "NSW",
    "lat": -34.0842234,
    "lng": 150.8285015,
    "place_id": "ChIJqQK1PvnvEmsREEZURJCPLAM",
    "maps_url": "https://www.google.com/maps/place/?q=place_id:ChIJqQK1PvnvEmsREEZURJCPLAM",
    "rating": 4.8,
    "total_ratings": 20
  },
  {
    "name": "Plus Fitness 24/7 Narellan",
    "address": "1 Exchange Parade, Narellan",
    "suburb": "Campbelltown",
    "state": "NSW",
    "lat": -34.0411438,
    "lng": 150.7485644,
    "place_id": "ChIJB__rRsHxEmsRaV8-COeA1MQ",
    "maps_url": "https://www.google.com/maps/place/?q=place_id:ChIJB__rRsHxEmsRaV8-COeA1MQ",
    "rating": 4.5,
    "total_ratings": 94
  },
  {
    "name": "Anytime Fitness Emerald Hills",
    "address": "5 Raby Rd, Leppington",
    "suburb": "Campbelltown",
    "state": "NSW",
    "lat": -33.9949719,
    "lng": 150.7897894,
    "place_id": "ChIJwcRvXwDtEmsRrkRMccsVc3o",
    "maps_url": "https://www.google.com/maps/place/?q=place_id:ChIJwcRvXwDtEmsRrkRMccsVc3o",
    "rating": 4.5,
    "total_ratings": 21
  },
  {
    "name": "Iron Gym Platinum - Campbelltown 24/7",
    "address": "4/15 Mill Rd, Campbelltown",
    "suburb": "Campbelltown",
    "state": "NSW",
    "lat": -34.0524711,
    "lng": 150.8207702,
    "place_id": "ChIJL2idh4zuEmsRgh02OI-6W8U",
    "maps_url": "https://www.google.com/maps/place/?q=place_id:ChIJL2idh4zuEmsRgh02OI-6W8U",
    "rating": 4.5,
    "total_ratings": 42
  },
  {
    "name": "Planet Fitness",
    "address": "Shop Mm3/271 Queen St, Campbelltown",
    "suburb": "Campbelltown",
    "state": "NSW",
    "lat": -34.06829,
    "lng": 150.80982,
    "place_id": "ChIJoz-h5KPvEmsRJBhOmlle5as",
    "maps_url": "https://www.google.com/maps/place/?q=place_id:ChIJoz-h5KPvEmsRJBhOmlle5as",
    "rating": 4.2,
    "total_ratings": 132
  },
  {
    "name": "Iron Gym Leumeah 24/7",
    "address": "7/185 Airds Rd, Leumeah",
    "suburb": "Campbelltown",
    "state": "NSW",
    "lat": -34.0484975,
    "lng": 150.8296774,
    "place_id": "ChIJMekMrMjvEmsR_BDcymqci9o",
    "maps_url": "https://www.google.com/maps/place/?q=place_id:ChIJMekMrMjvEmsR_BDcymqci9o",
    "rating": 4.8,
    "total_ratings": 148
  },