[
  {
    "name": "NiCHU Hair Studio",
    "address": "Shop 4/5 Joynton Ave, Zetland",
    "suburb": "Sydney CBD",
    "state": "NSW",
    "lat": -33.9077298,
    "lng": 151.2069513,
    "place_id": "ChIJb9JiH5GxEmsR2qQzVlgTEyY",
    "maps_url": "https://www.google.com/maps/place/?q=place_id:ChIJb9JiH5GxEmsR2qQzVlgTEyY",
    "rating": 4.9,
    "total_ratings": 247
  },
  {
    "name": "DK Hairstudio Haymarket",
    "address": "812B George St, Haymarket",
    "suburb": "Sydney CBD",
    "state": "NSW",
    "lat": -33.8818718,
    "lng": 151.2047877,
    "place_id": "ChIJ3TmggYmvEmsRIQmtAh0ieeE",
    "maps_url": "https://www.google.com/maps/place/?q=place_id:ChIJ3TmggYmvEmsRIQmtAh0ieeE",
    "rating": 4.9,
    "total_ratings": 3445
  },
  {
    "name": "Salon Purpose",
    "address": "9/11-25 Wentworth St, Manly",
    "suburb": "Sydney CBD",
    "state": "NSW",
    "lat": -33.7983387,
    "lng": 151.2877474,
    "place_id": "ChIJ50DuPAqrEmsR2FkObVnYwck",
    "maps_url": "https://www.google.com/maps/place/?q=place_id:ChIJ50DuPAqrEmsR2FkObVnYwck",
    "rating": 4.9,
    "total_ratings": 416
  },
  {
    "name": "Our Place Salon",
    "address": "1/181 Victoria St, Potts Point",
    "suburb": "Sydney CBD",
    "state": "NSW",
    "lat": -33.8733634,
    "lng": 151.222379,
    "place_id": "ChIJtzSxYA2uEmsRm3KUCJuYyWM",
    "maps_url": "https://www.google.com/maps/place/?q=place_id:ChIJtzSxYA2uEmsRm3KUCJuYyWM",
    "rating": 5,
    "total_ratings": 146
  },
  {
    "name": "M.ZO Hair",
    "address": "Shop3/115 Bathurst St, Sydney",
    "suburb": "Sydney CBD",
    "state": "NSW",
    "lat": -33.8748276,
    "lng": 151.2078185,
    "place_id": "ChIJTaaAPoivEmsRtkdKcqUU3iY",
    "maps_url": "https://www.google.com/maps/place/?q=place_id:ChIJTaaAPoivEmsRtkdKcqUU3iY",
    "rating": 4.9,
    "total_ratings": 172
  },
  {
    "name": "Tate & Lyle Sydney",
    "address": "MACQUARIE HOUSE, Shop 1/167 Macquarie St, Sydney",
    "suburb": "Sydney CBD",
    "state": "NSW",
    "lat": -33.8658285,
    "lng": 151.2122067,
    "place_id": "ChIJLa0w9VmvEmsRQYPT1uQBK2w",
    "maps_url": "https://www.google.com/maps/place/?q=place_id:ChIJLa0w9VmvEmsRQYPT1uQBK2w",
    "rating": 4.9,
    "total_ratings": 393
  },
  {
    "name": "Hair Corner",
    "address": "Ground Floor/143 York St, Sydney",
    "suburb": "Sydney CBD",
    "state": "NSW",
    "lat": -33.8723638,
    "lng": 151.2062716,
    "place_id": "ChIJpSLVXvavEmsRL9zNx-ob5oE",
    "maps_url": "https://www.google.com/maps/place/?q=place_id:ChIJpSLVXvavEmsRL9zNx-ob5oE",
    "rating": 4.8,
    "total_ratings": 259
  },
  {
    "name": "HAIRZONE Sydney",
    "address": "Sydney TAFE Arcade Tunnel, Shop 2/827 George St, Haymarket",
    "suburb": "Sydney CBD",
    "state": "NSW",
    "lat": -33.8834155,
    "lng": 151.2030499,
    "place_id": "ChIJcUapzxauEmsRaotkARAdVZg",
    "maps_url": "https://www.google.com/maps/place/?q=place_id:ChIJcUapzxauEmsRaotkARAdVZg",
    "rating": 4.8,
    "total_ratings": 149
  },
  {
    "name": "Susan Hair & Beauty Salon",
    "address": "Shop3/500 Elizabeth St, Surry Hills",
    "suburb": "Sydney CBD",
    "state": "NSW",
    "lat": -33.889019,
    "lng": 151.2082176,
    "place_id": "ChIJMdE5iN-xEmsRPFYNdG8lU8Y",
    "maps_url": "https://www.google.com/maps/place/?q=place_id:ChIJMdE5iN-xEmsRPFYNdG8lU8Y",
    "rating": 4.9,
    "total_ratings": 2651
  },
  {
    "name": "Lily Jackson Hairdressing",
    "address": "shop 3/91/93 Macleay St, Potts Point",
    "suburb": "Sydney CBD",
    "state": "NSW",
    "lat": -33.8713181,
    "lng": 151.2249251,
    "place_id": "ChIJY7WGH3OuEmsRUN3BOEa1_2c",
    "maps_url": "https://www.google.com/maps/place/?q=place_id:ChIJY7WGH3OuEmsRUN3BOEa1_2c",
    "rating": 4.8,
    "total_ratings": 301
  },
  {
    "name": "Salon HER",
    "address": "L1/227 Victoria St, Darlinghurst",
    "suburb": "Sydney CBD",
    "state": "NSW",
    "lat": -33.8763933,
    "lng": 151.2216405,
    "place_id": "ChIJwUxq2qevEmsRhfc6I64Qwng",
    "maps_url": "https://www.google.com/maps/place/?q=place_id:ChIJwUxq2qevEmsRhfc6I64Qwng",
    "rating": 4.9,
    "total_ratings": 451
  },
  {
    "name": "Barber Industries QVB",
    "address": "Shop 45 LG1 QVB, 455 George St, Sydney",
    "suburb": "Sydney CBD",
    "state": "NSW",
    "lat": -33.8721139,
    "lng": 151.206738,
    "place_id": "ChIJASAb_lyvEmsR5rRF6J-ekLI",
    "maps_url": "https://www.google.com/maps/place/?q=place_id:ChIJASAb_lyvEmsR5rRF6J-ekLI",
    "rating": 4.8,
    "total_ratings": 1801
  },
  {
    "name": "Feather Factor Hair Studio",
    "address": "Suite 15 Level 5 Building/428 George St, Sydney",
    "suburb": "Sydney CBD",
    "state": "NSW",
    "lat": -33.8698838,
    "lng": 151.2071702,
    "place_id": "ChIJO1iDCT-uEmsRhspDHZRnM60",
    "maps_url": "https://www.google.com/maps/place/?q=place_id:ChIJO1iDCT-uEmsRhspDHZRnM60",
    "rating": 5,
    "total_ratings": 139
  },
  {
    "name": "La Belle Hair, Beauty and Barber Shop",
    "address": "3a/780 Bourke St, Redfern",
    "suburb": "Sydney CBD",
    "state": "NSW",
    "lat": -33.8963701,
    "lng": 151.2135682,
    "place_id": "ChIJnQKwAW2uEmsRsfBDmFjpB3A",
    "maps_url": "https://www.google.com/maps/place/?q=place_id:ChIJnQKwAW2uEmsRsfBDmFjpB3A",
    "rating": 4.8,
    "total_ratings": 458
  },
  {
    "name": "Noyr Hair Waterloo",
    "address": "Shop251/8 Lachlan St, Waterloo",
    "suburb": "Sydney CBD",
    "state": "NSW",
    "lat": -33.9005962,
    "lng": 151.2138717,
    "place_id": "ChIJz9Tl1tGxEmsRr1Q46d2VKO0",
    "maps_url": "https://www.google.com/maps/place/?q=place_id:ChIJz9Tl1tGxEmsRr1Q46d2VKO0",
    "rating": 4.9,
    "total_ratings": 86
  },
  {
    "name": "UNOIT BARBER & BEAUTY",
    "address": "Shop 3/99/101 Crown St, Darlinghurst",
    "suburb": "Sydney CBD",
    "state": "NSW",
    "lat": -33.8748756,
    "lng": 151.2160319,
    "place_id": "ChIJgfmT96ivEmsRVYxT0g0vQR8",
    "maps_url": "https://www.google.com/maps/place/?q=place_id:ChIJgfmT96ivEmsRVYxT0g0vQR8",
    "rating": 4.9,
    "total_ratings": 280
  },
  {
    "name": "Chloe Hair & Beauty",
    "address": "Shop D5 Lower Ground, Sussex Centre, 401 Sussex Street, Haymarket",
    "suburb": "Sydney CBD",
    "state": "NSW",
    "lat": -33.8782265,
    "lng": 151.2043197,
    "place_id": "ChIJz8ObViOuEmsRkChd9sDTQQI",
    "maps_url": "https://www.google.com/maps/place/?q=place_id:ChIJz8ObViOuEmsRkChd9sDTQQI",
    "rating": 4.5,
    "total_ratings": 276
  },
  {
    "name": "Hair Action Barber & Salon",
    "address": "Prince Centre, 126, 1st floor/8 Quay St, Haymarket",
    "suburb": "Sydney CBD",
    "state": "NSW",
    "lat": -33.8810935,
    "lng": 151.20333,
    "place_id": "ChIJA76DpyOuEmsRsANlJdExwXA",
    "maps_url": "https://www.google.com/maps/place/?q=place_id:ChIJA76DpyOuEmsRsANlJdExwXA",
    "rating": 4.7,
    "total_ratings": 22
  },
  {
    "name": "Kippo Hair",
    "address": "Level 1/88 Liverpool St, Sydney",
    "suburb": "Sydney CBD",
    "state": "NSW",
    "lat": -33.8761792,
    "lng": 151.2058274,
    "place_id": "ChIJRaiji4evEmsRTocI6sMzVU4",
    "maps_url": "https://www.google.com/maps/place/?q=place_id:ChIJRaiji4evEmsRTocI6sMzVU4",
    "rating": 4.2,
    "total_ratings": 53
  },
  {
    "name": "Barber - The Grand Hair Co - Eastlakes",
    "address": "16d Evans Ave, Eastlakes",
    "suburb": "Sydney CBD",
    "state": "NSW",
    "lat": -33.9244439,
    "lng": 151.2116434,
    "place_id": "ChIJ3Y9fQhqxEmsRs9XuftjzQJU",
    "maps_url": "https://www.google.com/maps/place/?q=place_id:ChIJ3Y9fQhqxEmsRs9XuftjzQJU",
    "rating": 5,
    "total_ratings": 19
  },
  {
    "name": "Inch Hairdressing Newtown - Sydney",
    "address": "525 King St, Newtown",
    "suburb": "Sydney CBD",
    "state": "NSW",
    "lat": -33.9032228,
    "lng": 151.1794912,
    "place_id": "ChIJb_SuuEmwEmsRLQ-l3vCe7ic",
    "maps_url": "https://www.google.com/maps/place/?q=place_id:ChIJb_SuuEmwEmsRLQ-l3vCe7ic",
    "rating": 4.8,
    "total_ratings": 768
  },
  {
    "name": "Wilde and Co Hair Artistry",
    "address": "4/161-165 Bunnerong Rd, Kingsford",
    "suburb": "Sydney CBD",
    "state": "NSW",
    "lat": -33.9335114,
    "lng": 151.2306833,
    "place_id": "ChIJQ1skGw-xEmsRDEcalJWGoOE",
    "maps_url": "https://www.google.com/maps/place/?q=place_id:ChIJQ1skGw-xEmsRDEcalJWGoOE",
    "rating": 5,
    "total_ratings": 95
  },
  {
    "name": "Mon Hair Salon",
    "address": "Shop 3P6/203 Pacific Hwy, St Leonards",
    "suburb": "Sydney CBD",
    "state": "NSW",
    "lat": -33.8230107,
    "lng": 151.1944285,
    "place_id": "ChIJH9oBOLWvEmsRRtwvLT_ElqQ",
    "maps_url": "https://www.google.com/maps/place/?q=place_id:ChIJH9oBOLWvEmsRRtwvLT_ElqQ",
    "rating": 4.8,
    "total_ratings": 150
  },
  {
    "name": "City Style Hair Design Barbers",
    "address": "1B/456 Kent St, Sydney",
    "suburb": "Sydney CBD",
    "state": "NSW",
    "lat": -33.8731367,
    "lng": 151.2052557,
    "place_id": "ChIJDzmVeD6uEmsRCtOOZS6jgEM",
    "maps_url": "https://www.google.com/maps/place/?q=place_id:ChIJDzmVeD6uEmsRCtOOZS6jgEM",
    "rating": 4.6,
    "total_ratings": 231
  },
  {
    "name": "KC Creative Hair",
    "address": "St Leonards Square, 488 Pacific Hwy, St Leonards",
    "suburb": "Sydney CBD",
    "state": "NSW",
    "lat": -33.8241212,
    "lng": 151.1972066,
    "place_id": "ChIJ__9zDLOuEmsRydksydz-6Bg",
    "maps_url": "https://www.google.com/maps/place/?q=place_id:ChIJ__9zDLOuEmsRydksydz-6Bg",
    "rating": 5,
    "total_ratings": 72
  },
  {
    "name": "Status Co.",
    "address": "tower 1 shop 8/100 Barangaroo Ave, Barangaroo",
    "suburb": "Sydney CBD",
    "state": "NSW",
    "lat": -33.86387029999999,
    "lng": 151.2024069,
    "place_id": "ChIJzfLO5UauEmsR9j8-fWQjIQU",
    "maps_url": "https://www.google.com/maps/place/?q=place_id:ChIJzfLO5UauEmsR9j8-fWQjIQU",
    "rating": 4.4,
    "total_ratings": 177
  },
  {
    "name": "Tom's Hair Salon",
    "address": "189 Victoria St, Potts Point",
    "suburb": "Sydney CBD",
    "state": "NSW",
    "lat": -33.8735239,
    "lng": 151.2222768,
    "place_id": "ChIJ5XUmYQ2uEmsRPP3oLRdw88o",
    "maps_url": "https://www.google.com/maps/place/?q=place_id:ChIJ5XUmYQ2uEmsRPP3oLRdw88o",
    "rating": 4.8,
    "total_ratings": 92
  },
  {
    "name": "Salon Lane Lower North Shore",
    "address": "Ground Floor/488 Pacific Hwy, St Leonards",
    "suburb": "Sydney CBD",
    "state": "NSW",
    "lat": -33.8243336,
    "lng": 151.1970032,
    "place_id": "ChIJ82nao5WvEmsRfTzfXQxg-zk",
    "maps_url": "https://www.google.com/maps/place/?q=place_id:ChIJ82nao5WvEmsRfTzfXQxg-zk",
    "rating": 5,
    "total_ratings": 101
  },
  {
    "name": "Hair by Clement (George St) By Appointment Only—NO WALK-INS",
    "address": "level 2/387 George St, Sydney",
    "suburb": "Sydney CBD",
    "state": "NSW",
    "lat": -33.8695264,
    "lng": 151.2067223,
    "place_id": "ChIJsR-rUyCvEmsRRGbuSjFglL0",
    "maps_url": "https://www.google.com/maps/place/?q=place_id:ChIJsR-rUyCvEmsRRGbuSjFglL0",
    "rating": 5,
    "total_ratings": 173
  },
  {
    "name": "I AM SALON",
    "address": "Level 5/64 Castlereagh St, Sydney",
    "suburb": "Sydney CBD",
    "state": "NSW",
    "lat": -33.8687888,
    "lng": 151.2099237,
    "place_id": "ChIJe0Al84yvEmsRmffbhRNCmZ4",
    "maps_url": "https://www.google.com/maps/place/?q=place_id:ChIJe0Al84yvEmsRmffbhRNCmZ4",
    "rating": 5,
    "total_ratings": 40
  },
  {
    "name": "Oz Hair and Beauty QVB Salon",
    "address": "Queen Victoria Building, Lower Ground 1/455 George St, Sydney",
    "suburb": "Sydney CBD",
    "state": "NSW",
    "lat": -33.8721139,
    "lng": 151.206738,
    "place_id": "ChIJ4YwAgj6uEmsRpJW17y4plHw",
    "maps_url": "https://www.google.com/maps/place/?q=place_id:ChIJ4YwAgj6uEmsRpJW17y4plHw",
    "rating": 4.5,
    "total_ratings": 386
  },
  {
    "name": "Bauhaus Hair Design",
    "address": "537 Sydney Rd, Seaforth",
    "suburb": "Sydney CBD",
    "state": "NSW",
    "lat": -33.7968374,
    "lng": 151.2520456,
    "place_id": "ChIJJw8I5-mrEmsRlSh3nxu2bnY",
    "maps_url": "https://www.google.com/maps/place/?q=place_id:ChIJJw8I5-mrEmsRlSh3nxu2bnY",
    "rating": 5,
    "total_ratings": 249
  },
  {
    "name": "BARBER FOR LIFE",
    "address": "1/204 Chalmers St, Surry Hills",
    "suburb": "Sydney CBD",
    "state": "NSW",
    "lat": -33.8894586,
    "lng": 151.2062585,
    "place_id": "ChIJ7bqrb9-xEmsR-k1RVDdg0q0",
    "maps_url": "https://www.google.com/maps/place/?q=place_id:ChIJ7bqrb9-xEmsR-k1RVDdg0q0",
    "rating": 4.8,
    "total_ratings": 596
  },
  {
    "name": "Natural De Kent Hair Salon",
    "address": "2/38 Hercules St, Ashfield",
    "suburb": "Sydney CBD",
    "state": "NSW",
    "lat": -33.8886944,
    "lng": 151.1251353,
    "place_id": "ChIJU2viLpa6EmsRdlssHX-EeU0",
    "maps_url": "https://www.google.com/maps/place/?q=place_id:ChIJU2viLpa6EmsRdlssHX-EeU0",
    "rating": 4.2,
    "total_ratings": 67
  },
  {
    "name": "Antler Hair Designs",
    "address": "167 Glenayr Ave, Bondi Beach",
    "suburb": "Sydney CBD",
    "state": "NSW",
    "lat": -33.8883051,
    "lng": 151.2708815,
    "place_id": "ChIJiSe5DjitEmsRKn5o2u_DIfw",
    "maps_url": "https://www.google.com/maps/place/?q=place_id:ChIJiSe5DjitEmsRKn5o2u_DIfw",
    "rating": 4.7,
    "total_ratings": 175
  },
  {
    "name": "Stanley & Co Hair Salon",
    "address": "Studio 6/15 Woodburn St, Redfern",
    "suburb": "Sydney CBD",
    "state": "NSW",
    "lat": -33.8900644,
    "lng": 151.2000904,
    "place_id": "ChIJy9jAt9mxEmsRaqYA6hP19q0",
    "maps_url": "https://www.google.com/maps/place/?q=place_id:ChIJy9jAt9mxEmsRaqYA6hP19q0",
    "rating": 4.9,
    "total_ratings": 399
  },
  {
    "name": "MAN MADE BARBER",
    "address": "1/642 Bourke St, Surry Hills",
    "suburb": "Sydney CBD",
    "state": "NSW",
    "lat": -33.8915209,
    "lng": 151.2146544,
    "place_id": "ChIJpcNjw2exEmsRcwPBjQHSZf8",
    "maps_url": "https://www.google.com/maps/place/?q=place_id:ChIJpcNjw2exEmsRcwPBjQHSZf8",
    "rating": 4.9,
    "total_ratings": 166
  },
  {
    "name": "Groom & Style Barber Shop Waterloo",
    "address": "3 Danks St, Waterloo",
    "suburb": "Sydney CBD",
    "state": "NSW",
    "lat": -33.8978715,
    "lng": 151.2103467,
    "place_id": "ChIJDQ5FhS2xEmsRMK78pL0A5Ss",
    "maps_url": "https://www.google.com/maps/place/?q=place_id:ChIJDQ5FhS2xEmsRMK78pL0A5Ss",
    "rating": 4.9,
    "total_ratings": 612
  },
  {
    "name": "JL Boutique Hair Salon",
    "address": "310 Oxford St, Paddington",
    "suburb": "Sydney CBD",
    "state": "NSW",
    "lat": -33.8855008,
    "lng": 151.2285772,
    "place_id": "ChIJpYQpCRavEmsRJEgaRK9p1yM",
    "maps_url": "https://www.google.com/maps/place/?q=place_id:ChIJpYQpCRavEmsRJEgaRK9p1yM",
    "rating": 4.3,
    "total_ratings": 63
  },
  {
    "name": "Blu Creativity Japanese Hair Salon",
    "address": "1.04/39 Liverpool St, Sydney",
    "suburb": "Sydney CBD",
    "state": "NSW",
    "lat": -33.87611150000001,
    "lng": 151.2041656,
    "place_id": "ChIJxzXDYTuuEmsRVUgJgTQo25o",
    "maps_url": "https://www.google.com/maps/place/?q=place_id:ChIJxzXDYTuuEmsRVUgJgTQo25o",
    "rating": 4.4,
    "total_ratings": 425
  },
  {
    "name": "UPTOWN BARBERS DYMOCKS",
    "address": "Level 2, Suite 12/428 George St, Sydney",
    "suburb": "Sydney CBD",
    "state": "NSW",
    "lat": -33.869908,
    "lng": 151.2073361,
    "place_id": "ChIJU0XQADqvEmsRx7LhtbbmT-4",
    "maps_url": "https://www.google.com/maps/place/?q=place_id:ChIJU0XQADqvEmsRx7LhtbbmT-4",
    "rating": 4.9,
    "total_ratings": 888
  },
  {
    "name": "UPTOWN BARBERS ST JAMES ARCADE",
    "address": "Ground Floor, Suite 20/111 Elizabeth St, Sydney",
    "suburb": "Sydney CBD",
    "state": "NSW",
    "lat": -33.8697542,
    "lng": 151.2101076,
    "place_id": "ChIJa_DxvKOvEmsRq8P_Bp099g0",
    "maps_url": "https://www.google.com/maps/place/?q=place_id:ChIJa_DxvKOvEmsRq8P_Bp099g0",
    "rating": 4.9,
    "total_ratings": 405
  },
  {
    "name": "UPTOWN BARBERS THE ROCKS",
    "address": "31 George St, The Rocks",
    "suburb": "Sydney CBD",
    "state": "NSW",
    "lat": -33.8573092,
    "lng": 151.2084051,
    "place_id": "ChIJU2Tn1hKvEmsR8h3L9AbrMdQ",
    "maps_url": "https://www.google.com/maps/place/?q=place_id:ChIJU2Tn1hKvEmsR8h3L9AbrMdQ",
    "rating": 5,
    "total_ratings": 203
  },
  {
    "name": "NOAH Barber Sydney",
    "address": "Strand Arcade, Level 2, Shop 127, 412/414 George St, Sydney",
    "suburb": "Sydney CBD",
    "state": "NSW",
    "lat": -33.8694718,
    "lng": 151.2079212,
    "place_id": "ChIJ-Twenz-uEmsRhnaS4Kvln2s",
    "maps_url": "https://www.google.com/maps/place/?q=place_id:ChIJ-Twenz-uEmsRhnaS4Kvln2s",
    "rating": 4.7,
    "total_ratings": 861
  },
  {
    "name": "Broadway Barbershop Sydney",
    "address": "outside Broadway shopping centre, 13a/185-211 Broadway, Ultimo",
    "suburb": "Sydney CBD",
    "state": "NSW",
    "lat": -33.8841774,
    "lng": 151.1960357,
    "place_id": "ChIJXfWaTCiuEmsRjL2rPecXqfM",
    "maps_url": "https://www.google.com/maps/place/?q=place_id:ChIJXfWaTCiuEmsRjL2rPecXqfM",
    "rating": 4.7,
    "total_ratings": 1392
  },
  {
    "name": "Cutri & Co. Barber Shop",
    "address": "63 Great N Rd, Five Dock",
    "suburb": "Sydney CBD",
    "state": "NSW",
    "lat": -33.8703744,
    "lng": 151.129065,
    "place_id": "ChIJszWn2cCvEmsRR_iTfHTK_RM",
    "maps_url": "https://www.google.com/maps/place/?q=place_id:ChIJszWn2cCvEmsRR_iTfHTK_RM",
    "rating": 4.9,
    "total_ratings": 153
  },
  {
    "name": "Shannon Spark Hair Salon",
    "address": "194 Avoca St, Randwick",
    "suburb": "Sydney CBD",
    "state": "NSW",
    "lat": -33.9159387,
    "lng": 151.2411805,
    "place_id": "ChIJl9yx6BiyEmsRao3e_JveYVA",
    "maps_url": "https://www.google.com/maps/place/?q=place_id:ChIJl9yx6BiyEmsRao3e_JveYVA",
    "rating": 5,
    "total_ratings": 165
  },
  {
    "name": "Illusion Hair",
    "address": "5/61 Quay St, Sydney",
    "suburb": "Sydney CBD",
    "state": "NSW",
    "lat": -33.8810554,
    "lng": 151.2027738,
    "place_id": "ChIJFSpUPiSuEmsRIuuPpkv5MoQ",
    "maps_url": "https://www.google.com/maps/place/?q=place_id:ChIJFSpUPiSuEmsRIuuPpkv5MoQ",
    "rating": 4.2,
    "total_ratings": 65
  },
  {
    "name": "Savvy Hair Boutique",
    "address": "Shop 5/126 Phillip St, Sydney",
    "suburb": "Sydney CBD",
    "state": "NSW",
    "lat": -33.867247,
    "lng": 151.2115647,
    "place_id": "ChIJ3cc1zkGuEmsRZK6dFLL70cE",
    "maps_url": "https://www.google.com/maps/place/?q=place_id:ChIJ3cc1zkGuEmsRZK6dFLL70cE",
    "rating": 4.9,
    "total_ratings": 156
  },
  {
    "name": "Kamil's Hairdressing",
    "address": "Picadilly Arcade, 17/210 Pitt St, Sydney",
    "suburb": "Sydney CBD",
    "state": "NSW",
    "lat": -33.87132340000001,
    "lng": 151.2092363,
    "place_id": "ChIJdeXwTj6uEmsRHXyHrLmIx3M",
    "maps_url": "https://www.google.com/maps/place/?q=place_id:ChIJdeXwTj6uEmsRHXyHrLmIx3M",
    "rating": 4.8,
    "total_ratings": 316
  },
  {
    "name": "Jenny's Hair Affair",
    "address": "shop 3/8A Hughes St, Potts Point",
    "suburb": "Sydney CBD",
    "state": "NSW",
    "lat": -33.8714493,
    "lng": 151.2243945,
    "place_id": "ChIJHTPw3XKuEmsRbncnm_4cKlo",
    "maps_url": "https://www.google.com/maps/place/?q=place_id:ChIJHTPw3XKuEmsRbncnm_4cKlo",
    "rating": 5,
    "total_ratings": 88
  },
  {
    "name": "Salon de Jessie",
    "address": "SHOP 5/131/145 Glebe Point Rd, Glebe",
    "suburb": "Sydney CBD",
    "state": "NSW",
    "lat": -33.8815499,
    "lng": 151.1893229,
    "place_id": "ChIJOWsu7GinEmsRSw1pr0k0A18",
    "maps_url": "https://www.google.com/maps/place/?q=place_id:ChIJOWsu7GinEmsRSw1pr0k0A18",
    "rating": 4.9,
    "total_ratings": 109
  },
  {
    "name": "P.Kran Hair Salon",
    "address": "8 Quay St, Haymarket",
    "suburb": "Sydney CBD",
    "state": "NSW",
    "lat": -33.8810845,
    "lng": 151.2032268,
    "place_id": "ChIJ7ZcKbCSuEmsRW4c_vCApa9c",
    "maps_url": "https://www.google.com/maps/place/?q=place_id:ChIJ7ZcKbCSuEmsRW4c_vCApa9c",
    "rating": 4.9,
    "total_ratings": 57
  },
  {
    "name": "La Libertine Hair",
    "address": "161 Elizabeth St, Sydney",
    "suburb": "Sydney CBD",
    "state": "NSW",
    "lat": -33.871551,
    "lng": 151.2098384,
    "place_id": "ChIJb4j7LD6uEmsRoiGfPhFFjpE",
    "maps_url": "https://www.google.com/maps/place/?q=place_id:ChIJb4j7LD6uEmsRoiGfPhFFjpE",
    "rating": 4.7,
    "total_ratings": 109
  },
  {
    "name": "LA UNICA SALON",
    "address": "208 Lyons Rd, Drummoyne",
    "suburb": "Sydney CBD",
    "state": "NSW",
    "lat": -33.8569914,
    "lng": 151.1453613,
    "place_id": "ChIJ30avGvSvEmsRcVI8S0BAedE",
    "maps_url": "https://www.google.com/maps/place/?q=place_id:ChIJ30avGvSvEmsRcVI8S0BAedE",
    "rating": 4.5,
    "total_ratings": 52
  },
  {
    "name": "Luana Marin Hair Beauty Wellness, Hair Salon, Potts Point",
    "address": "199 Victoria St, Potts Point",
    "suburb": "Sydney CBD",
    "state": "NSW",
    "lat": -33.873767,
    "lng": 151.2221973,
    "place_id": "ChIJTWDCos6vEmsRMROXcF5CX9U",
    "maps_url": "https://www.google.com/maps/place/?q=place_id:ChIJTWDCos6vEmsRMROXcF5CX9U",
    "rating": 4.9,
    "total_ratings": 89
  },
  {
    "name": "Collective Hair",
    "address": "1117 Botany Rd, Mascot",
    "suburb": "Sydney CBD",
    "state": "NSW",
    "lat": -33.9291643,
    "lng": 151.195044,
    "place_id": "ChIJlxHgTR6xEmsR7_2Bu_n1LMM",
    "maps_url": "https://www.google.com/maps/place/?q=place_id:ChIJlxHgTR6xEmsR7_2Bu_n1LMM",
    "rating": 4.9,
    "total_ratings": 237
  },
  {
    "name": "Intuitive Hair",
    "address": "401 Parramatta Rd, Leichhardt",
    "suburb": "Sydney CBD",
    "state": "NSW",
    "lat": -33.888046,
    "lng": 151.157289,
    "place_id": "ChIJM7RNzhCwEmsRlOURqlPUgW8",
    "maps_url": "https://www.google.com/maps/place/?q=place_id:ChIJM7RNzhCwEmsRlOURqlPUgW8",
    "rating": 4.9,
    "total_ratings": 177
  },
  {
    "name": "Salon Stories",
    "address": "342A Crown St, Surry Hills",
    "suburb": "Sydney CBD",
    "state": "NSW",
    "lat": -33.8815164,
    "lng": 151.2149196,
    "place_id": "ChIJebrLGPCvEmsRUfJ44yTkspY",
    "maps_url": "https://www.google.com/maps/place/?q=place_id:ChIJebrLGPCvEmsRUfJ44yTkspY",
    "rating": 4.8,
    "total_ratings": 131
  },
  {
    "name": "L’valle Hair Salon",
    "address": "2/79-83 Longueville Rd, Lane Cove",
    "suburb": "Sydney CBD",
    "state": "NSW",
    "lat": -33.813407,
    "lng": 151.16988,
    "place_id": "ChIJ0RFEGzyvEmsRlJpb-csf4VE",
    "maps_url": "https://www.google.com/maps/place/?q=place_id:ChIJ0RFEGzyvEmsRlJpb-csf4VE",
    "rating": 5,
    "total_ratings": 32
  },
  {
    "name": "Maru Styles",
    "address": "149 Bathurst St, Sydney",
    "suburb": "North Sydney",
    "state": "NSW",
    "lat": -33.8746802,
    "lng": 151.2087879,
    "place_id": "ChIJMXTi6T2uEmsRJngmn76Pt-w",
    "maps_url": "https://www.google.com/maps/place/?q=place_id:ChIJMXTi6T2uEmsRJngmn76Pt-w",
    "rating": 4.8,
    "total_ratings": 806
  },
  {
    "name": "Burrows Hair Newtown",
    "address": "27 Enmore Rd, Newtown",
    "suburb": "North Sydney",
    "state": "NSW",
    "lat": -33.898126,
    "lng": 151.177145,
    "place_id": "ChIJ-bC1EzewEmsRZ6chfB74Ttc",
    "maps_url": "https://www.google.com/maps/place/?q=place_id:ChIJ-bC1EzewEmsRZ6chfB74Ttc",
    "rating": 4.8,
    "total_ratings": 256
  },
  {
    "name": "DJ’s Creative Hair",
    "address": "World Square Shopping Centre, Lower Ground, Shop 9.10/644 George St, Sydney",
    "suburb": "North Sydney",
    "state": "NSW",
    "lat": -33.8768617,
    "lng": 151.2066502,
    "place_id": "ChIJX91p6DyuEmsRe0q6BYVf-O4",
    "maps_url": "https://www.google.com/maps/place/?q=place_id:ChIJX91p6DyuEmsRe0q6BYVf-O4",
    "rating": 4.6,
    "total_ratings": 260
  },
  {
    "name": "Mars Hair",
    "address": "Skyview Shopping Plaza, 4/537 George St, Sydney",
    "suburb": "North Sydney",
    "state": "NSW",
    "lat": -33.8759678,
    "lng": 151.2057819,
    "place_id": "ChIJ7-SX9jyuEmsRS2UPdnN5_kA",
    "maps_url": "https://www.google.com/maps/place/?q=place_id:ChIJ7-SX9jyuEmsRS2UPdnN5_kA",
    "rating": 4.7,
    "total_ratings": 66
  },
  {
    "name": "Magic Hens Salon",
    "address": "16/8 Quay St, Haymarket",
    "suburb": "North Sydney",
    "state": "NSW",
    "lat": -33.8810845,
    "lng": 151.2032268,
    "place_id": "ChIJ1WKRLGKvEmsREGAzngzx3OA",
    "maps_url": "https://www.google.com/maps/place/?q=place_id:ChIJ1WKRLGKvEmsREGAzngzx3OA",
    "rating": 5,
    "total_ratings": 237
  },
  {
    "name": "Sudu Hair and Beauty",
    "address": "90 Pacific Hwy, Roseville",
    "suburb": "North Sydney",
    "state": "NSW",
    "lat": -33.7848783,
    "lng": 151.1772028,
    "place_id": "ChIJS5G3atuoEmsRjhYwvzX-wR0",
    "maps_url": "https://www.google.com/maps/place/?q=place_id:ChIJS5G3atuoEmsRjhYwvzX-wR0",
    "rating": 5,
    "total_ratings": 157
  },
  {
    "name": "True Hair Collective",
    "address": "level 11/63 Market St, Sydney",
    "suburb": "North Sydney",
    "state": "NSW",
    "lat": -33.8708071,
    "lng": 151.2086468,
    "place_id": "ChIJU9NNOACvEmsRUeHlkdOKNHs",
    "maps_url": "https://www.google.com/maps/place/?q=place_id:ChIJU9NNOACvEmsRUeHlkdOKNHs",
    "rating": 5,
    "total_ratings": 69
  },
  {
    "name": "Latelier no1",
    "address": "Shop 3/379-383 Pitt St, Sydney",
    "suburb": "North Sydney",
    "state": "NSW",
    "lat": -33.876458,
    "lng": 151.2075851,
    "place_id": "ChIJww9DSBGvEmsRI1_c43wQQ-k",
    "maps_url": "https://www.google.com/maps/place/?q=place_id:ChIJww9DSBGvEmsRI1_c43wQQ-k",
    "rating": 4.7,
    "total_ratings": 655
  },
  {
    "name": "Sorn Hair Studio",
    "address": "Shop 3B/455 Pitt St, Haymarket",
    "suburb": "North Sydney",
    "state": "NSW",
    "lat": -33.87973059999999,
    "lng": 151.20674,
    "place_id": "ChIJIWiHk-ivEmsRhg_hSalSIss",
    "maps_url": "https://www.google.com/maps/place/?q=place_id:ChIJIWiHk-ivEmsRhg_hSalSIss",
    "rating": 4.6,
    "total_ratings": 120
  },
  {
    "name": "Franck Provost Sydney CBD Hair Salon",
    "address": "185, 185 Macquarie St, Sydney",
    "suburb": "North Sydney",
    "state": "NSW",
    "lat": -33.8667935,
    "lng": 151.2121136,
    "place_id": "ChIJv5LE92quEmsRdLf96znmLbk",
    "maps_url": "https://www.google.com/maps/place/?q=place_id:ChIJv5LE92quEmsRdLf96znmLbk",
    "rating": 4.8,
    "total_ratings": 590
  },
  {
    "name": "Cuts Avenue Salon Chatswood Chase",
    "address": "Chase, Shop B-017A/345 Victoria Ave, Chatswood",
    "suburb": "North Sydney",
    "state": "NSW",
    "lat": -33.7945647,
    "lng": 151.18613,
    "place_id": "ChIJ_TDxQhqpEmsRt8bccs5QO7M",
    "maps_url": "https://www.google.com/maps/place/?q=place_id:ChIJ_TDxQhqpEmsRt8bccs5QO7M",
    "rating": 4.5,
    "total_ratings": 88
  },
  {
    "name": "Salon Lane Surry Hills",
    "address": "Suite 7/63 Ann St, Surry Hills",
    "suburb": "North Sydney",
    "state": "NSW",
    "lat": -33.8823703,
    "lng": 151.2128628,
    "place_id": "ChIJJ0oALdivEmsR2FoJ8HJtfWQ",
    "maps_url": "https://www.google.com/maps/place/?q=place_id:ChIJJ0oALdivEmsR2FoJ8HJtfWQ",
    "rating": 4.6,
    "total_ratings": 93
  },
  {
    "name": "The Barber Co. Sydney",
    "address": "Barrack Place, shop 2/268 Kent St, Sydney",
    "suburb": "North Sydney",
    "state": "NSW",
    "lat": -33.8677471,
    "lng": 151.2045836,
    "place_id": "ChIJlSbbePevEmsRwoORFbUDwCE",
    "maps_url": "https://www.google.com/maps/place/?q=place_id:ChIJlSbbePevEmsRwoORFbUDwCE",
    "rating": 4.5,
    "total_ratings": 300
  },
  {
    "name": "Dusk hair",
    "address": "35b Ross St, Forest Lodge",
    "suburb": "North Sydney",
    "state": "NSW",
    "lat": -33.8824228,
    "lng": 151.1827048,
    "place_id": "ChIJZ2o0cq-vEmsR7rz9JohLn4c",
    "maps_url": "https://www.google.com/maps/place/?q=place_id:ChIJZ2o0cq-vEmsR7rz9JohLn4c",
    "rating": 4.9,
    "total_ratings": 705
  },
  {
    "name": "Takeshi & Team",
    "address": "F1A, 683-689 George St, Sydney",
    "suburb": "North Sydney",
    "state": "NSW",
    "lat": -33.8798088,
    "lng": 151.2047741,
    "place_id": "ChIJORcCcCOuEmsRljoPobpkyyQ",
    "maps_url": "https://www.google.com/maps/place/?q=place_id:ChIJORcCcCOuEmsRljoPobpkyyQ",
    "rating": 4.3,
    "total_ratings": 455
  },
  {
    "name": "LOG: Japanese Hair Salon",
    "address": "Shop 12/61/67 Quay St, Haymarket",
    "suburb": "North Sydney",
    "state": "NSW",
    "lat": -33.8814395,
    "lng": 151.2027709,
    "place_id": "ChIJtdrdfh2vEmsRGZ77aEPyDHw",
    "maps_url": "https://www.google.com/maps/place/?q=place_id:ChIJtdrdfh2vEmsRGZ77aEPyDHw",
    "rating": 4.6,
    "total_ratings": 106
  },
  {
    "name": "Kim Sun Young Liverpool Street",
    "address": "Shop 2/116/120 Liverpool St, Sydney",
    "suburb": "North Sydney",
    "state": "NSW",
    "lat": -33.8764168,
    "lng": 151.2073787,
    "place_id": "ChIJsTKrWTyuEmsRFpc4kzY6nHc",
    "maps_url": "https://www.google.com/maps/place/?q=place_id:ChIJsTKrWTyuEmsRFpc4kzY6nHc",
    "rating": 4.4,
    "total_ratings": 2381
  },
  {
    "name": "BANYO HAIR",
    "address": "SHOP 9/101 Waterloo Rd, Macquarie Park",
    "suburb": "Chatswood",
    "state": "NSW",
    "lat": -33.7792054,
    "lng": 151.1213491,
    "place_id": "ChIJnzWsRlenEmsRxFF21NE48T4",
    "maps_url": "https://www.google.com/maps/place/?q=place_id:ChIJnzWsRlenEmsRxFF21NE48T4",
    "rating": 4.8,
    "total_ratings": 539
  },
  {
    "name": "Genton Hair",
    "address": "Shop 03/60 Martin Pl, Sydney",
    "suburb": "Chatswood",
    "state": "NSW",
    "lat": -33.8674749,
    "lng": 151.2117754,
    "place_id": "ChIJOUqXnfqvEmsRW-o28rqXqvM",
    "maps_url": "https://www.google.com/maps/place/?q=place_id:ChIJOUqXnfqvEmsRW-o28rqXqvM",
    "rating": 4.9,
    "total_ratings": 212
  },
  {
    "name": "Adore Me Hair & Beauty Salon",
    "address": "14 Cabarita Rd, Concord",
    "suburb": "Chatswood",
    "state": "NSW",
    "lat": -33.8516919,
    "lng": 151.107833,
    "place_id": "ChIJAVih8zqlEmsRn_oVcsAeXpk",
    "maps_url": "https://www.google.com/maps/place/?q=place_id:ChIJAVih8zqlEmsRn_oVcsAeXpk",
    "rating": 4.7,
    "total_ratings": 120
  },
  {
    "name": "Luxe Concept Salon",
    "address": "Chatswood Chase, Shop G011/345 Victoria Ave, Chatswood",
    "suburb": "Chatswood",
    "state": "NSW",
    "lat": -33.794418,
    "lng": 151.1859023,
    "place_id": "ChIJt3n1INaoEmsR1o2eNvosQo4",
    "maps_url": "https://www.google.com/maps/place/?q=place_id:ChIJt3n1INaoEmsR1o2eNvosQo4",
    "rating": 4.7,
    "total_ratings": 427
  },
  {
    "name": "Hair Divine",
    "address": "Shop 9/445 Victoria Ave, Chatswood",
    "suburb": "Chatswood",
    "state": "NSW",
    "lat": -33.796182,
    "lng": 151.1819246,
    "place_id": "ChIJ1Wcf74upEmsRQ4aH7WTPyuw",
    "maps_url": "https://www.google.com/maps/place/?q=place_id:ChIJ1Wcf74upEmsRQ4aH7WTPyuw",
    "rating": 4.4,
    "total_ratings": 188
  },
  {
    "name": "Men's Culture Barber 25 Martin PL",
    "address": "Shop 607/19 Martin Pl, Sydney",
    "suburb": "Chatswood",
    "state": "NSW",
    "lat": -33.868427,
    "lng": 151.2092173,
    "place_id": "ChIJaQ-MRV-vEmsRjySQKTv7ahc",
    "maps_url": "https://www.google.com/maps/place/?q=place_id:ChIJaQ-MRV-vEmsRjySQKTv7ahc",
    "rating": 4.9,
    "total_ratings": 78
  },
  {
    "name": "Ivan and Mano’s Hairdressing & Barber",
    "address": "Shop 1/11 Spring St, Chatswood",
    "suburb": "Chatswood",
    "state": "NSW",
    "lat": -33.7965552,
    "lng": 151.1850432,
    "place_id": "ChIJqcnkMdSoEmsRrdyNGJBPqFI",
    "maps_url": "https://www.google.com/maps/place/?q=place_id:ChIJqcnkMdSoEmsRrdyNGJBPqFI",
    "rating": 4.9,
    "total_ratings": 150
  },
  {
    "name": "Taroo Cuts",
    "address": "Lower Ground, Shop 1/234 George St, Sydney",
    "suburb": "Chatswood",
    "state": "NSW",
    "lat": -33.8634508,
    "lng": 151.2077171,
    "place_id": "ChIJu088rEGuEmsRLOflrUNUzY0",
    "maps_url": "https://www.google.com/maps/place/?q=place_id:ChIJu088rEGuEmsRLOflrUNUzY0",
    "rating": 4.6,
    "total_ratings": 219
  },
  {
    "name": "Salon Zephyr",
    "address": "35 Majors Bay Rd, Concord",
    "suburb": "Chatswood",
    "state": "NSW",
    "lat": -33.8571647,
    "lng": 151.1037016,
    "place_id": "ChIJBZSnu0alEmsRkd4SDo5BuJY",
    "maps_url": "https://www.google.com/maps/place/?q=place_id:ChIJBZSnu0alEmsRkd4SDo5BuJY",
    "rating": 4.8,
    "total_ratings": 163
  },
  {
    "name": "Miller and Green Hairdressing",
    "address": "171 Blues Point Rd, McMahons Point",
    "suburb": "Chatswood",
    "state": "NSW",
    "lat": -33.8427874,
    "lng": 151.2052311,
    "place_id": "ChIJu_hxfvKuEmsRsRSoD_NwYhY",
    "maps_url": "https://www.google.com/maps/place/?q=place_id:ChIJu_hxfvKuEmsRsRSoD_NwYhY",
    "rating": 4.9,
    "total_ratings": 87
  },
  {
    "name": "Manipulate Hair Studio",
    "address": "THE STRAND ARCADE: SYDNEY, LEVEL 2, SHOP 300/412-414 George St, Sydney",
    "suburb": "Chatswood",
    "state": "NSW",
    "lat": -33.8694166,
    "lng": 151.2076269,
    "place_id": "ChIJ7ZFoOz-uEmsRqQQlKzZ8kRc",
    "maps_url": "https://www.google.com/maps/place/?q=place_id:ChIJ7ZFoOz-uEmsRqQQlKzZ8kRc",
    "rating": 4.8,
    "total_ratings": 214
  },
  {
    "name": "TONI&GUY Sydney City",
    "address": "Shop G11-13/77 York St, Sydney",
    "suburb": "Chatswood",
    "state": "NSW",
    "lat": -33.8689061,
    "lng": 151.2058604,
    "place_id": "ChIJWSvVGz6uEmsRpe74xdGyrvk",
    "maps_url": "https://www.google.com/maps/place/?q=place_id:ChIJWSvVGz6uEmsRpe74xdGyrvk",
    "rating": 4.4,
    "total_ratings": 197
  },
  {
    "name": "Franck Provost Westfield Chatswood Hair Salon",
    "address": "Westfield Chatswood, 1 Anderson St, Chatswood",
    "suburb": "Chatswood",
    "state": "NSW",
    "lat": -33.7969479,
    "lng": 151.1838178,
    "place_id": "ChIJ3YiWNdSoEmsRuD3dAJQjhQ4",
    "maps_url": "https://www.google.com/maps/place/?q=place_id:ChIJ3YiWNdSoEmsRuD3dAJQjhQ4",
    "rating": 4.8,
    "total_ratings": 381
  },
  {
    "name": "Milano Hair Studio",
    "address": "33 Alexandra St, Hunters Hill",
    "suburb": "Chatswood",
    "state": "NSW",
    "lat": -33.83513,
    "lng": 151.1552869,
    "place_id": "ChIJNWNgjp2vEmsRiri92QG_ZdE",
    "maps_url": "https://www.google.com/maps/place/?q=place_id:ChIJNWNgjp2vEmsRiri92QG_ZdE",
    "rating": 5,
    "total_ratings": 48
  },
  {
    "name": "Edge Studio",
    "address": "shop 7 upper ground floor, 10 Spring st, (access also from 17 O'Connell st ), Sydney",
    "suburb": "Chatswood",
    "state": "NSW",
    "lat": -33.8648102,
    "lng": 151.2093171,
    "place_id": "ChIJHweP62muEmsRImETU8OzUoc",
    "maps_url": "https://www.google.com/maps/place/?q=place_id:ChIJHweP62muEmsRImETU8OzUoc",
    "rating": 4.9,
    "total_ratings": 39
  },
  {
    "name": "Salon De Rachel",
    "address": "Shop 6/187 Military Rd, Neutral Bay",
    "suburb": "Chatswood",
    "state": "NSW",
    "lat": -33.8316626,
    "lng": 151.223813,
    "place_id": "ChIJsxDfD5iuEmsRq6TeXOyjWsc",
    "maps_url": "https://www.google.com/maps/place/?q=place_id:ChIJsxDfD5iuEmsRq6TeXOyjWsc",
    "rating": 5,
    "total_ratings": 68
  },
  {
    "name": "The Darlene Hair Lounge",
    "address": "160A Longueville Rd, Lane Cove",
    "suburb": "Chatswood",
    "state": "NSW",
    "lat": -33.81506950000001,
    "lng": 151.1702812,
    "place_id": "ChIJ-RR1LjyvEmsRk1zc4vaH4MQ",
    "maps_url": "https://www.google.com/maps/place/?q=place_id:ChIJ-RR1LjyvEmsRk1zc4vaH4MQ",
    "rating": 5,
    "total_ratings": 125
  },
  {
    "name": "Hair By YUKI",
    "address": "488 Pacific Hwy, St Leonards",
    "suburb": "Chatswood",
    "state": "NSW",
    "lat": -33.8241212,
    "lng": 151.1972066,
    "place_id": "ChIJ_x5tc5qvEmsRUGnaoJtPXwQ",
    "maps_url": "https://www.google.com/maps/place/?q=place_id:ChIJ_x5tc5qvEmsRUGnaoJtPXwQ",
    "rating": 5,
    "total_ratings": 71
  },
  {
    "name": "KINGZMAN Men's Hairdressing and Barber Salon",
    "address": "498a Miller St, Cammeray",
    "suburb": "Chatswood",
    "state": "NSW",
    "lat": -33.8223951,
    "lng": 151.2102166,
    "place_id": "ChIJFSyTV8euEmsRQryJQkf-04Q",
    "maps_url": "https://www.google.com/maps/place/?q=place_id:ChIJFSyTV8euEmsRQryJQkf-04Q",
    "rating": 4.9,
    "total_ratings": 516
  },
  {
    "name": "Harry Hair Salon",
    "address": "80 Archer St, Chatswood",
    "suburb": "Chatswood",
    "state": "NSW",
    "lat": -33.7953787,
    "lng": 151.1850611,
    "place_id": "ChIJaWMOGdaoEmsRUZRoVHoLJcI",
    "maps_url": "https://www.google.com/maps/place/?q=place_id:ChIJaWMOGdaoEmsRUZRoVHoLJcI",
    "rating": 3.7,
    "total_ratings": 109
  },
  {
    "name": "Star Hair and Beauty",
    "address": "The Star Grand Lobby, The Star Casino , Shop 23, 80 Pyrmont St (Corner of, Jones Bay Rd, Pyrmont",
    "suburb": "Chatswood",
    "state": "NSW",
    "lat": -33.8682215,
    "lng": 151.1953756,
    "place_id": "ChIJ1-v38TauEmsRhTEnS2UCmpo",
    "maps_url": "https://www.google.com/maps/place/?q=place_id:ChIJ1-v38TauEmsRhTEnS2UCmpo",
    "rating": 4.2,
    "total_ratings": 98
  },
  {
    "name": "Michael Napoli Hair",
    "address": "Shop G01/38 Atchison St, St Leonards",
    "suburb": "Chatswood",
    "state": "NSW",
    "lat": -33.8227712,
    "lng": 151.1975852,
    "place_id": "ChIJU9GtL92uEmsRYR672jRJTRY",
    "maps_url": "https://www.google.com/maps/place/?q=place_id:ChIJU9GtL92uEmsRYR672jRJTRY",
    "rating": 4.8,
    "total_ratings": 104
  },
  {
    "name": "Sterling Hairdressing",
    "address": "Level 4 16/A/428 George St, Sydney",
    "suburb": "Chatswood",
    "state": "NSW",
    "lat": -33.8699167,
    "lng": 151.2073643,
    "place_id": "ChIJ94O9lBeuEmsRwuTvmtvnoR0",
    "maps_url": "https://www.google.com/maps/place/?q=place_id:ChIJ94O9lBeuEmsRwuTvmtvnoR0",
    "rating": 4.8,
    "total_ratings": 112
  },
  {
    "name": "West Street Salon",
    "address": "84 West St, North Sydney",
    "suburb": "Chatswood",
    "state": "NSW",
    "lat": -33.8305988,
    "lng": 151.2057841,
    "place_id": "ChIJiyM9weuuEmsRql-7WPecNOY",
    "maps_url": "https://www.google.com/maps/place/?q=place_id:ChIJiyM9weuuEmsRql-7WPecNOY",
    "rating": 4.9,
    "total_ratings": 67
  },
  {
    "name": "Snow Bear Hairdressing",
    "address": "24-28 Burns Bay Rd, Lane Cove",
    "suburb": "Chatswood",
    "state": "NSW",
    "lat": -33.8147743,
    "lng": 151.1691019,
    "place_id": "ChIJv4d-CCGvEmsRyAF8fEympg0",
    "maps_url": "https://www.google.com/maps/place/?q=place_id:ChIJv4d-CCGvEmsRyAF8fEympg0",
    "rating": 4,
    "total_ratings": 284
  },
  {
    "name": "Snow Bear Hair Salon",
    "address": "Macquarie Shopping Centre, Shop 1004, Macquarie Park",
    "suburb": "Chatswood",
    "state": "NSW",
    "lat": -33.7767187,
    "lng": 151.1205172,
    "place_id": "ChIJqbwgEFOnEmsRQcBiAhEFYH4",
    "maps_url": "https://www.google.com/maps/place/?q=place_id:ChIJqbwgEFOnEmsRQcBiAhEFYH4",
    "rating": 4.5,
    "total_ratings": 338
  },
  {
    "name": "De'Nelle Salon + De’Massage by Chanelle",
    "address": "80 Eltham St, Gladesville",
    "suburb": "Chatswood",
    "state": "NSW",
    "lat": -33.823179,
    "lng": 151.1247708,
    "place_id": "ChIJqcW9Q5ylEmsRr79Fyi-x7_k",
    "maps_url": "https://www.google.com/maps/place/?q=place_id:ChIJqcW9Q5ylEmsRr79Fyi-x7_k",
    "rating": 5,
    "total_ratings": 95
  },
  {
    "name": "Junn Hair",
    "address": "LG2/30 Alfred St S, Milsons Point",
    "suburb": "Chatswood",
    "state": "NSW",
    "lat": -33.8481261,
    "lng": 151.2115298,
    "place_id": "ChIJxVODAKyvEmsR-i7_-5QIae0",
    "maps_url": "https://www.google.com/maps/place/?q=place_id:ChIJxVODAKyvEmsR-i7_-5QIae0",
    "rating": 4.9,
    "total_ratings": 88
  },
  {
    "name": "Stylelab Hair",
    "address": "level 2/387 George St, Sydney",
    "suburb": "Chatswood",
    "state": "NSW",
    "lat": -33.8695264,
    "lng": 151.2067223,
    "place_id": "ChIJkxJBajyvEmsRiAsRnqXrM50",
    "maps_url": "https://www.google.com/maps/place/?q=place_id:ChIJkxJBajyvEmsRiAsRnqXrM50",
    "rating": 4.7,
    "total_ratings": 67
  },
  {
    "name": "THE BARBERHOOD",
    "address": "5 Martin Pl, Sydney",
    "suburb": "Chatswood",
    "state": "NSW",
    "lat": -33.8677438,
    "lng": 151.2089,
    "place_id": "ChIJC8a8EkCuEmsR8tE4dE429N8",
    "maps_url": "https://www.google.com/maps/place/?q=place_id:ChIJC8a8EkCuEmsR8tE4dE429N8",
    "rating": 4.4,
    "total_ratings": 252
  },
  {
    "name": "Sevan Barber",
    "address": "190 Blaxland Rd, Ryde",
    "suburb": "Chatswood",
    "state": "NSW",
    "lat": -33.8102231,
    "lng": 151.1056197,
    "place_id": "ChIJ987ZglKkEmsRn3pAI4pb_Go",
    "maps_url": "https://www.google.com/maps/place/?q=place_id:ChIJ987ZglKkEmsRn3pAI4pb_Go",
    "rating": 4.8,
    "total_ratings": 65
  },
  {
    "name": "Subin Hair & Beauty Sydney",
    "address": "60 Margaret St, Sydney",
    "suburb": "Chatswood",
    "state": "NSW",
    "lat": -33.8649012,
    "lng": 151.2063163,
    "place_id": "ChIJwaI0TECuEmsRHU25TECHBQg",
    "maps_url": "https://www.google.com/maps/place/?q=place_id:ChIJwaI0TECuEmsRHU25TECHBQg",
    "rating": 4.4,
    "total_ratings": 41
  },
  {
    "name": "Planet Hair",
    "address": "31 Shelley St, Sydney",
    "suburb": "Chatswood",
    "state": "NSW",
    "lat": -33.8675119,
    "lng": 151.2023502,
    "place_id": "ChIJ3RGItj-uEmsR8oqnmQnKGog",
    "maps_url": "https://www.google.com/maps/place/?q=place_id:ChIJ3RGItj-uEmsR8oqnmQnKGog",
    "rating": 4.6,
    "total_ratings": 322
  },
  {
    "name": "Salon Yazbek",
    "address": "226 Military Rd, Neutral Bay",
    "suburb": "Chatswood",
    "state": "NSW",
    "lat": -33.8313523,
    "lng": 151.2232124,
    "place_id": "ChIJt_mTCpiuEmsRIWN7QqgPMhc",
    "maps_url": "https://www.google.com/maps/place/?q=place_id:ChIJt_mTCpiuEmsRIWN7QqgPMhc",
    "rating": 4.7,
    "total_ratings": 116
  },
  {
    "name": "The Salon",
    "address": "7/450 Miller St, Cammeray",
    "suburb": "Chatswood",
    "state": "NSW",
    "lat": -33.8235058,
    "lng": 151.2098438,
    "place_id": "ChIJ4bmQpsCuEmsRZTuue3DZr_U",
    "maps_url": "https://www.google.com/maps/place/?q=place_id:ChIJ4bmQpsCuEmsRZTuue3DZr_U",
    "rating": 4.7,
    "total_ratings": 37
  },
  {
    "name": "The Hair Angel",
    "address": "356 Darling St, Balmain",
    "suburb": "Chatswood",
    "state": "NSW",
    "lat": -33.8566822,
    "lng": 151.1784681,
    "place_id": "ChIJhRI_dcWvEmsRVzpXtlKbKro",
    "maps_url": "https://www.google.com/maps/place/?q=place_id:ChIJhRI_dcWvEmsRVzpXtlKbKro",
    "rating": 4.9,
    "total_ratings": 216
  },
  {
    "name": "Get Funked Hair & Beauty",
    "address": "suite 104, level 1/375 George St, Sydney",
    "suburb": "Chatswood",
    "state": "NSW",
    "lat": -33.8691999,
    "lng": 151.206658,
    "place_id": "ChIJXf-UsziuEmsRlNpeXnGgVBg",
    "maps_url": "https://www.google.com/maps/place/?q=place_id:ChIJXf-UsziuEmsRlNpeXnGgVBg",
    "rating": 5,
    "total_ratings": 39
  },
  {
    "name": "Keratin Treatment Salon: Brazilian Blowout Sydney",
    "address": "Shop 2 Building/6 Eden Park Dr, Macquarie Park",
    "suburb": "Chatswood",
    "state": "NSW",
    "lat": -33.7863699,
    "lng": 151.1310634,
    "place_id": "ChIJY8C4oQemEmsRvqvT_hp1zV8",
    "maps_url": "https://www.google.com/maps/place/?q=place_id:ChIJY8C4oQemEmsRvqvT_hp1zV8",
    "rating": 4.7,
    "total_ratings": 222
  },
  {
    "name": "Enhance Styling",
    "address": "Level 3/312/375 George St, Sydney",
    "suburb": "Chatswood",
    "state": "NSW",
    "lat": -33.8691999,
    "lng": 151.206658,
    "place_id": "ChIJAcXAh0GuEmsRrAi9QeeG_yA",
    "maps_url": "https://www.google.com/maps/place/?q=place_id:ChIJAcXAh0GuEmsRrAi9QeeG_yA",
    "rating": 4.8,
    "total_ratings": 88
  },
  {
    "name": "Sessions Hairdressing",
    "address": "71 Union St, McMahons Point",
    "suburb": "Chatswood",
    "state": "NSW",
    "lat": -33.8416626,
    "lng": 151.2023928,
    "place_id": "ChIJd7ksdvauEmsRiaZ9qpUyyF0",
    "maps_url": "https://www.google.com/maps/place/?q=place_id:ChIJd7ksdvauEmsRiaZ9qpUyyF0",
    "rating": 4.9,
    "total_ratings": 137
  },
  {
    "name": "OZ10 Hair Salon",
    "address": "4.01/99 Walker St, North Sydney",
    "suburb": "Chatswood",
    "state": "NSW",
    "lat": -33.83924390000001,
    "lng": 151.2091844,
    "place_id": "ChIJlwBsYu2uEmsRc35FerAASWw",
    "maps_url": "https://www.google.com/maps/place/?q=place_id:ChIJlwBsYu2uEmsRc35FerAASWw",
    "rating": 4.7,
    "total_ratings": 142
  },
  {
    "name": "Lauren Clare",
    "address": "Unit 5/1051 Pacific Hwy, Pymble",
    "suburb": "Chatswood",
    "state": "NSW",
    "lat": -33.7422754,
    "lng": 151.1397507,
    "place_id": "ChIJJZdZJNunEmsRdufylvMgzbI",
    "maps_url": "https://www.google.com/maps/place/?q=place_id:ChIJJZdZJNunEmsRdufylvMgzbI",
    "rating": 4.8,
    "total_ratings": 53
  },
  {
    "name": "Otaku Hair & Beauty",
    "address": "Shop 8/370 Victoria Ave, Chatswood",
    "suburb": "Chatswood",
    "state": "NSW",
    "lat": -33.796396,
    "lng": 151.183607,
    "place_id": "ChIJBdjJPNSoEmsRAfY0HEoQ7NM",
    "maps_url": "https://www.google.com/maps/place/?q=place_id:ChIJBdjJPNSoEmsRAfY0HEoQ7NM",
    "rating": 4.1,
    "total_ratings": 188
  },
  {
    "name": "DAISY & CO HAIR STUDIO",
    "address": "shop 2/6 Chambers Ct, Epping",
    "suburb": "Hornsby",
    "state": "NSW",
    "lat": -33.7725647,
    "lng": 151.0835153,
    "place_id": "ChIJtc8WVgCnEmsRjGm0UPVbGXw",
    "maps_url": "https://www.google.com/maps/place/?q=place_id:ChIJtc8WVgCnEmsRjGm0UPVbGXw",
    "rating": 4.9,
    "total_ratings": 199
  },
  {
    "name": "Mason James Hair",
    "address": "5/83 David Rd, Castle Hill",
    "suburb": "Hornsby",
    "state": "NSW",
    "lat": -33.721821,
    "lng": 151.02553,
    "place_id": "ChIJZZkXhUShEmsRHI26lcAgQPU",
    "maps_url": "https://www.google.com/maps/place/?q=place_id:ChIJZZkXhUShEmsRHI26lcAgQPU",
    "rating": 4.9,
    "total_ratings": 278
  },
  {
    "name": "Be Mine Hair Salon",
    "address": "2-6 Oxford St, Epping",
    "suburb": "Hornsby",
    "state": "NSW",
    "lat": -33.7722091,
    "lng": 151.0826544,
    "place_id": "ChIJqQCxKIOmEmsRDfAXd-aDEG4",
    "maps_url": "https://www.google.com/maps/place/?q=place_id:ChIJqQCxKIOmEmsRDfAXd-aDEG4",
    "rating": 4.4,
    "total_ratings": 291
  },
  {
    "name": "Eagles Nest Barbershop & Salon (Late Night, Walk-ins & Booking)",
    "address": "2/26 Florence St, Hornsby",
    "suburb": "Hornsby",
    "state": "NSW",
    "lat": -33.704294,
    "lng": 151.100848,
    "place_id": "ChIJqZf2tHmlEmsR0jYVXMdlgdE",
    "maps_url": "https://www.google.com/maps/place/?q=place_id:ChIJqZf2tHmlEmsR0jYVXMdlgdE",
    "rating": 4.7,
    "total_ratings": 443
  },
  {
    "name": "KasArt Hair",
    "address": "323 Pacific Hwy, Lindfield",
    "suburb": "Hornsby",
    "state": "NSW",
    "lat": -33.7762073,
    "lng": 151.1690234,
    "place_id": "ChIJefryBOqoEmsRb7J9YD7RxAA",
    "maps_url": "https://www.google.com/maps/place/?q=place_id:ChIJefryBOqoEmsRb7J9YD7RxAA",
    "rating": 5,
    "total_ratings": 101
  },
  {
    "name": "Show Hair Salon",
    "address": "1 Oxford St, Epping",
    "suburb": "Hornsby",
    "state": "NSW",
    "lat": -33.7719379,
    "lng": 151.0825092,
    "place_id": "ChIJ_zkCRDekEmsR83G-94-uBXM",
    "maps_url": "https://www.google.com/maps/place/?q=place_id:ChIJ_zkCRDekEmsR83G-94-uBXM",
    "rating": 4.8,
    "total_ratings": 305
  },
  {
    "name": "Mr. Scissors Cut Hair and Beauty Salon",
    "address": "129/121-133 Pacific Hwy, Hornsby",
    "suburb": "Hornsby",
    "state": "NSW",
    "lat": -33.7063407,
    "lng": 151.0985412,
    "place_id": "ChIJUX3ZboSnEmsR0uigPfXP7DE",
    "maps_url": "https://www.google.com/maps/place/?q=place_id:ChIJUX3ZboSnEmsR0uigPfXP7DE",
    "rating": 4.7,
    "total_ratings": 116
  },
  {
    "name": "Royals Hair Hornsby",
    "address": "Shop 1016/236 Pacific Hwy, Hornsby",
    "suburb": "Hornsby",
    "state": "NSW",
    "lat": -33.704359,
    "lng": 151.0999048,
    "place_id": "ChIJJ2VkHISnEmsRmkKusHH2Chs",
    "maps_url": "https://www.google.com/maps/place/?q=place_id:ChIJJ2VkHISnEmsRmkKusHH2Chs",
    "rating": 4.5,
    "total_ratings": 753
  },
  {
    "name": "An hair salon",
    "address": "5 Bridge St, Epping",
    "suburb": "Hornsby",
    "state": "NSW",
    "lat": -33.774065,
    "lng": 151.0815498,
    "place_id": "ChIJq6pWTp2mEmsReK18ZKysCDg",
    "maps_url": "https://www.google.com/maps/place/?q=place_id:ChIJq6pWTp2mEmsReK18ZKysCDg",
    "rating": 4.6,
    "total_ratings": 83
  },
  {
    "name": "Le An & Co Hair",
    "address": "1/208 Pacific Hwy, Hornsby",
    "suburb": "Hornsby",
    "state": "NSW",
    "lat": -33.7065061,
    "lng": 151.0991939,
    "place_id": "ChIJXTWsBrCnEmsRiwGU9-KpFro",
    "maps_url": "https://www.google.com/maps/place/?q=place_id:ChIJXTWsBrCnEmsRiwGU9-KpFro",
    "rating": 4.8,
    "total_ratings": 174
  },
  {
    "name": "Kings Cut Barbershop",
    "address": "Cnr Waterloo and, Macquarie Shopping Centre, Level 1 upper Herring Rd, North Ryde",
    "suburb": "Hornsby",
    "state": "NSW",
    "lat": -33.7767187,
    "lng": 151.1205172,
    "place_id": "ChIJb7mUrA2mEmsR25X4H_I3Tus",
    "maps_url": "https://www.google.com/maps/place/?q=place_id:ChIJb7mUrA2mEmsR25X4H_I3Tus",
    "rating": 4.3,
    "total_ratings": 530
  },
  {
    "name": "Yayin Serrano Hair and MakeUp Studio",
    "address": "G Shop 2A/25-31 Florence St, Hornsby",
    "suburb": "Hornsby",
    "state": "NSW",
    "lat": -33.7037674,
    "lng": 151.10011,
    "place_id": "ChIJ7ZLYnI-nEmsRPbyAo_kccGw",
    "maps_url": "https://www.google.com/maps/place/?q=place_id:ChIJ7ZLYnI-nEmsRPbyAo_kccGw",
    "rating": 4.9,
    "total_ratings": 78
  },
  {
    "name": "Hair Salon Asquith Platinum Hair By Belle",
    "address": "361 Pacific Hwy, Asquith",
    "suburb": "Hornsby",
    "state": "NSW",
    "lat": -33.6887359,
    "lng": 151.1073608,
    "place_id": "ChIJk725m5qnEmsRtOT-Cwg1Bzc",
    "maps_url": "https://www.google.com/maps/place/?q=place_id:ChIJk725m5qnEmsRtOT-Cwg1Bzc",
    "rating": 4.8,
    "total_ratings": 127
  },
  {
    "name": "Kingsmen Hair",
    "address": "Gordon Shopping Centre, 802, Shop T12/808 Pacific Hwy, Gordon",
    "suburb": "Hornsby",
    "state": "NSW",
    "lat": -33.7553775,
    "lng": 151.1518435,
    "place_id": "ChIJ2ZorLiepEmsREUupgVxyL0w",
    "maps_url": "https://www.google.com/maps/place/?q=place_id:ChIJ2ZorLiepEmsREUupgVxyL0w",
    "rating": 4.7,
    "total_ratings": 120
  },
  {
    "name": "Jackie’s Hair And Beauty",
    "address": "9 Monastery Pl, Cherrybrook",
    "suburb": "Hornsby",
    "state": "NSW",
    "lat": -33.7331232,
    "lng": 151.0412546,
    "place_id": "ChIJzQUFCC6hEmsRWf2wyTrUuUo",
    "maps_url": "https://www.google.com/maps/place/?q=place_id:ChIJzQUFCC6hEmsRWf2wyTrUuUo",
    "rating": 4.7,
    "total_ratings": 70
  },
  {
    "name": "Studio Frankee & Co",
    "address": "Unit 102/164A Mona Vale Rd, St Ives",
    "suburb": "Hornsby",
    "state": "NSW",
    "lat": -33.730543,
    "lng": 151.1575549,
    "place_id": "ChIJ_wBEr2-pEmsRzjZJXptJ1Nc",
    "maps_url": "https://www.google.com/maps/place/?q=place_id:ChIJ_wBEr2-pEmsRzjZJXptJ1Nc",
    "rating": 4.9,
    "total_ratings": 52
  },
  {
    "name": "real mens Hairdressing",
    "address": "7/4-10 Hillcrest Rd, Pennant Hills",
    "suburb": "Hornsby",
    "state": "NSW",
    "lat": -33.737657,
    "lng": 151.070957,
    "place_id": "ChIJlZ12Z-emEmsRthHm-K2PyXo",
    "maps_url": "https://www.google.com/maps/place/?q=place_id:ChIJlZ12Z-emEmsRthHm-K2PyXo",
    "rating": 4.7,
    "total_ratings": 262
  },
  {
    "name": "Hair by Phd Carlingford",
    "address": "1/14-20 Carmen Dr, Carlingford",
    "suburb": "Hornsby",
    "state": "NSW",
    "lat": -33.7609596,
    "lng": 151.0409705,
    "place_id": "ChIJM8VOmlahEmsRhXYquCM-EVU",
    "maps_url": "https://www.google.com/maps/place/?q=place_id:ChIJM8VOmlahEmsRhXYquCM-EVU",
    "rating": 4.9,
    "total_ratings": 89
  },
  {
    "name": "The rocks barber shop",
    "address": "Shop 73/328 N Rocks Rd, North Rocks",
    "suburb": "Hornsby",
    "state": "NSW",
    "lat": -33.7691606,
    "lng": 151.0269827,
    "place_id": "ChIJbWio9uajEmsR-QdMFNdPM0c",
    "maps_url": "https://www.google.com/maps/place/?q=place_id:ChIJbWio9uajEmsR-QdMFNdPM0c",
    "rating": 4.3,
    "total_ratings": 159
  },
  {
    "name": "Deep North Barber",
    "address": "Shop 2/860 Pacific Hwy, Gordon",
    "suburb": "Hornsby",
    "state": "NSW",
    "lat": -33.7526123,
    "lng": 151.1491097,
    "place_id": "ChIJE8sCSwSpEmsRGOCTleTfYhY",
    "maps_url": "https://www.google.com/maps/place/?q=place_id:ChIJE8sCSwSpEmsRGOCTleTfYhY",
    "rating": 5,
    "total_ratings": 83
  },
  {
    "name": "Joseph’s Mens Hairdressing",
    "address": "20 George St, Hornsby",
    "suburb": "Hornsby",
    "state": "NSW",
    "lat": -33.703298,
    "lng": 151.0995962,
    "place_id": "ChIJW-PO8IOnEmsRW8_NcGKhpps",
    "maps_url": "https://www.google.com/maps/place/?q=place_id:ChIJW-PO8IOnEmsRW8_NcGKhpps",
    "rating": 4.8,
    "total_ratings": 149
  },
  {
    "name": "Polly and Stone",
    "address": "Level 1/4 Eastern Rd, Turramurra",
    "suburb": "Hornsby",
    "state": "NSW",
    "lat": -33.7315648,
    "lng": 151.1285962,
    "place_id": "ChIJ3WcuZRenEmsRAvodj0twBqQ",
    "maps_url": "https://www.google.com/maps/place/?q=place_id:ChIJ3WcuZRenEmsRAvodj0twBqQ",
    "rating": 4.9,
    "total_ratings": 288
  },
  {
    "name": "é SALON Hair",
    "address": "Shop 7/2 Redleaf Ave, Wahroonga",
    "suburb": "Hornsby",
    "state": "NSW",
    "lat": -33.7186065,
    "lng": 151.1175938,
    "place_id": "ChIJX03LUeunEmsRQwtvyYusKyM",
    "maps_url": "https://www.google.com/maps/place/?q=place_id:ChIJX03LUeunEmsRQwtvyYusKyM",
    "rating": 4.8,
    "total_ratings": 239
  },
  {
    "name": "Allan's Carlingford",
    "address": "Shop 120/809 Pennant Hills Rd, Carlingford",
    "suburb": "Hornsby",
    "state": "NSW",
    "lat": -33.7768687,
    "lng": 151.052403,
    "place_id": "ChIJMenicgakEmsRbrnkW5ZGsnM",
    "maps_url": "https://www.google.com/maps/place/?q=place_id:ChIJMenicgakEmsRbrnkW5ZGsnM",
    "rating": 4.2,
    "total_ratings": 195
  },
  {
    "name": "Merino's Mens Hairdressing",
    "address": "2/25-31 Florence St, Hornsby",
    "suburb": "Hornsby",
    "state": "NSW",
    "lat": -33.7038255,
    "lng": 151.1000689,
    "place_id": "ChIJ3yaIDoSnEmsRAyDRZ5LkuOg",
    "maps_url": "https://www.google.com/maps/place/?q=place_id:ChIJ3yaIDoSnEmsRAyDRZ5LkuOg",
    "rating": 4.7,
    "total_ratings": 101
  },
  {
    "name": "Kingsmen Hair",
    "address": "Shopping Village, Shop 27/166 Mona Vale Rd, St Ives",
    "suburb": "Hornsby",
    "state": "NSW",
    "lat": -33.7293983,
    "lng": 151.1590269,
    "place_id": "ChIJ49fy9lGpEmsR2uzLLar60kE",
    "maps_url": "https://www.google.com/maps/place/?q=place_id:ChIJ49fy9lGpEmsR2uzLLar60kE",
    "rating": 4.2,
    "total_ratings": 129
  },
  {
    "name": "Total Eclips Hair Studio",
    "address": "9/43A Florence St, Hornsby",
    "suburb": "Hornsby",
    "state": "NSW",
    "lat": -33.7040546,
    "lng": 151.1017703,
    "place_id": "ChIJ-83tOoSnEmsR-OuRXEuObLI",
    "maps_url": "https://www.google.com/maps/place/?q=place_id:ChIJ-83tOoSnEmsR-OuRXEuObLI",
    "rating": 4,
    "total_ratings": 154
  },
  {
    "name": "Cut of Class",
    "address": "Shop 2 562 Pennant Hills Road, West Pennant Hills ( Thorbys Arcade), Sydney",
    "suburb": "Hornsby",
    "state": "NSW",
    "lat": -33.747597,
    "lng": 151.050169,
    "place_id": "ChIJU8K_nrWmEmsRAcVy2zDYcQQ",
    "maps_url": "https://www.google.com/maps/place/?q=place_id:ChIJU8K_nrWmEmsRAcVy2zDYcQQ",
    "rating": 4.7,
    "total_ratings": 86
  },
  {
    "name": "NV Salon",
    "address": "4 Princes St, Turramurra",
    "suburb": "Hornsby",
    "state": "NSW",
    "lat": -33.7277748,
    "lng": 151.1414211,
    "place_id": "ChIJzXSKRJmpEmsR9aHkbHgSaxU",
    "maps_url": "https://www.google.com/maps/place/?q=place_id:ChIJzXSKRJmpEmsR9aHkbHgSaxU",
    "rating": 4.9,
    "total_ratings": 12
  },
  {
    "name": "That Good Hair Place - Hornsby Hair Salon",
    "address": "4/1 Leonard St, Hornsby",
    "suburb": "Hornsby",
    "state": "NSW",
    "lat": -33.70743,
    "lng": 151.100052,
    "place_id": "ChIJU9gCpYOnEmsRhptZ66brJkQ",
    "maps_url": "https://www.google.com/maps/place/?q=place_id:ChIJU9gCpYOnEmsRhptZ66brJkQ",
    "rating": 4.9,
    "total_ratings": 292
  },
  {
    "name": "Paran Hair Design",
    "address": "Macquarie Shopping Centre, Shop 1024 Level 1, North Ryde",
    "suburb": "Hornsby",
    "state": "NSW",
    "lat": -33.7761733,
    "lng": 151.1214353,
    "place_id": "ChIJD_aDap2nEmsRZItvXnm9TEA",
    "maps_url": "https://www.google.com/maps/place/?q=place_id:ChIJD_aDap2nEmsRZItvXnm9TEA",
    "rating": 4.1,
    "total_ratings": 216
  },
  {
    "name": "Daniel's - The Salon",
    "address": "UNIT 513/1C Burdett St, Hornsby",
    "suburb": "Hornsby",
    "state": "NSW",
    "lat": -33.7023446,
    "lng": 151.1001427,
    "place_id": "ChIJpRs140x5tAER7VZJXaCWtf8",
    "maps_url": "https://www.google.com/maps/place/?q=place_id:ChIJpRs140x5tAER7VZJXaCWtf8",
    "rating": 4.6,
    "total_ratings": 181
  },
  {
    "name": "KK Hair Styling",
    "address": "Shop 5, 9/11 St Johns Ave, Gordon",
    "suburb": "Hornsby",
    "state": "NSW",
    "lat": -33.7561032,
    "lng": 151.1535821,
    "place_id": "ChIJzzGA6oioEmsRmsG51jO_6Lk",
    "maps_url": "https://www.google.com/maps/place/?q=place_id:ChIJzzGA6oioEmsRmsG51jO_6Lk",
    "rating": 4.6,
    "total_ratings": 163
  },
  {
    "name": "Noriko's Hair Salon",
    "address": "6/25-31 Florence St, Hornsby",
    "suburb": "Hornsby",
    "state": "NSW",
    "lat": -33.7037006,
    "lng": 151.100101,
    "place_id": "ChIJT6FbDISnEmsRJL55Qijkf5U",
    "maps_url": "https://www.google.com/maps/place/?q=place_id:ChIJT6FbDISnEmsRJL55Qijkf5U",
    "rating": 4.7,
    "total_ratings": 70
  },
  {
    "name": "The Maxx Hair Studio",
    "address": "Suite 1/188 Mona Vale Rd, St Ives",
    "suburb": "Hornsby",
    "state": "NSW",
    "lat": -33.7303609,
    "lng": 151.1597893,
    "place_id": "ChIJP2AATBSoEmsRjrll8ClRCn4",
    "maps_url": "https://www.google.com/maps/place/?q=place_id:ChIJP2AATBSoEmsRjrll8ClRCn4",
    "rating": 4.5,
    "total_ratings": 38
  },
  {
    "name": "Sweet Pea Skin & Hair",
    "address": "536A Old Northern Rd, Dural",
    "suburb": "Hornsby",
    "state": "NSW",
    "lat": -33.6938123,
    "lng": 151.0209087,
    "place_id": "ChIJB2TJk4VeDWsRdofLBtx9k0U",
    "maps_url": "https://www.google.com/maps/place/?q=place_id:ChIJB2TJk4VeDWsRdofLBtx9k0U",
    "rating": 4.9,
    "total_ratings": 62
  },
  {
    "name": "L'Yvonnes Hair Studio",
    "address": "524 Old Northern Rd, Dural",
    "suburb": "Hornsby",
    "state": "NSW",
    "lat": -33.6935123,
    "lng": 151.0193262,
    "place_id": "ChIJ7-y_FZSgEmsR3CoEPFK88mQ",
    "maps_url": "https://www.google.com/maps/place/?q=place_id:ChIJ7-y_FZSgEmsR3CoEPFK88mQ",
    "rating": 4.7,
    "total_ratings": 31
  },
  {
    "name": "The Stonecutters - Hair Studio",
    "address": "Suite 1-2/3 Ward Pl, Dural",
    "suburb": "Hornsby",
    "state": "NSW",
    "lat": -33.69257020000001,
    "lng": 151.0200052,
    "place_id": "ChIJld6q3yibEmsRVEeTLfa8v8A",
    "maps_url": "https://www.google.com/maps/place/?q=place_id:ChIJld6q3yibEmsRVEeTLfa8v8A",
    "rating": 5,
    "total_ratings": 70
  },
  {
    "name": "Billion Dollar Barber",
    "address": "Shop 2/242 New Line Rd, Dural",
    "suburb": "Hornsby",
    "state": "NSW",
    "lat": -33.7034105,
    "lng": 151.0269663,
    "place_id": "ChIJM_dE4j6hEmsR7iEh6M4oRm0",
    "maps_url": "https://www.google.com/maps/place/?q=place_id:ChIJM_dE4j6hEmsR7iEh6M4oRm0",
    "rating": 4.6,
    "total_ratings": 28
  },
  {
    "name": "Star barber shop",
    "address": "7b 17Bellevue St, Thornleigh",
    "suburb": "Hornsby",
    "state": "NSW",
    "lat": -33.7318275,
    "lng": 151.0818544,
    "place_id": "ChIJccRWf8anEmsRtrphbpKFnFQ",
    "maps_url": "https://www.google.com/maps/place/?q=place_id:ChIJccRWf8anEmsRtrphbpKFnFQ",
    "rating": 4.8,
    "total_ratings": 222
  },
  {
    "name": "Allan's Mens Hairdressing",
    "address": "Shop 2051 level 2/236 Pacific Hwy, Hornsby",
    "suburb": "Hornsby",
    "state": "NSW",
    "lat": -33.7033925,
    "lng": 151.1017676,
    "place_id": "ChIJa3CZjIOnEmsRUwiZ069Qt7M",
    "maps_url": "https://www.google.com/maps/place/?q=place_id:ChIJa3CZjIOnEmsRUwiZ069Qt7M",
    "rating": 4.3,
    "total_ratings": 294
  },
  {
    "name": "Frank's barbershop Gordon",
    "address": "18 St Johns Ave, Gordon",
    "suburb": "Hornsby",
    "state": "NSW",
    "lat": -33.7564871,
    "lng": 151.1534668,
    "place_id": "ChIJvc9hx4ioEmsRNQvxCyOuFqc",
    "maps_url": "https://www.google.com/maps/place/?q=place_id:ChIJvc9hx4ioEmsRNQvxCyOuFqc",
    "rating": 4.8,
    "total_ratings": 172
  },
  {
    "name": "Franck Provost Macquarie Centre Hair Salon",
    "address": "Cnr of Waterloo and Herring Rds, Shop 3339, Level 3, North Ryde",
    "suburb": "Hornsby",
    "state": "NSW",
    "lat": -33.7772096,
    "lng": 151.1213975,
    "place_id": "ChIJ-1xLwQymEmsRGDYpyVbDWZI",
    "maps_url": "https://www.google.com/maps/place/?q=place_id:ChIJ-1xLwQymEmsRGDYpyVbDWZI",
    "rating": 4.7,
    "total_ratings": 698
  },
  {
    "name": "Marie-France Group Hair Salon",
    "address": "Shop/10 Philip Mall, West Pymble",
    "suburb": "Hornsby",
    "state": "NSW",
    "lat": -33.760959,
    "lng": 151.128279,
    "place_id": "ChIJi6GSr1yuEmsRVdi6Xv11ymk",
    "maps_url": "https://www.google.com/maps/place/?q=place_id:ChIJi6GSr1yuEmsRVdi6Xv11ymk",
    "rating": 4.8,
    "total_ratings": 76
  },
  {
    "name": "Alchemy of Hair",
    "address": "Macquarie Shopping Centre, 4418, Waterloo Rd, Sydney",
    "suburb": "Hornsby",
    "state": "NSW",
    "lat": -33.7767187,
    "lng": 151.1205172,
    "place_id": "ChIJmyZZwQymEmsRxQjQs_HiOWo",
    "maps_url": "https://www.google.com/maps/place/?q=place_id:ChIJmyZZwQymEmsRxQjQs_HiOWo",
    "rating": 4.4,
    "total_ratings": 341
  },
  {
    "name": "Bruno Hair & Makeup",
    "address": "329A Pacific Hwy, Lindfield",
    "suburb": "Hornsby",
    "state": "NSW",
    "lat": -33.7759744,
    "lng": 151.1689493,
    "place_id": "ChIJFZs8G-qoEmsRFE7ncHVTdNY",
    "maps_url": "https://www.google.com/maps/place/?q=place_id:ChIJFZs8G-qoEmsRFE7ncHVTdNY",
    "rating": 4.8,
    "total_ratings": 48
  },
  {
    "name": "Envy Room Salon",
    "address": "14/767-771 Pacific Hwy, Gordon",
    "suburb": "Hornsby",
    "state": "NSW",
    "lat": -33.7550325,
    "lng": 151.1526615,
    "place_id": "ChIJH50ZkIioEmsRePU0BNzbOCo",
    "maps_url": "https://www.google.com/maps/place/?q=place_id:ChIJH50ZkIioEmsRePU0BNzbOCo",
    "rating": 4.7,
    "total_ratings": 172
  },
  {
    "name": "BARBERFIELD NORTH ROCKS",
    "address": "NORTH ROCKS SHOPPING CENTRE, SHOP 44 / 328/336 N Rocks Rd, North Rocks",
    "suburb": "Hornsby",
    "state": "NSW",
    "lat": -33.7686679,
    "lng": 151.0280674,
    "place_id": "ChIJia4Zc3WjEmsR2BGbeJsNJNE",
    "maps_url": "https://www.google.com/maps/place/?q=place_id:ChIJia4Zc3WjEmsR2BGbeJsNJNE",
    "rating": 4.2,
    "total_ratings": 56
  },
  {
    "name": "Epping Barber",
    "address": "42 Langston Pl, Epping",
    "suburb": "Hornsby",
    "state": "NSW",
    "lat": -33.7728343,
    "lng": 151.0826872,
    "place_id": "ChIJtaVDZ2OnEmsRaTE2nc9rqYo",
    "maps_url": "https://www.google.com/maps/place/?q=place_id:ChIJtaVDZ2OnEmsRaTE2nc9rqYo",
    "rating": 4.6,
    "total_ratings": 164
  },
  {
    "name": "I Am Hair Dural",
    "address": "Unit 11 286/288 New Line Rd, Dural",
    "suburb": "Hornsby",
    "state": "NSW",
    "lat": -33.696182,
    "lng": 151.0313369,
    "place_id": "ChIJg-cNuqSgEmsRr98p1pimp-s",
    "maps_url": "https://www.google.com/maps/place/?q=place_id:ChIJg-cNuqSgEmsRr98p1pimp-s",
    "rating": 4.9,
    "total_ratings": 421
  },
  {
    "name": "shahad hair salon",
    "address": "Carlingford court, Pennant Hills Rd, Carlingford",
    "suburb": "Hornsby",
    "state": "NSW",
    "lat": -33.7759258,
    "lng": 151.0521311,
    "place_id": "ChIJEeq4Z96jEmsR05uj6qx24mo",
    "maps_url": "https://www.google.com/maps/place/?q=place_id:ChIJEeq4Z96jEmsR05uj6qx24mo",
    "rating": 5,
    "total_ratings": 10
  },
  {
    "name": "Goodfellas Barber Northrocks",
    "address": "Shop 73/328/336 N Rocks Rd, North Rocks",
    "suburb": "Hornsby",
    "state": "NSW",
    "lat": -33.7691565,
    "lng": 151.0269958,
    "place_id": "ChIJu2WYbL2jEmsRgX4ra55AgmY",
    "maps_url": "https://www.google.com/maps/place/?q=place_id:ChIJu2WYbL2jEmsRgX4ra55AgmY",
    "rating": 4.4,
    "total_ratings": 123
  },
  {
    "name": "The Modern Man",
    "address": "shop 7/23-41 Lindfield Ave, Lindfield",
    "suburb": "Hornsby",
    "state": "NSW",
    "lat": -33.7747033,
    "lng": 151.1696405,
    "place_id": "ChIJeYwRfiOpEmsRzlJ4rCT4ugg",
    "maps_url": "https://www.google.com/maps/place/?q=place_id:ChIJeYwRfiOpEmsRzlJ4rCT4ugg",
    "rating": 4.4,
    "total_ratings": 110
  },
  {
    "name": "Hair by Kiko",
    "address": "shop 3 & 4/5-7 Rohini St, Turramurra",
    "suburb": "Hornsby",
    "state": "NSW",
    "lat": -33.7327258,
    "lng": 151.1297381,
    "place_id": "ChIJD8BpIkenEmsRPSKkHsjb3-k",
    "maps_url": "https://www.google.com/maps/place/?q=place_id:ChIJD8BpIkenEmsRPSKkHsjb3-k",
    "rating": 5,
    "total_ratings": 25
  },
  {
    "name": "Diamond D Hair",
    "address": "1F Greengate Rd, Killara",
    "suburb": "Hornsby",
    "state": "NSW",
    "lat": -33.7631088,
    "lng": 151.1560779,
    "place_id": "ChIJ5Q6BII6oEmsR07kF8gESPJU",
    "maps_url": "https://www.google.com/maps/place/?q=place_id:ChIJ5Q6BII6oEmsR07kF8gESPJU",
    "rating": 5,
    "total_ratings": 44
  },
  {
    "name": "Byme hair&beauty",
    "address": "888 Pacific Hwy, Gordon",
    "suburb": "Hornsby",
    "state": "NSW",
    "lat": -33.752028,
    "lng": 151.1483022,
    "place_id": "ChIJcwiay3ipEmsRWr8C4QwmffQ",
    "maps_url": "https://www.google.com/maps/place/?q=place_id:ChIJcwiay3ipEmsRWr8C4QwmffQ",
    "rating": 4.9,
    "total_ratings": 59
  },
  {
    "name": "The Macquarie Barber",
    "address": "Macquarie centre Near cotton on next to orange car park, shop 2244a level 2, North Ryde",
    "suburb": "Hornsby",
    "state": "NSW",
    "lat": -33.7770231,
    "lng": 151.1209566,
    "place_id": "ChIJtT6CrA2mEmsRjtHWJ27D5B0",
    "maps_url": "https://www.google.com/maps/place/?q=place_id:ChIJtT6CrA2mEmsRjtHWJ27D5B0",
    "rating": 4.3,
    "total_ratings": 319
  },
  {
    "name": "Prachi Hair And Beauty Salon",
    "address": "130/121-133 Pacific Hwy, Hornsby",
    "suburb": "Hornsby",
    "state": "NSW",
    "lat": -33.7067675,
    "lng": 151.0984605,
    "place_id": "ChIJlzMiTYOnEmsRmJjWOsXyFaQ",
    "maps_url": "https://www.google.com/maps/place/?q=place_id:ChIJlzMiTYOnEmsRmJjWOsXyFaQ",
    "rating": 4.9,
    "total_ratings": 208
  },
  {
    "name": "Brother Barber",
    "address": "148 Pitt Rd, North Curl Curl",
    "suburb": "Manly",
    "state": "NSW",
    "lat": -33.7626779,
    "lng": 151.2890405,
    "place_id": "ChIJS7XYso2qEmsRudafDvhR5x4",
    "maps_url": "https://www.google.com/maps/place/?q=place_id:ChIJS7XYso2qEmsRudafDvhR5x4",
    "rating": 4.9,
    "total_ratings": 148
  },
  {
    "name": "5000 BC - Barbershop",
    "address": "Shop 1/31-43 King St, Sydney",
    "suburb": "Manly",
    "state": "NSW",
    "lat": -33.86879589999999,
    "lng": 151.2041452,
    "place_id": "ChIJJ3p52N6vEmsRimdIu4vsGz8",
    "maps_url": "https://www.google.com/maps/place/?q=place_id:ChIJJ3p52N6vEmsRimdIu4vsGz8",
    "rating": 5,
    "total_ratings": 348
  },
  {
    "name": "The Blonde Cartel",
    "address": "Shop 1/17 Anzac Ave, Collaroy",
    "suburb": "Manly",
    "state": "NSW",
    "lat": -33.7387681,
    "lng": 151.303092,
    "place_id": "ChIJJcurw8yrEmsR19Uzf55D1SE",
    "maps_url": "https://www.google.com/maps/place/?q=place_id:ChIJJcurw8yrEmsR19Uzf55D1SE",
    "rating": 4.9,
    "total_ratings": 97
  },
  {
    "name": "Studio 8 Hair",
    "address": "8/49-53 N Steyne, Manly",
    "suburb": "Manly",
    "state": "NSW",
    "lat": -33.7962065,
    "lng": 151.28736,
    "place_id": "ChIJX6Eo9QWrEmsR7aYvC4Fe9YA",
    "maps_url": "https://www.google.com/maps/place/?q=place_id:ChIJX6Eo9QWrEmsR7aYvC4Fe9YA",
    "rating": 4.9,
    "total_ratings": 303
  },
  {
    "name": "Sonder Men's Grooming Dee Why",
    "address": "3/701 Pittwater Rd, Dee Why",
    "suburb": "Manly",
    "state": "NSW",
    "lat": -33.7527921,
    "lng": 151.2861989,
    "place_id": "ChIJV7pWp7erEmsR09sM0Mb5_88",
    "maps_url": "https://www.google.com/maps/place/?q=place_id:ChIJV7pWp7erEmsR09sM0Mb5_88",
    "rating": 4.9,
    "total_ratings": 516
  },
  {
    "name": "New Cuts Barber shop",
    "address": "Shop 3/48/52 Sydney Rd, Manly",
    "suburb": "Manly",
    "state": "NSW",
    "lat": -33.7968494,
    "lng": 151.2858664,
    "place_id": "ChIJa65SZTKrEmsRjYtEDmedV4g",
    "maps_url": "https://www.google.com/maps/place/?q=place_id:ChIJa65SZTKrEmsRjYtEDmedV4g",
    "rating": 4.9,
    "total_ratings": 127
  },
  {
    "name": "Sho & Co",
    "address": "Shop 2/65 Willoughby Rd, Crows Nest",
    "suburb": "Manly",
    "state": "NSW",
    "lat": -33.82516270000001,
    "lng": 151.201018,
    "place_id": "ChIJLbx4Vz6vEmsRPLOJQxcpto8",
    "maps_url": "https://www.google.com/maps/place/?q=place_id:ChIJLbx4Vz6vEmsRPLOJQxcpto8",
    "rating": 5,
    "total_ratings": 97
  },
  {
    "name": "Camila K Hair & Co",
    "address": "683A Pittwater Rd, Dee Why",
    "suburb": "Manly",
    "state": "NSW",
    "lat": -33.7532982,
    "lng": 151.2854703,
    "place_id": "ChIJmxMeXoiqEmsRRJ7cLv3u0NQ",
    "maps_url": "https://www.google.com/maps/place/?q=place_id:ChIJmxMeXoiqEmsRRJ7cLv3u0NQ",
    "rating": 4.8,
    "total_ratings": 84
  },
  {
    "name": "Hair by Matthew Mastroianni",
    "address": "Suite 7/7 Mooramba Rd, Dee Why",
    "suburb": "Manly",
    "state": "NSW",
    "lat": -33.7551089,
    "lng": 151.2828978,
    "place_id": "ChIJZZnSSYSqEmsRD9piSpdn3Y8",
    "maps_url": "https://www.google.com/maps/place/?q=place_id:ChIJZZnSSYSqEmsRD9piSpdn3Y8",
    "rating": 4.7,
    "total_ratings": 139
  },
  {
    "name": "Luminary Hair",
    "address": "Unit 1/149 Blues Point Rd, McMahons Point",
    "suburb": "Manly",
    "state": "NSW",
    "lat": -33.8438167,
    "lng": 151.2048206,
    "place_id": "ChIJ4fZKgfauEmsRtcxj1NnDKTM",
    "maps_url": "https://www.google.com/maps/place/?q=place_id:ChIJ4fZKgfauEmsRtcxj1NnDKTM",
    "rating": 4.5,
    "total_ratings": 15
  },
  {
    "name": "Sandy The Salon",
    "address": "16/64-68 Pitt Rd, North Curl Curl",
    "suburb": "Manly",
    "state": "NSW",
    "lat": -33.7624349,
    "lng": 151.2950753,
    "place_id": "ChIJzb5kf5GqEmsRsZ4GiFgXG8c",
    "maps_url": "https://www.google.com/maps/place/?q=place_id:ChIJzb5kf5GqEmsRsZ4GiFgXG8c",
    "rating": 4.9,
    "total_ratings": 358
  },
  {
    "name": "Janos Kiss Hair",
    "address": "4/332-338 Military Rd, Cremorne",
    "suburb": "Manly",
    "state": "NSW",
    "lat": -33.829116,
    "lng": 151.22803,
    "place_id": "ChIJSw12KqGuEmsRHHLcX5hdBkI",
    "maps_url": "https://www.google.com/maps/place/?q=place_id:ChIJSw12KqGuEmsRHHLcX5hdBkI",
    "rating": 4.9,
    "total_ratings": 285
  },
  {
    "name": "Cassidy's Hairdressing",
    "address": "55 Carawa Rd, Cromer",
    "suburb": "Manly",
    "state": "NSW",
    "lat": -33.7401715,
    "lng": 151.2763503,
    "place_id": "ChIJRVFXYfmqEmsRnMVmnwLYQOk",
    "maps_url": "https://www.google.com/maps/place/?q=place_id:ChIJRVFXYfmqEmsRnMVmnwLYQOk",
    "rating": 4.7,
    "total_ratings": 102
  },
  {
    "name": "Sage Styling Studio",
    "address": "Shop 1/475 Pittwater Rd, Brookvale",
    "suburb": "Manly",
    "state": "NSW",
    "lat": -33.7653272,
    "lng": 151.2699118,
    "place_id": "ChIJMbi6Rj6rEmsRj7_eFRB2X6c",
    "maps_url": "https://www.google.com/maps/place/?q=place_id:ChIJMbi6Rj6rEmsRj7_eFRB2X6c",
    "rating": 5,
    "total_ratings": 152
  },
  {
    "name": "Melissa Touchard Hair",
    "address": "King George Chamber, level 3, suite 312, 375 George St, Sydney",
    "suburb": "Manly",
    "state": "NSW",
    "lat": -33.8691999,
    "lng": 151.206658,
    "place_id": "ChIJ2-PoOiqvEmsRog9rzK6x5RM",
    "maps_url": "https://www.google.com/maps/place/?q=place_id:ChIJ2-PoOiqvEmsRog9rzK6x5RM",
    "rating": 5,
    "total_ratings": 60
  },
  {
    "name": "Frank and Michael Hairdressing Barber Shop",
    "address": "441 Pacific Hwy, Crows Nest",
    "suburb": "Manly",
    "state": "NSW",
    "lat": -33.8271476,
    "lng": 151.200441,
    "place_id": "ChIJv5vmQ-iuEmsRnRke5dvgGdI",
    "maps_url": "https://www.google.com/maps/place/?q=place_id:ChIJv5vmQ-iuEmsRnRke5dvgGdI",
    "rating": 4.9,
    "total_ratings": 234
  },
  {
    "name": "Sunna Manly",
    "address": "146 Pittwater Rd, Manly",
    "suburb": "Manly",
    "state": "NSW",
    "lat": -33.7904899,
    "lng": 151.2852862,
    "place_id": "ChIJlbZdd6arEmsR5h3ZRzQYiqY",
    "maps_url": "https://www.google.com/maps/place/?q=place_id:ChIJlbZdd6arEmsR5h3ZRzQYiqY",
    "rating": 5,
    "total_ratings": 20
  },
  {
    "name": "Icut Mens Hairdressing",
    "address": "141 Walker St, North Sydney",
    "suburb": "Manly",
    "state": "NSW",
    "lat": -33.8382044,
    "lng": 151.2091471,
    "place_id": "ChIJ32VdX-2uEmsRsXnHkralesQ",
    "maps_url": "https://www.google.com/maps/place/?q=place_id:ChIJ32VdX-2uEmsRsXnHkralesQ",
    "rating": 4.7,
    "total_ratings": 235
  },
  {
    "name": "SALON ES - Hair & Makeup Artistry",
    "address": "Shop 4/23 Telopea St, Collaroy",
    "suburb": "Manly",
    "state": "NSW",
    "lat": -33.73084830000001,
    "lng": 151.2921459,
    "place_id": "ChIJrSGZ_m1VDWsRtGVDX2x_r8k",
    "maps_url": "https://www.google.com/maps/place/?q=place_id:ChIJrSGZ_m1VDWsRtGVDX2x_r8k",
    "rating": 4.8,
    "total_ratings": 35
  },
  {
    "name": "AW Men's Hairdressing And Barber Salon",
    "address": "4/80 Pacific Hwy, North Sydney",
    "suburb": "Manly",
    "state": "NSW",
    "lat": -33.840706,
    "lng": 151.2082633,
    "place_id": "ChIJu_hxfvKuEmsR0HkDsXjno6c",
    "maps_url": "https://www.google.com/maps/place/?q=place_id:ChIJu_hxfvKuEmsR0HkDsXjno6c",
    "rating": 4.6,
    "total_ratings": 236
  },
  {
    "name": "Ruff Kut Hair Studio",
    "address": "6-8 Clarke St, Crows Nest",
    "suburb": "Manly",
    "state": "NSW",
    "lat": -33.8260476,
    "lng": 151.2002326,
    "place_id": "ChIJC3bUI-iuEmsRILLnradsIDg",
    "maps_url": "https://www.google.com/maps/place/?q=place_id:ChIJC3bUI-iuEmsRILLnradsIDg",
    "rating": 4.9,
    "total_ratings": 63
  },
  {
    "name": "Westmead Hair Salon",
    "address": "Shop 14/74 Hawkesbury Rd, Westmead",
    "suburb": "Parramatta",
    "state": "NSW",
    "lat": -33.8124851,
    "lng": 150.9853585,
    "place_id": "ChIJUfLv8eiiEmsR08fWijpO__k",
    "maps_url": "https://www.google.com/maps/place/?q=place_id:ChIJUfLv8eiiEmsR08fWijpO__k",
    "rating": 4.8,
    "total_ratings": 1047
  },
  {
    "name": "Lucky Hair Salon & Studio",
    "address": "71 Boomerang Pl, Seven Hills",
    "suburb": "Parramatta",
    "state": "NSW",
    "lat": -33.7751703,
    "lng": 150.9351558,
    "place_id": "ChIJHelgbYCZEmsR9aZc9Y_0k9o",
    "maps_url": "https://www.google.com/maps/place/?q=place_id:ChIJHelgbYCZEmsR9aZc9Y_0k9o",
    "rating": 4.6,
    "total_ratings": 303
  },
  {
    "name": "Ora no1",
    "address": "5 Joseph St, Lidcombe",
    "suburb": "Parramatta",
    "state": "NSW",
    "lat": -33.8639638,
    "lng": 151.0439234,
    "place_id": "ChIJq4GaA5G9EmsR6stpmbKEpAI",
    "maps_url": "https://www.google.com/maps/place/?q=place_id:ChIJq4GaA5G9EmsR6stpmbKEpAI",
    "rating": 4.8,
    "total_ratings": 489
  },
  {
    "name": "Desi Boys Barber",
    "address": "52A Marion St, Harris Park",
    "suburb": "Parramatta",
    "state": "NSW",
    "lat": -33.8223561,
    "lng": 151.0097045,
    "place_id": "ChIJUaiXeSOjEmsRKZ_w9neXDII",
    "maps_url": "https://www.google.com/maps/place/?q=place_id:ChIJUaiXeSOjEmsRKZ_w9neXDII",
    "rating": 4.5,
    "total_ratings": 493
  },
  {
    "name": "Desi Crew Hair Salon",
    "address": "16 Civic Rd, Auburn",
    "suburb": "Parramatta",
    "state": "NSW",
    "lat": -33.8512367,
    "lng": 151.0333988,
    "place_id": "ChIJE86AioS9EmsRq5B6fqjo0dw",
    "maps_url": "https://www.google.com/maps/place/?q=place_id:ChIJE86AioS9EmsRq5B6fqjo0dw",
    "rating": 4.4,
    "total_ratings": 309
  },
  {
    "name": "Grace U Hair Salon",
    "address": "1 Coleman Ave, Carlingford",
    "suburb": "Parramatta",
    "state": "NSW",
    "lat": -33.7833511,
    "lng": 151.0475794,
    "place_id": "ChIJoQOhgPWjEmsRFAsrapa8AAY",
    "maps_url": "https://www.google.com/maps/place/?q=place_id:ChIJoQOhgPWjEmsRFAsrapa8AAY",
    "rating": 4.7,
    "total_ratings": 85
  },
  {
    "name": "NewLook Salon & Spa",
    "address": "Shop1/16-20 Henley Rd, Homebush West",
    "suburb": "Parramatta",
    "state": "NSW",
    "lat": -33.8661881,
    "lng": 151.0699917,
    "place_id": "ChIJq4E_csW7EmsRhvwjopSttiU",
    "maps_url": "https://www.google.com/maps/place/?q=place_id:ChIJq4E_csW7EmsRhvwjopSttiU",
    "rating": 4.7,
    "total_ratings": 144
  },
  {
    "name": "Cut Throat Hair Parlour",
    "address": "1/113 Best Rd, Seven Hills",
    "suburb": "Parramatta",
    "state": "NSW",
    "lat": -33.7753593,
    "lng": 150.9356415,
    "place_id": "ChIJtQ_R2ouYEmsROLSDB2c_bZY",
    "maps_url": "https://www.google.com/maps/place/?q=place_id:ChIJtQ_R2ouYEmsROLSDB2c_bZY",
    "rating": 4.4,
    "total_ratings": 126
  },
  {
    "name": "Sydney Style Hair Dresser Barber",
    "address": "8 Harris St, Fairfield",
    "suburb": "Parramatta",
    "state": "NSW",
    "lat": -33.8722718,
    "lng": 150.9551034,
    "place_id": "ChIJ3Tj0cYe9EmsRqwahe7-tS0Q",
    "maps_url": "https://www.google.com/maps/place/?q=place_id:ChIJ3Tj0cYe9EmsRqwahe7-tS0Q",
    "rating": 4.8,
    "total_ratings": 73
  },
  {
    "name": "Cheveu Salon",
    "address": "Shop 5/3 Olympic Blvd, Sydney Olympic Park",
    "suburb": "Parramatta",
    "state": "NSW",
    "lat": -33.8520301,
    "lng": 151.070656,
    "place_id": "ChIJH67RjTalEmsRKmmD372Alqk",
    "maps_url": "https://www.google.com/maps/place/?q=place_id:ChIJH67RjTalEmsRKmmD372Alqk",
    "rating": 4.9,
    "total_ratings": 87
  },
  {
    "name": "The Himalayan men’s hair salon parramatta",
    "address": "suite 6/109 Church St, Parramatta",
    "suburb": "Parramatta",
    "state": "NSW",
    "lat": -33.8193024,
    "lng": 151.003672,
    "place_id": "ChIJ8Xosee6hfE8RYLF01677334",
    "maps_url": "https://www.google.com/maps/place/?q=place_id:ChIJ8Xosee6hfE8RYLF01677334",
    "rating": 5,
    "total_ratings": 197
  },
  {
    "name": "Amando Barber Shop",
    "address": "132/50 Asquith St, Silverwater",
    "suburb": "Parramatta",
    "state": "NSW",
    "lat": -33.8379892,
    "lng": 151.0399782,
    "place_id": "ChIJeav93FCjEmsRteufBeSR72o",
    "maps_url": "https://www.google.com/maps/place/?q=place_id:ChIJeav93FCjEmsRteufBeSR72o",
    "rating": 4.8,
    "total_ratings": 296
  },
  {
    "name": "STYLE&HAIR BARBER SHOP",
    "address": "245 Church St, Parramatta",
    "suburb": "Parramatta",
    "state": "NSW",
    "lat": -33.8131878,
    "lng": 151.0034149,
    "place_id": "ChIJryBcb8ujEmsR1YZ8FWfksVM",
    "maps_url": "https://www.google.com/maps/place/?q=place_id:ChIJryBcb8ujEmsR1YZ8FWfksVM",
    "rating": 4.6,
    "total_ratings": 98
  },
  {
    "name": "Desi Dude Hair salon Auburn",
    "address": "8-10 Northumberland Rd, Auburn",
    "suburb": "Parramatta",
    "state": "NSW",
    "lat": -33.849022,
    "lng": 151.0332184,
    "place_id": "ChIJrxkJAka9EmsRYDZrQutBi3E",
    "maps_url": "https://www.google.com/maps/place/?q=place_id:ChIJrxkJAka9EmsRYDZrQutBi3E",
    "rating": 3.9,
    "total_ratings": 295
  },
  {
    "name": "Serkz the barber",
    "address": "Shop 12/45 Rawson St, Auburn",
    "suburb": "Parramatta",
    "state": "NSW",
    "lat": -33.8495716,
    "lng": 151.0350508,
    "place_id": "ChIJuSoNirq9EmsR-GGl6e8SPYk",
    "maps_url": "https://www.google.com/maps/place/?q=place_id:ChIJuSoNirq9EmsR-GGl6e8SPYk",
    "rating": 4.8,
    "total_ratings": 264
  },
  {
    "name": "Cut City Salon 無名刀",
    "address": "5/105-107 Church St, Parramatta",
    "suburb": "Parramatta",
    "state": "NSW",
    "lat": -33.8195287,
    "lng": 151.0037125,
    "place_id": "ChIJX4YWJiCjEmsR1x631PKa2ds",
    "maps_url": "https://www.google.com/maps/place/?q=place_id:ChIJX4YWJiCjEmsR1x631PKa2ds",
    "rating": 4.8,
    "total_ratings": 104
  },
  {
    "name": "SNAZZY SCISSORS HAIR SALON",
    "address": "81 Broughton St, Old Guildford",
    "suburb": "Parramatta",
    "state": "NSW",
    "lat": -33.865907,
    "lng": 150.982007,
    "place_id": "ChIJi_qmFgy9EmsRFbowz-gMUjY",
    "maps_url": "https://www.google.com/maps/place/?q=place_id:ChIJi_qmFgy9EmsRFbowz-gMUjY",
    "rating": 4.8,
    "total_ratings": 79
  },
  {
    "name": "Barber Republic Bella Vista",
    "address": "Shop 12/1 Circa Boulevarde, Bella Vista",
    "suburb": "Parramatta",
    "state": "NSW",
    "lat": -33.7458558,
    "lng": 150.9522229,
    "place_id": "ChIJiREMI6qYEmsRj8OU0yxo5vA",
    "maps_url": "https://www.google.com/maps/place/?q=place_id:ChIJiREMI6qYEmsRj8OU0yxo5vA",
    "rating": 4.9,
    "total_ratings": 196
  },
  {
    "name": "Kingsmen Hair",
    "address": "159-175 Church St Shop 1-3047 Westfield, Parramatta",
    "suburb": "Parramatta",
    "state": "NSW",
    "lat": -33.8175515,
    "lng": 151.0009077,
    "place_id": "ChIJq3CROqejEmsRQpeZTr-oo6U",
    "maps_url": "https://www.google.com/maps/place/?q=place_id:ChIJq3CROqejEmsRQpeZTr-oo6U",
    "rating": 4.4,
    "total_ratings": 606
  },
  {
    "name": "Desi Barber Harris Park",
    "address": "2/14 Station St E, Harris Park",
    "suburb": "Parramatta",
    "state": "NSW",
    "lat": -33.821848,
    "lng": 151.0082899,
    "place_id": "ChIJ9VO3T6ajEmsRa-r-7MPbl5M",
    "maps_url": "https://www.google.com/maps/place/?q=place_id:ChIJ9VO3T6ajEmsRa-r-7MPbl5M",
    "rating": 3.9,
    "total_ratings": 564
  },
  {
    "name": "HeSheLa Hair & Beauty Salon Auburn",
    "address": "111A Rawson St, Auburn",
    "suburb": "Parramatta",
    "state": "NSW",
    "lat": -33.8485289,
    "lng": 151.0327696,
    "place_id": "ChIJPeW1R4u9EmsR_0nSvjQ8GKA",
    "maps_url": "https://www.google.com/maps/place/?q=place_id:ChIJPeW1R4u9EmsR_0nSvjQ8GKA",
    "rating": 4.4,
    "total_ratings": 1657
  },
  {
    "name": "Gilda Maree Hair",
    "address": "86 Queen St, Concord West",
    "suburb": "Parramatta",
    "state": "NSW",
    "lat": -33.8470614,
    "lng": 151.0858355,
    "place_id": "ChIJ3T_cr26lEmsRIaRa5XzYq1o",
    "maps_url": "https://www.google.com/maps/place/?q=place_id:ChIJ3T_cr26lEmsRIaRa5XzYq1o",
    "rating": 5,
    "total_ratings": 34
  },
  {
    "name": "Salon D'Art",
    "address": "151 Church St, Parramatta",
    "suburb": "Parramatta",
    "state": "NSW",
    "lat": -33.8177913,
    "lng": 151.0035337,
    "place_id": "ChIJAV3AtCGjEmsRLq_xd9SKisI",
    "maps_url": "https://www.google.com/maps/place/?q=place_id:ChIJAV3AtCGjEmsRLq_xd9SKisI",
    "rating": 4.7,
    "total_ratings": 234
  },
  {
    "name": "Big Barber Shop Auburn Central",
    "address": "Q47 Auburn Central, Harrow Rd, Queen St, Auburn",
    "suburb": "Parramatta",
    "state": "NSW",
    "lat": -33.8527652,
    "lng": 151.0324516,
    "place_id": "ChIJn2D851u9EmsREhSG-DZ3EzQ",
    "maps_url": "https://www.google.com/maps/place/?q=place_id:ChIJn2D851u9EmsREhSG-DZ3EzQ",
    "rating": 4,
    "total_ratings": 91
  },
  {
    "name": "Flair Hair Salon by Andy",
    "address": "125 Joseph St, Lidcombe",
    "suburb": "Parramatta",
    "state": "NSW",
    "lat": -33.8706942,
    "lng": 151.0426789,
    "place_id": "ChIJW5PtVIe9EmsRJ7nMgtCGIio",
    "maps_url": "https://www.google.com/maps/place/?q=place_id:ChIJW5PtVIe9EmsRJ7nMgtCGIio",
    "rating": 5,
    "total_ratings": 138
  },
  {
    "name": "엘룸 - ELROOM",
    "address": "Shop 12/2b Vaughan St, Lidcombe",
    "suburb": "Parramatta",
    "state": "NSW",
    "lat": -33.8654769,
    "lng": 151.0428736,
    "place_id": "ChIJL8jZXAC9EmsRgBaPkBOaeiY",
    "maps_url": "https://www.google.com/maps/place/?q=place_id:ChIJL8jZXAC9EmsRgBaPkBOaeiY",
    "rating": 4.9,
    "total_ratings": 106
  },
  {
    "name": "sarah hair & beauty salon",
    "address": "Shop13/15A Mary St, Auburn",
    "suburb": "Parramatta",
    "state": "NSW",
    "lat": -33.8516191,
    "lng": 151.0314476,
    "place_id": "ChIJoYvYYF69EmsRkCb_9GtK9ZM",
    "maps_url": "https://www.google.com/maps/place/?q=place_id:ChIJoYvYYF69EmsRkCb_9GtK9ZM",
    "rating": 4.5,
    "total_ratings": 201
  },
  {
    "name": "Bodhi Boutique",
    "address": "U 403/6-10 Charles St, Parramatta",
    "suburb": "Parramatta",
    "state": "NSW",
    "lat": -33.8169338,
    "lng": 151.0090631,
    "place_id": "ChIJi065a5ejEmsRo7JMOiyHOug",
    "maps_url": "https://www.google.com/maps/place/?q=place_id:ChIJi065a5ejEmsRo7JMOiyHOug",
    "rating": 4.9,
    "total_ratings": 71
  },
  {
    "name": "THE PARLOUR salon",
    "address": "12 Robertson St, Guildford West",
    "suburb": "Parramatta",
    "state": "NSW",
    "lat": -33.8494231,
    "lng": 150.9709115,
    "place_id": "ChIJ17LytUu9EmsRA4qD4z_gFDk",
    "maps_url": "https://www.google.com/maps/place/?q=place_id:ChIJ17LytUu9EmsRA4qD4z_gFDk",
    "rating": 4.7,
    "total_ratings": 37
  },
  {
    "name": "Desi Barber Toongabbie",
    "address": "5/13-15 Portico Parade, Toongabbie",
    "suburb": "Parramatta",
    "state": "NSW",
    "lat": -33.787138,
    "lng": 150.9507801,
    "place_id": "ChIJ4263RVOZEmsReIejEdAE-GE",
    "maps_url": "https://www.google.com/maps/place/?q=place_id:ChIJ4263RVOZEmsReIejEdAE-GE",
    "rating": 4.1,
    "total_ratings": 311
  },
  {
    "name": "Bella hair luxury Salon( unisex )",
    "address": "55 Boomerang Pl, Seven Hills",
    "suburb": "Parramatta",
    "state": "NSW",
    "lat": -33.7749752,
    "lng": 150.9356543,
    "place_id": "ChIJp_-I5-hlswURhTeI22sdr-8",
    "maps_url": "https://www.google.com/maps/place/?q=place_id:ChIJp_-I5-hlswURhTeI22sdr-8",
    "rating": 4.8,
    "total_ratings": 113
  },
  {
    "name": "Carlino Hairdressing & Barber",
    "address": "33 Railway Parade, Eastwood",
    "suburb": "Parramatta",
    "state": "NSW",
    "lat": -33.7897469,
    "lng": 151.0829422,
    "place_id": "ChIJXSvPuzCkEmsRYGBXTVo9quw",
    "maps_url": "https://www.google.com/maps/place/?q=place_id:ChIJXSvPuzCkEmsRYGBXTVo9quw",
    "rating": 4.6,
    "total_ratings": 35
  },
  {
    "name": "No Name Barber Shop",
    "address": "Shop 8a, Mayfair Plaza, 272 - 276 Church St, Parramatta",
    "suburb": "Parramatta",
    "state": "NSW",
    "lat": -33.81353000000001,
    "lng": 151.0038611,
    "place_id": "ChIJZSMi_B6jEmsRiyWbnHLtaj0",
    "maps_url": "https://www.google.com/maps/place/?q=place_id:ChIJZSMi_B6jEmsRiyWbnHLtaj0",
    "rating": 4.7,
    "total_ratings": 166
  },
  {
    "name": "Mirage hair and beauty Parramatta",
    "address": "Opposite to NAB bank, westfield Parramatta near to aldi, Level 5, shop 5048, 159/175 Church St, Parramatta",
    "suburb": "Parramatta",
    "state": "NSW",
    "lat": -33.8176811,
    "lng": 151.0020442,
    "place_id": "ChIJy1aCavejEmsRDsYaHC1cvqM",
    "maps_url": "https://www.google.com/maps/place/?q=place_id:ChIJy1aCavejEmsRDsYaHC1cvqM",
    "rating": 4.3,
    "total_ratings": 499
  },
  {
    "name": "Family Hair and Beauty Salon",
    "address": "Shop 1/16 Good St, Granville",
    "suburb": "Parramatta",
    "state": "NSW",
    "lat": -33.8314855,
    "lng": 151.0113879,
    "place_id": "ChIJT67MKC6jEmsR8D2SHdFt6zA",
    "maps_url": "https://www.google.com/maps/place/?q=place_id:ChIJT67MKC6jEmsR8D2SHdFt6zA",
    "rating": 4.6,
    "total_ratings": 295
  },
  {
    "name": "International Barber Salon",
    "address": "53 Rawson St, Auburn",
    "suburb": "Parramatta",
    "state": "NSW",
    "lat": -33.8495535,
    "lng": 151.0341207,
    "place_id": "ChIJAVvgHrK8EmsR2tfPxGhZ8og",
    "maps_url": "https://www.google.com/maps/place/?q=place_id:ChIJAVvgHrK8EmsR2tfPxGhZ8og",
    "rating": 4.8,
    "total_ratings": 494
  },
  {
    "name": "Paran Hair Design",
    "address": "Rhodes Waterside Shopping Centre, 1 Rider Blvd, Rhodes",
    "suburb": "Parramatta",
    "state": "NSW",
    "lat": -33.8355367,
    "lng": 151.0848536,
    "place_id": "ChIJOb5fjOekEmsRtrjnZzwdAe4",
    "maps_url": "https://www.google.com/maps/place/?q=place_id:ChIJOb5fjOekEmsRtrjnZzwdAe4",
    "rating": 4.7,
    "total_ratings": 673
  },
  {
    "name": "Glowave Hair salon",
    "address": "Block E/245 Merrylands Rd, Merrylands",
    "suburb": "Parramatta",
    "state": "NSW",
    "lat": -33.8359142,
    "lng": 150.9885244,
    "place_id": "ChIJ8cd-SQ29EmsRQU0PL3ftjCU",
    "maps_url": "https://www.google.com/maps/place/?q=place_id:ChIJ8cd-SQ29EmsRQU0PL3ftjCU",
    "rating": 5,
    "total_ratings": 31
  },
  {
    "name": "The Hair Room @HB",
    "address": "41/1 Macquarie St, Parramatta",
    "suburb": "Parramatta",
    "state": "NSW",
    "lat": -33.8141529,
    "lng": 150.9982737,
    "place_id": "ChIJ8-Ize-CiEmsRklX2PjDzP7o",
    "maps_url": "https://www.google.com/maps/place/?q=place_id:ChIJ8-Ize-CiEmsRklX2PjDzP7o",
    "rating": 4.7,
    "total_ratings": 342
  },
  {
    "name": "Leo's Barber Shop",
    "address": "Shop 3/1003 Victoria Rd, West Ryde",
    "suburb": "Parramatta",
    "state": "NSW",
    "lat": -33.8073039,
    "lng": 151.0878342,
    "place_id": "ChIJmaj_cYqlEmsRT0zUaXufL7s",
    "maps_url": "https://www.google.com/maps/place/?q=place_id:ChIJmaj_cYqlEmsRT0zUaXufL7s",
    "rating": 4.8,
    "total_ratings": 342
  },
  {
    "name": "Hair Colosseum",
    "address": "lidocombe shopping centre, shop G021, Lidcombe",
    "suburb": "Parramatta",
    "state": "NSW",
    "lat": -33.8490795,
    "lng": 151.0485935,
    "place_id": "ChIJgULyTW-7EmsRcJN7btB4QTs",
    "maps_url": "https://www.google.com/maps/place/?q=place_id:ChIJgULyTW-7EmsRcJN7btB4QTs",
    "rating": 4.4,
    "total_ratings": 840
  },
  {
    "name": "Gino's Salon",
    "address": "1/8 McFarlane St, Merrylands",
    "suburb": "Parramatta",
    "state": "NSW",
    "lat": -33.835722,
    "lng": 150.99044,
    "place_id": "ChIJ7-2TeS29EmsRZH_1FnE84A0",
    "maps_url": "https://www.google.com/maps/place/?q=place_id:ChIJ7-2TeS29EmsRZH_1FnE84A0",
    "rating": 5,
    "total_ratings": 45
  },
  {
    "name": "Zac’s Hair Studio",
    "address": "114 Blaxcell St, Granville",
    "suburb": "Parramatta",
    "state": "NSW",
    "lat": -33.8431652,
    "lng": 151.0099547,
    "place_id": "ChIJo6SlnGm9EmsRMhpCLfnlc5Q",
    "maps_url": "https://www.google.com/maps/place/?q=place_id:ChIJo6SlnGm9EmsRMhpCLfnlc5Q",
    "rating": 4.5,
    "total_ratings": 79
  },
  {
    "name": "GD Hair studio",
    "address": "172 Merrylands Rd, Merrylands",
    "suburb": "Parramatta",
    "state": "NSW",
    "lat": -33.8368217,
    "lng": 150.990225,
    "place_id": "ChIJZShJq0W9EmsRMHaVqMsmRN4",
    "maps_url": "https://www.google.com/maps/place/?q=place_id:ChIJZShJq0W9EmsRMHaVqMsmRN4",
    "rating": 4.6,
    "total_ratings": 102
  },
  {
    "name": "ADESSA SALON",
    "address": "406 Merrylands Rd, Merrylands West",
    "suburb": "Parramatta",
    "state": "NSW",
    "lat": -33.8340325,
    "lng": 150.9767953,
    "place_id": "ChIJgUX5gWm9EmsRdHLwip4n5-E",
    "maps_url": "https://www.google.com/maps/place/?q=place_id:ChIJgUX5gWm9EmsRdHLwip4n5-E",
    "rating": 5,
    "total_ratings": 131
  },
  {
    "name": "Boyz II Men Barber Co.",
    "address": "Shop 66 Grove Square, 375-383 Windsor Rd, Baulkham Hills",
    "suburb": "Parramatta",
    "state": "NSW",
    "lat": -33.7592673,
    "lng": 150.9913043,
    "place_id": "ChIJ22piWy6iEmsRT1BYbo8rko0",
    "maps_url": "https://www.google.com/maps/place/?q=place_id:ChIJ22piWy6iEmsRT1BYbo8rko0",
    "rating": 4.4,
    "total_ratings": 146
  },
  {
    "name": "VDeep Barber Parramatta - VDesi",
    "address": "3/32 Hassall St, Parramatta",
    "suburb": "Parramatta",
    "state": "NSW",
    "lat": -33.8174498,
    "lng": 151.0102543,
    "place_id": "ChIJQ8tHE4yjEmsRCdk64Z9oG-g",
    "maps_url": "https://www.google.com/maps/place/?q=place_id:ChIJQ8tHE4yjEmsRCdk64Z9oG-g",
    "rating": 4.7,
    "total_ratings": 233
  },
  {
    "name": "Bellezza Hair & Beauty Salon",
    "address": "Shop 4/15 Bransgrove St, Wentworthville",
    "suburb": "Parramatta",
    "state": "NSW",
    "lat": -33.816094,
    "lng": 150.973196,
    "place_id": "ChIJpStIJIijEmsRSuCVktTA6p4",
    "maps_url": "https://www.google.com/maps/place/?q=place_id:ChIJpStIJIijEmsRSuCVktTA6p4",
    "rating": 4.9,
    "total_ratings": 641
  },
  {
    "name": "Tranquility Hair",
    "address": "Unit 2/97 Rawson Rd, Fairfield West",
    "suburb": "Parramatta",
    "state": "NSW",
    "lat": -33.8626755,
    "lng": 150.9307474,
    "place_id": "ChIJTQQvDs-XEmsRlwJ73RkTm2s",
    "maps_url": "https://www.google.com/maps/place/?q=place_id:ChIJTQQvDs-XEmsRlwJ73RkTm2s",
    "rating": 4.6,
    "total_ratings": 74
  },
  {
    "name": "Beauty Flow",
    "address": "2/48 Baywater Dr, Wentworth Point",
    "suburb": "Parramatta",
    "state": "NSW",
    "lat": -33.8302446,
    "lng": 151.076945,
    "place_id": "ChIJs8zQk82lEmsR5vGVLpNaUCI",
    "maps_url": "https://www.google.com/maps/place/?q=place_id:ChIJs8zQk82lEmsR5vGVLpNaUCI",
    "rating": 4.8,
    "total_ratings": 122
  },
  {
    "name": "JC's Hair Artistry",
    "address": "10B Glenlea St, Canley Heights",
    "suburb": "Parramatta",
    "state": "NSW",
    "lat": -33.8769448,
    "lng": 150.9230486,
    "place_id": "ChIJHVPA-HOXEmsRzhGExNjkbyY",
    "maps_url": "https://www.google.com/maps/place/?q=place_id:ChIJHVPA-HOXEmsRzhGExNjkbyY",
    "rating": 4.9,
    "total_ratings": 258
  },
  {
    "name": "Barber Junction",
    "address": "Ground Floor, Stockland, Shop/1011 McFarlane St, Merrylands",
    "suburb": "Parramatta",
    "state": "NSW",
    "lat": -33.8350255,
    "lng": 150.9880308,
    "place_id": "ChIJI0AMepa9EmsRlOBWS7bOTww",
    "maps_url": "https://www.google.com/maps/place/?q=place_id:ChIJI0AMepa9EmsRlOBWS7bOTww",
    "rating": 4.2,
    "total_ratings": 115
  },
  {
    "name": "A J Hair & Beauty Salon",
    "address": "4/140 Church St, Parramatta",
    "suburb": "Parramatta",
    "state": "NSW",
    "lat": -33.8178072,
    "lng": 151.0039267,
    "place_id": "ChIJfZJaqSGjEmsR-qwmebpd5nY",
    "maps_url": "https://www.google.com/maps/place/?q=place_id:ChIJfZJaqSGjEmsR-qwmebpd5nY",
    "rating": 4.6,
    "total_ratings": 52
  },
  {
    "name": "TH Barber Shop - Smithfield",
    "address": "689 The Horsley Dr, Smithfield",
    "suburb": "Parramatta",
    "state": "NSW",
    "lat": -33.8531716,
    "lng": 150.939432,
    "place_id": "ChIJSV3Zqc-XEmsR2ugdKFDhcBA",
    "maps_url": "https://www.google.com/maps/place/?q=place_id:ChIJSV3Zqc-XEmsR2ugdKFDhcBA",
    "rating": 4.8,
    "total_ratings": 214
  },
  {
    "name": "KMHD Salon",
    "address": "5 Ventura Rd, Northmead",
    "suburb": "Parramatta",
    "state": "NSW",
    "lat": -33.7720646,
    "lng": 151.0013894,
    "place_id": "ChIJkY5wJsujEmsRGhNFPY3XM_w",
    "maps_url": "https://www.google.com/maps/place/?q=place_id:ChIJkY5wJsujEmsRGhNFPY3XM_w",
    "rating": 4.7,
    "total_ratings": 159
  },
  {
    "name": "Ilka Andre & Co",
    "address": "Shop 5/181 Church St, Parramatta",
    "suburb": "Parramatta",
    "state": "NSW",
    "lat": -33.816297,
    "lng": 151.0029101,
    "place_id": "ChIJpdiKmhqjEmsRgCPdtJ32UFI",
    "maps_url": "https://www.google.com/maps/place/?q=place_id:ChIJpdiKmhqjEmsRgCPdtJ32UFI",
    "rating": 4.8,
    "total_ratings": 60
  },
  {
    "name": "Blunt Unisex Hair and Beauty Salon",
    "address": "F112/28-34 Lexington Dr, Bella Vista",
    "suburb": "Blacktown",
    "state": "NSW",
    "lat": -33.733748,
    "lng": 150.9453287,
    "place_id": "ChIJe66QMp6fEmsRezSowqAQdpw",
    "maps_url": "https://www.google.com/maps/place/?q=place_id:ChIJe66QMp6fEmsRezSowqAQdpw",
    "rating": 4.7,
    "total_ratings": 217
  },
  {
    "name": "Cuts 4 Stylz Barber Merrylands",
    "address": "202 Merrylands Rd, Merrylands",
    "suburb": "Blacktown",
    "state": "NSW",
    "lat": -33.8364099,
    "lng": 150.9890522,
    "place_id": "ChIJ3XBuiy29EmsRtX1GFMHtrxA",
    "maps_url": "https://www.google.com/maps/place/?q=place_id:ChIJ3XBuiy29EmsRtX1GFMHtrxA",
    "rating": 4.8,
    "total_ratings": 244
  },
  {
    "name": "Hoori's Hairdressing",
    "address": "195 Old Prospect Rd, Greystanes",
    "suburb": "Blacktown",
    "state": "NSW",
    "lat": -33.8187532,
    "lng": 150.9467113,
    "place_id": "ChIJsZjwtp2ZEmsRNmTFm9Aj0Gg",
    "maps_url": "https://www.google.com/maps/place/?q=place_id:ChIJsZjwtp2ZEmsRNmTFm9Aj0Gg",
    "rating": 4.9,
    "total_ratings": 78
  },
  {
    "name": "Ca Lumea Hair by Winnie",
    "address": "73 Valerie Ave, Baulkham Hills",
    "suburb": "Blacktown",
    "state": "NSW",
    "lat": -33.7617321,
    "lng": 150.9602022,
    "place_id": "ChIJx-jMb32jEmsR5aP_-Wyp82g",
    "maps_url": "https://www.google.com/maps/place/?q=place_id:ChIJx-jMb32jEmsR5aP_-Wyp82g",
    "rating": 5,
    "total_ratings": 64
  },
  {
    "name": "FLEEK CUTS HAIR & BEAUTY - FORMERLY CEYLON CUT ROOTY HILL",
    "address": "2 Rooty Hill Rd S, Rooty Hill",
    "suburb": "Blacktown",
    "state": "NSW",
    "lat": -33.7722654,
    "lng": 150.844136,
    "place_id": "ChIJMYcHO6ObEmsRu09cyRH57sE",
    "maps_url": "https://www.google.com/maps/place/?q=place_id:ChIJMYcHO6ObEmsRu09cyRH57sE",
    "rating": 4.7,
    "total_ratings": 288
  },
  {
    "name": "BETTER BARBER",
    "address": "Shop G02B, 25 Railway Rd, Quakers Hill",
    "suburb": "Blacktown",
    "state": "NSW",
    "lat": -33.7280277,
    "lng": 150.8861404,
    "place_id": "ChIJ9aH9G56ZEmsRhC2874K3d6k",
    "maps_url": "https://www.google.com/maps/place/?q=place_id:ChIJ9aH9G56ZEmsRhC2874K3d6k",
    "rating": 4.5,
    "total_ratings": 357
  },
  {
    "name": "Titans Hair Design - Barber",
    "address": "Shop 1c/111 Main St, Blacktown",
    "suburb": "Blacktown",
    "state": "NSW",
    "lat": -33.7710338,
    "lng": 150.9105983,
    "place_id": "ChIJr9XVBeaZEmsR7ne0ovjerHs",
    "maps_url": "https://www.google.com/maps/place/?q=place_id:ChIJr9XVBeaZEmsR7ne0ovjerHs",
    "rating": 4.3,
    "total_ratings": 64
  },
  {
    "name": "Bff Amanda Hair And Beauty Expert",
    "address": "17A/24 Main St, Blacktown",
    "suburb": "Blacktown",
    "state": "NSW",
    "lat": -33.7692065,
    "lng": 150.9080616,
    "place_id": "ChIJ8fXc0KuZEmsRD2oXvSk4FKg",
    "maps_url": "https://www.google.com/maps/place/?q=place_id:ChIJ8fXc0KuZEmsRD2oXvSk4FKg",
    "rating": 4.9,
    "total_ratings": 239
  },
  {
    "name": "NATHANEAL V HAIR SALON",
    "address": "5B Meridian Pl, Bella Vista",
    "suburb": "Blacktown",
    "state": "NSW",
    "lat": -33.7334969,
    "lng": 150.9481882,
    "place_id": "ChIJD3OcmYifEmsRoTSfp9dtko0",
    "maps_url": "https://www.google.com/maps/place/?q=place_id:ChIJD3OcmYifEmsRoTSfp9dtko0",
    "rating": 4.9,
    "total_ratings": 204
  },
  {
    "name": "Unique Hair Me - Curly Hair Specialist",
    "address": "Shop 105/69 Holbeche Rd, Blacktown",
    "suburb": "Blacktown",
    "state": "NSW",
    "lat": -33.78907290000001,
    "lng": 150.8894238,
    "place_id": "ChIJz8ouRzm7EmsRRyhFH1oPrKw",
    "maps_url": "https://www.google.com/maps/place/?q=place_id:ChIJz8ouRzm7EmsRRyhFH1oPrKw",
    "rating": 4.8,
    "total_ratings": 61
  },