[
  {
    "name": "Bunnings Artarmon",
    "address": "71 Reserve Rd, Artarmon",
    "suburb": "Sydney CBD",
    "state": "NSW",
    "lat": -33.81646509999999,
    "lng": 151.1881129,
    "place_id": "ChIJ95CKpdiuEmsRSaL1OxFJenk",
    "maps_url": "https://www.google.com/maps/place/?q=place_id:ChIJ95CKpdiuEmsRSaL1OxFJenk",
    "rating": 4.1,
    "total_ratings": 2417
  },
  {
    "name": "Bunnings Randwick",
    "address": "Clovelly Road &, Kemmis St, Randwick",
    "suburb": "Sydney CBD",
    "state": "NSW",
    "lat": -33.9084585,
    "lng": 151.2485934,
    "place_id": "ChIJDbj9Nw6yEmsRExqdcIvT1r8",
    "maps_url": "https://www.google.com/maps/place/?q=place_id:ChIJDbj9Nw6yEmsRExqdcIvT1r8",
    "rating": 3.7,
    "total_ratings": 1169
  },
  {
    "name": "Bunnings Alexandria",
    "address": "8/40 Euston Rd, Alexandria",
    "suburb": "Sydney CBD",
    "state": "NSW",
    "lat": -33.9057744,
    "lng": 151.1936904,
    "place_id": "ChIJ8VNL8MmxEmsRK3cD5ArVR6k",
    "maps_url": "https://www.google.com/maps/place/?q=place_id:ChIJ8VNL8MmxEmsRK3cD5ArVR6k",
    "rating": 4.4,
    "total_ratings": 5023
  },
  {
    "name": "Bunnings Rose Bay",
    "address": "538-544 Old South Head Rd, Rose Bay",
    "suburb": "Sydney CBD",
    "state": "NSW",
    "lat": -33.8726718,
    "lng": 151.273949,
    "place_id": "ChIJIaYFL6-tEmsR1TwlHQEOgqI",
    "maps_url": "https://www.google.com/maps/place/?q=place_id:ChIJIaYFL6-tEmsR1TwlHQEOgqI",
    "rating": 3.8,
    "total_ratings": 443
  },
  {
    "name": "Bunnings Gladesville",
    "address": "461 Victoria Rd, Gladesville",
    "suburb": "Sydney CBD",
    "state": "NSW",
    "lat": -33.8207569,
    "lng": 151.1214074,
    "place_id": "ChIJ5QKJ__elEmsRQUa9HV4awEw",
    "maps_url": "https://www.google.com/maps/place/?q=place_id:ChIJ5QKJ__elEmsRQUa9HV4awEw",
    "rating": 4.4,
    "total_ratings": 1860
  },
  {
    "name": "Carroll's Hardware",
    "address": "121, 129 William St, Darlinghurst",
    "suburb": "Sydney CBD",
    "state": "NSW",
    "lat": -33.8747475,
    "lng": 151.2175801,
    "place_id": "ChIJJ3r8ThKuEmsRIqIZuj3H9so",
    "maps_url": "https://www.google.com/maps/place/?q=place_id:ChIJJ3r8ThKuEmsRIqIZuj3H9so",
    "rating": 2.6,
    "total_ratings": 206
  },
  {
    "name": "Booth and Taylor Hardware",
    "address": "7 Booth St, Annandale",
    "suburb": "Sydney CBD",
    "state": "NSW",
    "lat": -33.8826405,
    "lng": 151.1748035,
    "place_id": "ChIJ6Thu0SewEmsRp6do3h8If1I",
    "maps_url": "https://www.google.com/maps/place/?q=place_id:ChIJ6Thu0SewEmsRp6do3h8If1I",
    "rating": 4.6,
    "total_ratings": 88
  },
  {
    "name": "Marrickville Mitre 10",
    "address": "175 Marrickville Rd, Marrickville",
    "suburb": "Sydney CBD",
    "state": "NSW",
    "lat": -33.9113504,
    "lng": 151.1586493,
    "place_id": "ChIJNbejumawEmsRuiVeLPU6n5k",
    "maps_url": "https://www.google.com/maps/place/?q=place_id:ChIJNbejumawEmsRuiVeLPU6n5k",
    "rating": 3.9,
    "total_ratings": 231
  },
  {
    "name": "Bunnings Ashfield",
    "address": "Cnr Parramatta Rd &, Frederick St, Ashfield",
    "suburb": "Sydney CBD",
    "state": "NSW",
    "lat": -33.8778278,
    "lng": 151.1298586,
    "place_id": "ChIJQwsKz6-6EmsRtbFMGVpbJ14",
    "maps_url": "https://www.google.com/maps/place/?q=place_id:ChIJQwsKz6-6EmsRtbFMGVpbJ14",
    "rating": 4,
    "total_ratings": 3234
  },
  {
    "name": "Sunlite Mitre 10 - Pitt Street",
    "address": "74 Pitt St, Sydney",
    "suburb": "Sydney CBD",
    "state": "NSW",
    "lat": -33.866354,
    "lng": 151.2088372,
    "place_id": "ChIJ-Xy0NUCuEmsRg0CFBy2sneg",
    "maps_url": "https://www.google.com/maps/place/?q=place_id:ChIJ-Xy0NUCuEmsRg0CFBy2sneg",
    "rating": 4.7,
    "total_ratings": 299
  },
  {
    "name": "Sunlite Mitre 10 - Bondi Junction",
    "address": "452 Oxford St, Bondi Junction",
    "suburb": "Sydney CBD",
    "state": "NSW",
    "lat": -33.8918635,
    "lng": 151.2491441,
    "place_id": "ChIJ8U4XCfGtEmsR0zTCre_Kfmg",
    "maps_url": "https://www.google.com/maps/place/?q=place_id:ChIJ8U4XCfGtEmsR0zTCre_Kfmg",
    "rating": 4.8,
    "total_ratings": 248
  },
  {
    "name": "Dollar King",
    "address": "Sydney World Square Shopping Centr, 6A/644 George St, Sydney",
    "suburb": "Sydney CBD",
    "state": "NSW",
    "lat": -33.8771231,
    "lng": 151.2064007,
    "place_id": "ChIJhemr5TyuEmsRXji13miYZnk",
    "maps_url": "https://www.google.com/maps/place/?q=place_id:ChIJhemr5TyuEmsRXji13miYZnk",
    "rating": 3.7,
    "total_ratings": 153
  },
  {
    "name": "Sunlite Mitre 10 - York St",
    "address": "60 York St, Sydney",
    "suburb": "Sydney CBD",
    "state": "NSW",
    "lat": -33.8698969,
    "lng": 151.2062885,
    "place_id": "ChIJKUyJED-uEmsRiwWnAVxtcIE",
    "maps_url": "https://www.google.com/maps/place/?q=place_id:ChIJKUyJED-uEmsRiwWnAVxtcIE",
    "rating": 4.6,
    "total_ratings": 291
  },
  {
    "name": "Bunnings Rozelle",
    "address": "Corner Parsons Street &, Mullens St, Rozelle",
    "suburb": "Sydney CBD",
    "state": "NSW",
    "lat": -33.8654454,
    "lng": 151.1766507,
    "place_id": "ChIJ-4-kdiOvEmsRgl6036v1Isg",
    "maps_url": "https://www.google.com/maps/place/?q=place_id:ChIJ-4-kdiOvEmsRgl6036v1Isg",
    "rating": 4,
    "total_ratings": 387
  },
  {
    "name": "Double Bay Hardware",
    "address": "406 New South Head Rd, Double Bay",
    "suburb": "Sydney CBD",
    "state": "NSW",
    "lat": -33.8771586,
    "lng": 151.244247,
    "place_id": "ChIJd0ckW92tEmsRlpxg2cJ1clM",
    "maps_url": "https://www.google.com/maps/place/?q=place_id:ChIJd0ckW92tEmsRlpxg2cJ1clM",
    "rating": 4.1,
    "total_ratings": 43
  },
  {
    "name": "Sunlite Mitre 10 Paddington - Hardware & Plant Shop",
    "address": "347 Oxford St, Paddington",
    "suburb": "Sydney CBD",
    "state": "NSW",
    "lat": -33.8862577,
    "lng": 151.2286896,
    "place_id": "ChIJyeBTZAauEmsR49gdkOHT7W0",
    "maps_url": "https://www.google.com/maps/place/?q=place_id:ChIJyeBTZAauEmsR49gdkOHT7W0",
    "rating": 4.7,
    "total_ratings": 349
  },
  {
    "name": "Sunlite Mitre 10 - Newtown",
    "address": "267 King St, Newtown",
    "suburb": "Sydney CBD",
    "state": "NSW",
    "lat": -33.8961323,
    "lng": 151.1803253,
    "place_id": "ChIJk6msXDGwEmsRJYaw1xHwlfI",
    "maps_url": "https://www.google.com/maps/place/?q=place_id:ChIJk6msXDGwEmsRJYaw1xHwlfI",
    "rating": 4.8,
    "total_ratings": 327
  },
  {
    "name": "Sunlite Mitre 10 Mosman - Hardware & Plant Shop",
    "address": "874 Military Rd, Mosman",
    "suburb": "Sydney CBD",
    "state": "NSW",
    "lat": -33.8297644,
    "lng": 151.2442988,
    "place_id": "ChIJP1VxbxqsEmsRzGPJI7UpEEk",
    "maps_url": "https://www.google.com/maps/place/?q=place_id:ChIJP1VxbxqsEmsRzGPJI7UpEEk",
    "rating": 4.7,
    "total_ratings": 123
  },
  {
    "name": "Ambour Hardware",
    "address": "93A Redfern St, Redfern",
    "suburb": "Sydney CBD",
    "state": "NSW",
    "lat": -33.8929397,
    "lng": 151.2042427,
    "place_id": "ChIJE6YJVdmxEmsR3VxZF85yGiw",
    "maps_url": "https://www.google.com/maps/place/?q=place_id:ChIJE6YJVdmxEmsR3VxZF85yGiw",
    "rating": 4.7,
    "total_ratings": 62
  },
  {
    "name": "Mitre 10",
    "address": "Taylor Street &, Booth St, Annandale",
    "suburb": "Sydney CBD",
    "state": "NSW",
    "lat": -33.8827887,
    "lng": 151.174694,
    "place_id": "ChIJQT4LWACxEmsRXinTE4VXSpA",
    "maps_url": "https://www.google.com/maps/place/?q=place_id:ChIJQT4LWACxEmsRXinTE4VXSpA",
    "rating": 4.1,
    "total_ratings": 20
  },
  {
    "name": "Thrifty-Link",
    "address": "7 Booth St, Annandale",
    "suburb": "Sydney CBD",
    "state": "NSW",
    "lat": -33.8826357,
    "lng": 151.1748204,
    "place_id": "ChIJg8Mm0SewEmsR6DR-EobSt4A",
    "maps_url": "https://www.google.com/maps/place/?q=place_id:ChIJg8Mm0SewEmsR6DR-EobSt4A",
    "rating": 4.5,
    "total_ratings": 79
  },
  {
    "name": "Mckenzies Hardware",
    "address": "428 Cleveland St, Surry Hills",
    "suburb": "Sydney CBD",
    "state": "NSW",
    "lat": -33.8913067,
    "lng": 151.2122845,
    "place_id": "ChIJw0J6OOCxEmsRH_qC3QPGTHo",
    "maps_url": "https://www.google.com/maps/place/?q=place_id:ChIJw0J6OOCxEmsRH_qC3QPGTHo",
    "rating": 4.7,
    "total_ratings": 71
  },
  {
    "name": "Keeler Hardware",
    "address": "184 High St, North Willoughby",
    "suburb": "Sydney CBD",
    "state": "NSW",
    "lat": -33.7966075,
    "lng": 151.2006331,
    "place_id": "ChIJIWFXRDCpEmsRpFCHx8TASJw",
    "maps_url": "https://www.google.com/maps/place/?q=place_id:ChIJIWFXRDCpEmsRpFCHx8TASJw",
    "rating": 4.1,
    "total_ratings": 711
  },
  {
    "name": "The Hardware Store",
    "address": "42 John St, Leichhardt",
    "suburb": "Sydney CBD",
    "state": "NSW",
    "lat": -33.8811931,
    "lng": 151.1656244,
    "place_id": "ChIJSbZZIsaxEmsREBAMoVCqaPs",
    "maps_url": "https://www.google.com/maps/place/?q=place_id:ChIJSbZZIsaxEmsREBAMoVCqaPs",
    "rating": 4.6,
    "total_ratings": 156
  },
  {
    "name": "Western Sydney Building Supplies",
    "address": "4 Harris Rd, Five Dock",
    "suburb": "Sydney CBD",
    "state": "NSW",
    "lat": -33.8707449,
    "lng": 151.12232,
    "place_id": "ChIJK3apqwO7EmsRWpgo6NbpHHc",
    "maps_url": "https://www.google.com/maps/place/?q=place_id:ChIJK3apqwO7EmsRWpgo6NbpHHc",
    "rating": 3.7,
    "total_ratings": 3
  },
  {
    "name": "Windsor Architectural Hardware NSW Showroom",
    "address": "76 Queen St, Woollahra",
    "suburb": "Sydney CBD",
    "state": "NSW",
    "lat": -33.8885665,
    "lng": 151.2354829,
    "place_id": "ChIJ2y7dv2StEmsR8C6m6frOyQM",
    "maps_url": "https://www.google.com/maps/place/?q=place_id:ChIJ2y7dv2StEmsR8C6m6frOyQM",
    "rating": null,
    "total_ratings": 0
  },
  {
    "name": "IA Hardware",
    "address": "Suite 92/26/32 Pirrama Rd, Pyrmont",
    "suburb": "Sydney CBD",
    "state": "NSW",
    "lat": -33.8641854,
    "lng": 151.1942195,
    "place_id": "ChIJe_AAuVGvEmsRdHe6VB-hS7A",
    "maps_url": "https://www.google.com/maps/place/?q=place_id:ChIJe_AAuVGvEmsRdHe6VB-hS7A",
    "rating": null,
    "total_ratings": 0
  },
  {
    "name": "joey ZARB",
    "address": "10 Hogan Ave, Sydenham",
    "suburb": "Sydney CBD",
    "state": "NSW",
    "lat": -33.914857,
    "lng": 151.1679846,
    "place_id": "ChIJLXRgfU-xEmsRDRH2WmFCYms",
    "maps_url": "https://www.google.com/maps/place/?q=place_id:ChIJLXRgfU-xEmsRDRH2WmFCYms",
    "rating": null,
    "total_ratings": 0
  },
  {
    "name": "Sydney Tools Dulwich Hill",
    "address": "429 New Canterbury Rd, Dulwich Hill",
    "suburb": "Sydney CBD",
    "state": "NSW",
    "lat": -33.9027707,
    "lng": 151.142856,
    "place_id": "ChIJlW7bJ0yPEmsRzcehEIPW-EA",
    "maps_url": "https://www.google.com/maps/place/?q=place_id:ChIJlW7bJ0yPEmsRzcehEIPW-EA",
    "rating": 4.1,
    "total_ratings": 416
  },
  {
    "name": "Sydney Tools Five Dock",
    "address": "37-45 Parramatta Rd, Five Dock",
    "suburb": "Sydney CBD",
    "state": "NSW",
    "lat": -33.8716498,
    "lng": 151.1243538,
    "place_id": "ChIJu4D077G7EmsRVvW9Sf1H12E",
    "maps_url": "https://www.google.com/maps/place/?q=place_id:ChIJu4D077G7EmsRVvW9Sf1H12E",
    "rating": 4.2,
    "total_ratings": 146
  },
  {
    "name": "Access Hardware Sydney",
    "address": "3/5-9 Ricketty St, Mascot",
    "suburb": "Sydney CBD",
    "state": "NSW",
    "lat": -33.9202774,
    "lng": 151.1812438,
    "place_id": "ChIJDQeLK1SwEmsRUAa1AM50SuY",
    "maps_url": "https://www.google.com/maps/place/?q=place_id:ChIJDQeLK1SwEmsRUAa1AM50SuY",
    "rating": 3.7,
    "total_ratings": 74
  },
  {
    "name": "Sydney Tools Alexandria",
    "address": "88 Bourke Rd, Alexandria",
    "suburb": "Sydney CBD",
    "state": "NSW",
    "lat": -33.9102005,
    "lng": 151.1961656,
    "place_id": "ChIJWXEzLLqxEmsRuRtU5mS38PA",
    "maps_url": "https://www.google.com/maps/place/?q=place_id:ChIJWXEzLLqxEmsRuRtU5mS38PA",
    "rating": 4.3,
    "total_ratings": 984
  },
  {
    "name": "Seymour Building Supplies",
    "address": "327 Victoria Rd, Gladesville",
    "suburb": "Sydney CBD",
    "state": "NSW",
    "lat": -33.8264765,
    "lng": 151.1264248,
    "place_id": "ChIJIRGwb52lEmsRsuk9Cj6WuL0",
    "maps_url": "https://www.google.com/maps/place/?q=place_id:ChIJIRGwb52lEmsRsuk9Cj6WuL0",
    "rating": 4,
    "total_ratings": 78
  },
  {
    "name": "Bondi Timber",
    "address": "47 Oxford St, Bondi Junction",
    "suburb": "Sydney CBD",
    "state": "NSW",
    "lat": -33.8910723,
    "lng": 151.2445371,
    "place_id": "ChIJP9DGevqtEmsRHhNowZTNbhY",
    "maps_url": "https://www.google.com/maps/place/?q=place_id:ChIJP9DGevqtEmsRHhNowZTNbhY",
    "rating": 4.5,
    "total_ratings": 58
  },
  {
    "name": "Aussie POS",
    "address": "Level 14/70 Pitt St, Sydney",
    "suburb": "Sydney CBD",
    "state": "NSW",
    "lat": -33.8661616,
    "lng": 151.2089465,
    "place_id": "ChIJWaNy1-mZEmsRuiVoflL2pgQ",
    "maps_url": "https://www.google.com/maps/place/?q=place_id:ChIJWaNy1-mZEmsRuiVoflL2pgQ",
    "rating": 4.3,
    "total_ratings": 6
  },
  {
    "name": "Euro Abrasives Sydney Hardware",
    "address": "90 Princes Hwy, St Peters",
    "suburb": "Sydney CBD",
    "state": "NSW",
    "lat": -33.9119166,
    "lng": 151.1800949,
    "place_id": "ChIJD9aGGU6wEmsR8XMmuuCAFfw",
    "maps_url": "https://www.google.com/maps/place/?q=place_id:ChIJD9aGGU6wEmsR8XMmuuCAFfw",
    "rating": 4.4,
    "total_ratings": 58
  },
  {
    "name": "Swadlings Timber & Hardware",
    "address": "21 Unwins Bridge Rd, St Peters",
    "suburb": "Sydney CBD",
    "state": "NSW",
    "lat": -33.9140023,
    "lng": 151.1688294,
    "place_id": "ChIJddxeQNuvEmsRs_7kKqBMLZI",
    "maps_url": "https://www.google.com/maps/place/?q=place_id:ChIJddxeQNuvEmsRs_7kKqBMLZI",
    "rating": 4.7,
    "total_ratings": 209
  },
  {
    "name": "Grasped Architectural Hardware",
    "address": "Drummoyne",
    "suburb": "Sydney CBD",
    "state": "NSW",
    "lat": -33.8525006,
    "lng": 151.1556822,
    "place_id": "ChIJS0u3p5OvEmsRngWps3ga0hQ",
    "maps_url": "https://www.google.com/maps/place/?q=place_id:ChIJS0u3p5OvEmsRngWps3ga0hQ",
    "rating": null,
    "total_ratings": 0
  },
  {
    "name": "The Hardware Store",
    "address": "Unit 20/112 McEvoy St, Alexandria",
    "suburb": "Sydney CBD",
    "state": "NSW",
    "lat": -33.9032161,
    "lng": 151.1962913,
    "place_id": "ChIJrapq5cixEmsR_ENCwgz4qco",
    "maps_url": "https://www.google.com/maps/place/?q=place_id:ChIJrapq5cixEmsR_ENCwgz4qco",
    "rating": null,
    "total_ratings": 0
  },
  {
    "name": "Hilti Store Alexandria",
    "address": "154 Bourke Rd, Alexandria",
    "suburb": "Sydney CBD",
    "state": "NSW",
    "lat": -33.9156729,
    "lng": 151.190963,
    "place_id": "ChIJIfmBpKyxEmsRL5mesDbn_rg",
    "maps_url": "https://www.google.com/maps/place/?q=place_id:ChIJIfmBpKyxEmsRL5mesDbn_rg",
    "rating": 3.7,
    "total_ratings": 65
  },
  {
    "name": "Criterion Industries",
    "address": "294/298 Norton St, Leichhardt",
    "suburb": "Sydney CBD",
    "state": "NSW",
    "lat": -33.8769173,
    "lng": 151.1560345,
    "place_id": "ChIJU4O5lR2wEmsRyAoK_VbOQGA",
    "maps_url": "https://www.google.com/maps/place/?q=place_id:ChIJU4O5lR2wEmsRyAoK_VbOQGA",
    "rating": 4.5,
    "total_ratings": 42
  },
  {
    "name": "Hills Northside Clotheslines",
    "address": "Sydney",
    "suburb": "Sydney CBD",
    "state": "NSW",
    "lat": -33.873651,
    "lng": 151.2068896,
    "place_id": "ChIJ_RRVJNSoEmsRyJ6ZDkh-8V8",
    "maps_url": "https://www.google.com/maps/place/?q=place_id:ChIJ_RRVJNSoEmsRyJ6ZDkh-8V8",
    "rating": null,
    "total_ratings": 0
  },
  {
    "name": "Haberfield Hardware",
    "address": "163 Ramsay St, Haberfield",
    "suburb": "Sydney CBD",
    "state": "NSW",
    "lat": -33.8773107,
    "lng": 151.1375696,
    "place_id": "ChIJhVLwQ6i6EmsRJ4zhoXaVgY0",
    "maps_url": "https://www.google.com/maps/place/?q=place_id:ChIJhVLwQ6i6EmsRJ4zhoXaVgY0",
    "rating": 4.3,
    "total_ratings": 14
  },
  {
    "name": "OverClock King",
    "address": "Quay House, The Ambury, Sydney",
    "suburb": "Sydney CBD",
    "state": "NSW",
    "lat": -33.8695851,
    "lng": 151.205971,
    "place_id": "ChIJT2ltFj-uEmsRamGBQ4iocbU",
    "maps_url": "https://www.google.com/maps/place/?q=place_id:ChIJT2ltFj-uEmsRamGBQ4iocbU",
    "rating": null,
    "total_ratings": 0
  },
  {
    "name": "Swadlings Timber & Hardware",
    "address": "15 The Crescent, Annandale",
    "suburb": "Sydney CBD",
    "state": "NSW",
    "lat": -33.8727488,
    "lng": 151.1750697,
    "place_id": "ChIJP5RBh9qvEmsRwpo1HbVPxac",
    "maps_url": "https://www.google.com/maps/place/?q=place_id:ChIJP5RBh9qvEmsRwpo1HbVPxac",
    "rating": 4.2,
    "total_ratings": 64
  },
  {
    "name": "Betontools Australia",
    "address": "396 Victoria Rd, Gladesville",
    "suburb": "Sydney CBD",
    "state": "NSW",
    "lat": -33.8246813,
    "lng": 151.1246865,
    "place_id": "ChIJ1cxWf2ClEmsRLcx5J5NLXcE",
    "maps_url": "https://www.google.com/maps/place/?q=place_id:ChIJ1cxWf2ClEmsRLcx5J5NLXcE",
    "rating": 3.3,
    "total_ratings": 45
  },
  {
    "name": "Spark and Burnish Luxury Architectural Hardware",
    "address": "1/28 Kings Ln, Darlinghurst",
    "suburb": "Sydney CBD",
    "state": "NSW",
    "lat": -33.8781226,
    "lng": 151.2166354,
    "place_id": "ChIJQ9yUZrKvEmsRN5AckpPtn_o",
    "maps_url": "https://www.google.com/maps/place/?q=place_id:ChIJQ9yUZrKvEmsRN5AckpPtn_o",
    "rating": 5,
    "total_ratings": 1
  },
  {
    "name": "Lo & Co Interiors Sydney",
    "address": "83 Moncur St, Woollahra",
    "suburb": "Sydney CBD",
    "state": "NSW",
    "lat": -33.8873934,
    "lng": 151.2370539,
    "place_id": "ChIJy5V6KsStEmsRh-TrEOOra9o",
    "maps_url": "https://www.google.com/maps/place/?q=place_id:ChIJy5V6KsStEmsRh-TrEOOra9o",
    "rating": 3.5,
    "total_ratings": 17
  },
  {
    "name": "Dulux Acratex Render, Texture and Panels Centre Tempe",
    "address": "661 Princes Hwy, Tempe",
    "suburb": "Sydney CBD",
    "state": "NSW",
    "lat": -33.9228256,
    "lng": 151.162812,
    "place_id": "ChIJv86XWouwEmsRpkmghfXaBjs",
    "maps_url": "https://www.google.com/maps/place/?q=place_id:ChIJv86XWouwEmsRpkmghfXaBjs",
    "rating": 4.4,
    "total_ratings": 39
  },
  {
    "name": "Style Finish (Relocated to 184 High st, North Willoughby 2068)",
    "address": "184 High St, North Willoughby",
    "suburb": "Sydney CBD",
    "state": "NSW",
    "lat": -33.7966384,
    "lng": 151.200671,
    "place_id": "ChIJm_FJXseuEmsRE0hoxRvLpSc",
    "maps_url": "https://www.google.com/maps/place/?q=place_id:ChIJm_FJXseuEmsRE0hoxRvLpSc",
    "rating": 4.2,
    "total_ratings": 29
  },
  {
    "name": "Aps Architectural Hardware",
    "address": "41/43 Applebee St, St Peters",
    "suburb": "Sydney CBD",
    "state": "NSW",
    "lat": -33.9105502,
    "lng": 151.1793768,
    "place_id": "ChIJSS6MUE6wEmsR4Bax_Xy6iF8",
    "maps_url": "https://www.google.com/maps/place/?q=place_id:ChIJSS6MUE6wEmsR4Bax_Xy6iF8",
    "rating": 5,
    "total_ratings": 1
  },
  {
    "name": "Loreranzato brick furnace",
    "address": "2 Udall Ave, Five Dock",
    "suburb": "Sydney CBD",
    "state": "NSW",
    "lat": -33.863779,
    "lng": 151.1273779,
    "place_id": "ChIJSekklwSlEmsRGJu2v2I-BOE",
    "maps_url": "https://www.google.com/maps/place/?q=place_id:ChIJSekklwSlEmsRGJu2v2I-BOE",
    "rating": null,
    "total_ratings": 0
  },
  {
    "name": "ICG Software",
    "address": "Mascot Tech Park, unit 15/538 Gardeners Rd, Alexandria",
    "suburb": "Sydney CBD",
    "state": "NSW",
    "lat": -33.8938151,
    "lng": 151.2142057,
    "place_id": "ChIJbSBYEOGxEmsRIU7qIHpjh44",
    "maps_url": "https://www.google.com/maps/place/?q=place_id:ChIJbSBYEOGxEmsRIU7qIHpjh44",
    "rating": null,
    "total_ratings": 0
  },
  {
    "name": "Two Tease Architectural Hardware",
    "address": "Unit 22/76 Reserve Rd, Artarmon",
    "suburb": "Sydney CBD",
    "state": "NSW",
    "lat": -33.8187294,
    "lng": 151.1882629,
    "place_id": "ChIJcx4qXMSvEmsRZ-urvo_mb20",
    "maps_url": "https://www.google.com/maps/place/?q=place_id:ChIJcx4qXMSvEmsRZ-urvo_mb20",
    "rating": 5,
    "total_ratings": 23
  },
  {
    "name": "Heritage Building Centre",
    "address": "56 Parramatta Rd, Glebe",
    "suburb": "Sydney CBD",
    "state": "NSW",
    "lat": -33.8850908,
    "lng": 151.1827442,
    "place_id": "ChIJMTwq9lO3EmsR5Nz9qiF26Fw",
    "maps_url": "https://www.google.com/maps/place/?q=place_id:ChIJMTwq9lO3EmsR5Nz9qiF26Fw",
    "rating": 3.9,
    "total_ratings": 185
  },
  {
    "name": "Kenstar",
    "address": "Level 13/465 Victoria Ave, Chatswood",
    "suburb": "Sydney CBD",
    "state": "NSW",
    "lat": -33.7968777,
    "lng": 151.179785,
    "place_id": "ChIJV1XlmNOoEmsREtb8f5IggYI",
    "maps_url": "https://www.google.com/maps/place/?q=place_id:ChIJV1XlmNOoEmsREtb8f5IggYI",
    "rating": null,
    "total_ratings": 0
  },
  {
    "name": "Bunnings Chatswood",
    "address": "Smith St, Chatswood",
    "suburb": "North Sydney",
    "state": "NSW",
    "lat": -33.7856294,
    "lng": 151.1991257,
    "place_id": "ChIJh3NAOj2pEmsRbaQ2aP2Jo-M",
    "maps_url": "https://www.google.com/maps/place/?q=place_id:ChIJh3NAOj2pEmsRbaQ2aP2Jo-M",
    "rating": 4.3,
    "total_ratings": 2062
  },
  {
    "name": "Bunnings Balgowlah",
    "address": "Balgowlah Rd, Balgowlah",
    "suburb": "North Sydney",
    "state": "NSW",
    "lat": -33.7898084,
    "lng": 151.2669448,
    "place_id": "ChIJ7y6ZYrCrEmsRLEdMOAUS56E",
    "maps_url": "https://www.google.com/maps/place/?q=place_id:ChIJ7y6ZYrCrEmsRLEdMOAUS56E",
    "rating": 4.3,
    "total_ratings": 1139
  },
  {
    "name": "North Shore Timber & Hardware - Chatswood",
    "address": "24 Smith St, Chatswood",
    "suburb": "North Sydney",
    "state": "NSW",
    "lat": -33.7866178,
    "lng": 151.1996609,
    "place_id": "ChIJc3CtJT2pEmsRmTmRUi4Aqpc",
    "maps_url": "https://www.google.com/maps/place/?q=place_id:ChIJc3CtJT2pEmsRmTmRUi4Aqpc",
    "rating": 3.6,
    "total_ratings": 32
  },
  {
    "name": "Hardware Cafe",
    "address": "Smith St, Middle Cove",
    "suburb": "North Sydney",
    "state": "NSW",
    "lat": -33.7859148,
    "lng": 151.1986885,
    "place_id": "ChIJ_4msNT2pEmsRYCZNm0K4auw",
    "maps_url": "https://www.google.com/maps/place/?q=place_id:ChIJ_4msNT2pEmsRYCZNm0K4auw",
    "rating": 4.5,
    "total_ratings": 2
  },
  {
    "name": "Bunnings Pymble",
    "address": "950 Pacific Hwy, Pymble",
    "suburb": "Chatswood",
    "state": "NSW",
    "lat": -33.7506444,
    "lng": 151.1464641,
    "place_id": "ChIJEWyj1GepEmsRNDIXxgFIJUQ",
    "maps_url": "https://www.google.com/maps/place/?q=place_id:ChIJEWyj1GepEmsRNDIXxgFIJUQ",
    "rating": 4.2,
    "total_ratings": 778
  },
  {
    "name": "Modo Life St Ives Variety",
    "address": "shop 5/166 Mona Vale Rd, St Ives",
    "suburb": "Chatswood",
    "state": "NSW",
    "lat": -33.7298085,
    "lng": 151.1590724,
    "place_id": "ChIJ0zwFBoepEmsRKnqS_Pt-M-o",
    "maps_url": "https://www.google.com/maps/place/?q=place_id:ChIJ0zwFBoepEmsRKnqS_Pt-M-o",
    "rating": 4.1,
    "total_ratings": 13
  },
  {
    "name": "Abrasives Plus",
    "address": "9 Barra Brui Cres, St Ives",
    "suburb": "Chatswood",
    "state": "NSW",
    "lat": -33.7462793,
    "lng": 151.1666515,
    "place_id": "ChIJN3IdjL481moRrdHnyNVBkgQ",
    "maps_url": "https://www.google.com/maps/place/?q=place_id:ChIJN3IdjL481moRrdHnyNVBkgQ",
    "rating": 4.3,
    "total_ratings": 3
  },
  {
    "name": "Hardware & General",
    "address": "702 Pittwater Rd, Brookvale",
    "suburb": "Chatswood",
    "state": "NSW",
    "lat": -33.761848,
    "lng": 151.2721803,
    "place_id": "ChIJN2ubfWeqEmsR4-BDMihbXEc",
    "maps_url": "https://www.google.com/maps/place/?q=place_id:ChIJN2ubfWeqEmsR4-BDMihbXEc",
    "rating": 3.9,
    "total_ratings": 107
  },
  {
    "name": "Bunnings Thornleigh",
    "address": "Cnr Pennant Hills Rd &, Phyllis Ave, Thornleigh",
    "suburb": "Hornsby",
    "state": "NSW",
    "lat": -33.7290854,
    "lng": 151.0828478,
    "place_id": "ChIJz9ENmASnEmsRyXQPEp7_WwY",
    "maps_url": "https://www.google.com/maps/place/?q=place_id:ChIJz9ENmASnEmsRyXQPEp7_WwY",
    "rating": 4,
    "total_ratings": 2115
  },
  {
    "name": "Zano Hardware",
    "address": "236A New Line Rd, Dural",
    "suburb": "Hornsby",
    "state": "NSW",
    "lat": -33.70553,
    "lng": 151.0270421,
    "place_id": "ChIJtVca2ZuhEmsRclIA7gdsZtg",
    "maps_url": "https://www.google.com/maps/place/?q=place_id:ChIJtVca2ZuhEmsRclIA7gdsZtg",
    "rating": null,
    "total_ratings": 0
  },
  {
    "name": "Bunnings Dural",
    "address": "248-252 New Line Rd, Dural",
    "suburb": "Hornsby",
    "state": "NSW",
    "lat": -33.7027034,
    "lng": 151.0286661,
    "place_id": "ChIJf-IF38CgEmsRwb36mW7Sc_A",
    "maps_url": "https://www.google.com/maps/place/?q=place_id:ChIJf-IF38CgEmsRwb36mW7Sc_A",
    "rating": 4.3,
    "total_ratings": 1389
  },
  {
    "name": "Better Home Accessories",
    "address": "59 Beecroft Rd, Epping",
    "suburb": "Hornsby",
    "state": "NSW",
    "lat": -33.7725475,
    "lng": 151.0812145,
    "place_id": "ChIJKV65KJ2mEmsROPxx2mKKNgI",
    "maps_url": "https://www.google.com/maps/place/?q=place_id:ChIJKV65KJ2mEmsROPxx2mKKNgI",
    "rating": 3.9,
    "total_ratings": 18
  },
  {
    "name": "Bunnings",
    "address": "1 Stevens St, Pennant Hills",
    "suburb": "Hornsby",
    "state": "NSW",
    "lat": -33.7352294,
    "lng": 151.0744524,
    "place_id": "ChIJRf0RJQCnEmsRlkoJfNXD8FE",
    "maps_url": "https://www.google.com/maps/place/?q=place_id:ChIJRf0RJQCnEmsRlkoJfNXD8FE",
    "rating": null,
    "total_ratings": 0
  },
  {
    "name": "Hardware & General Hornsby",
    "address": "35 Jersey St, Hornsby",
    "suburb": "Hornsby",
    "state": "NSW",
    "lat": -33.6995311,
    "lng": 151.0984998,
    "place_id": "ChIJFS5h2YCnEmsRReIXgBdSQbo",
    "maps_url": "https://www.google.com/maps/place/?q=place_id:ChIJFS5h2YCnEmsRReIXgBdSQbo",
    "rating": 4.3,
    "total_ratings": 263
  },
  {
    "name": "North Shore Timber & Hardware - Thornleigh",
    "address": "17 Sefton Rd, Thornleigh",
    "suburb": "Hornsby",
    "state": "NSW",
    "lat": -33.722011,
    "lng": 151.0837273,
    "place_id": "ChIJ18iDTA6nEmsR5OCLRR-Dp6I",
    "maps_url": "https://www.google.com/maps/place/?q=place_id:ChIJ18iDTA6nEmsR5OCLRR-Dp6I",
    "rating": 4.1,
    "total_ratings": 23
  },
  {
    "name": "Howards Storage World North Ryde",
    "address": "420 Herring Rd, Macquarie Park",
    "suburb": "Hornsby",
    "state": "NSW",
    "lat": -33.7769869,
    "lng": 151.1206905,
    "place_id": "ChIJw6gtVO-lEmsRye_kPljqaMg",
    "maps_url": "https://www.google.com/maps/place/?q=place_id:ChIJw6gtVO-lEmsRye_kPljqaMg",
    "rating": 4,
    "total_ratings": 27
  },
  {
    "name": "COMPLETE BUILDING SUPPLIES (NSW)",
    "address": "69 Hunter Ave, St Ives",
    "suburb": "Hornsby",
    "state": "NSW",
    "lat": -33.7433414,
    "lng": 151.1750746,
    "place_id": "ChIJ3UQbQC2pEmsRkK_Hp5lJYgI",
    "maps_url": "https://www.google.com/maps/place/?q=place_id:ChIJ3UQbQC2pEmsRkK_Hp5lJYgI",
    "rating": null,
    "total_ratings": 0
  },
  {
    "name": "Hardware & General Dural",
    "address": "238 New Line Rd, Dural",
    "suburb": "Hornsby",
    "state": "NSW",
    "lat": -33.70465739999999,
    "lng": 151.0268498,
    "place_id": "ChIJsezS1sOgEmsRJ0vcy9pmNBo",
    "maps_url": "https://www.google.com/maps/place/?q=place_id:ChIJsezS1sOgEmsRJ0vcy9pmNBo",
    "rating": 3.6,
    "total_ratings": 60
  },
  {
    "name": "Atalso Diamond Saw Blades",
    "address": "33 Balaka Dr, Carlingford",
    "suburb": "Hornsby",
    "state": "NSW",
    "lat": -33.7761044,
    "lng": 151.0348864,
    "place_id": "ChIJj5YRLu6jEmsRxM7bMZijT4k",
    "maps_url": "https://www.google.com/maps/place/?q=place_id:ChIJj5YRLu6jEmsRxM7bMZijT4k",
    "rating": 5,
    "total_ratings": 2
  },
  {
    "name": "Luxhandles",
    "address": "24/7 Sefton Rd, Thornleigh",
    "suburb": "Hornsby",
    "state": "NSW",
    "lat": -33.722007,
    "lng": 151.085186,
    "place_id": "ChIJNTmBRK6nEmsRXSE5A_Q0wd8",
    "maps_url": "https://www.google.com/maps/place/?q=place_id:ChIJNTmBRK6nEmsRXSE5A_Q0wd8",
    "rating": 5,
    "total_ratings": 21
  },
  {
    "name": "Hume Building Products, Pymble",
    "address": "14-16 Suakin St, Pymble",
    "suburb": "Hornsby",
    "state": "NSW",
    "lat": -33.7510188,
    "lng": 151.1431199,
    "place_id": "ChIJAUKGYICoEmsR_YzpxgdSrqw",
    "maps_url": "https://www.google.com/maps/place/?q=place_id:ChIJAUKGYICoEmsR_YzpxgdSrqw",
    "rating": 4.7,
    "total_ratings": 41
  },
  {
    "name": "Romak Hardware Distributors",
    "address": "Thornleigh St, Thornleigh",
    "suburb": "Hornsby",
    "state": "NSW",
    "lat": -33.7325117,
    "lng": 151.0789617,
    "place_id": "ChIJxYWwnR2nEmsRtp_ZxxR6HE0",
    "maps_url": "https://www.google.com/maps/place/?q=place_id:ChIJxYWwnR2nEmsRtp_ZxxR6HE0",
    "rating": null,
    "total_ratings": 0
  },
  {
    "name": "Sydney Tools Brookvale",
    "address": "24 Mitchell Rd, Brookvale",
    "suburb": "Manly",
    "state": "NSW",
    "lat": -33.7640911,
    "lng": 151.2741208,
    "place_id": "ChIJG4DT2F2qEmsRI6pb2ivFjns",
    "maps_url": "https://www.google.com/maps/place/?q=place_id:ChIJG4DT2F2qEmsRI6pb2ivFjns",
    "rating": 4.4,
    "total_ratings": 288
  },
  {
    "name": "Hudson Mitre 10 Trade Centre Brookvale",
    "address": "4 Orchard Rd, Brookvale",
    "suburb": "Manly",
    "state": "NSW",
    "lat": -33.7654959,
    "lng": 151.2713038,
    "place_id": "ChIJ812uEiGrEmsRrl_BrE2_XOs",
    "maps_url": "https://www.google.com/maps/place/?q=place_id:ChIJ812uEiGrEmsRrl_BrE2_XOs",
    "rating": 5,
    "total_ratings": 5
  },
  {
    "name": "Chatswood warehouse",
    "address": "Unit 9/7 Gibbes St, Chatswood",
    "suburb": "Manly",
    "state": "NSW",
    "lat": -33.7893212,
    "lng": 151.2008897,
    "place_id": "ChIJf25UphypEmsRZ1rTpFj1ZXo",
    "maps_url": "https://www.google.com/maps/place/?q=place_id:ChIJf25UphypEmsRZ1rTpFj1ZXo",
    "rating": null,
    "total_ratings": 0
  },
  {
    "name": "Bunnings Seven Hills",
    "address": "Old Windsor Rd, Seven Hills",
    "suburb": "Parramatta",
    "state": "NSW",
    "lat": -33.7666615,
    "lng": 150.9569554,
    "place_id": "ChIJKx6ZUnSiEmsRfpeRqNrL7js",
    "maps_url": "https://www.google.com/maps/place/?q=place_id:ChIJKx6ZUnSiEmsRfpeRqNrL7js",
    "rating": 4.3,
    "total_ratings": 2447
  },
  {
    "name": "Bunnings Northmead",
    "address": "1c Redbank Rd, Northmead",
    "suburb": "Parramatta",
    "state": "NSW",
    "lat": -33.797143,
    "lng": 150.9899414,
    "place_id": "ChIJRWCEVQqjEmsRXRfQ0yL6E9k",
    "maps_url": "https://www.google.com/maps/place/?q=place_id:ChIJRWCEVQqjEmsRXRfQ0yL6E9k",
    "rating": 4.3,
    "total_ratings": 2015
  },
  {
    "name": "Bunnings Lidcombe",
    "address": "23-29 Parramatta Rd, Lidcombe",
    "suburb": "Parramatta",
    "state": "NSW",
    "lat": -33.8468826,
    "lng": 151.0479629,
    "place_id": "ChIJBZgXpqqkEmsRDjjUpLmoX90",
    "maps_url": "https://www.google.com/maps/place/?q=place_id:ChIJBZgXpqqkEmsRDjjUpLmoX90",
    "rating": 4.2,
    "total_ratings": 2867
  },
  {
    "name": "Bunnings Smithfield",
    "address": "Cnr Cumberland Hwy &, Sturt St, Smithfield",
    "suburb": "Parramatta",
    "state": "NSW",
    "lat": -33.8460894,
    "lng": 150.9547899,
    "place_id": "ChIJo7aUNgS9EmsRVk4SRWJR1-E",
    "maps_url": "https://www.google.com/maps/place/?q=place_id:ChIJo7aUNgS9EmsRVk4SRWJR1-E",
    "rating": 4.3,
    "total_ratings": 1801
  },
  {
    "name": "Bunnings Rydalmere",
    "address": "316 Victoria Rd, Rydalmere",
    "suburb": "Parramatta",
    "state": "NSW",
    "lat": -33.8097092,
    "lng": 151.0341061,
    "place_id": "ChIJXxm7hnCjEmsRAhshi7FO-ck",
    "maps_url": "https://www.google.com/maps/place/?q=place_id:ChIJXxm7hnCjEmsRAhshi7FO-ck",
    "rating": 4.4,
    "total_ratings": 3434
  },
  {
    "name": "Bunnings Villawood",
    "address": "Cnr Woodville Rd &, Tangerine St, Villawood",
    "suburb": "Parramatta",
    "state": "NSW",
    "lat": -33.8780852,
    "lng": 150.9788106,
    "place_id": "ChIJ98jZRaK9EmsRLfjipmm4X50",
    "maps_url": "https://www.google.com/maps/place/?q=place_id:ChIJ98jZRaK9EmsRLfjipmm4X50",
    "rating": 4.1,
    "total_ratings": 2455
  },
  {
    "name": "Bunnings Carlingford",
    "address": "295 Pennant Hills Rd, Carlingford",
    "suburb": "Parramatta",
    "state": "NSW",
    "lat": -33.7790265,
    "lng": 151.0514629,
    "place_id": "ChIJkemawQikEmsR1nxQ87DV7YQ",
    "maps_url": "https://www.google.com/maps/place/?q=place_id:ChIJkemawQikEmsR1nxQ87DV7YQ",
    "rating": 3.8,
    "total_ratings": 977
  },
  {
    "name": "Harris Park Hardware",
    "address": "Shop 3/2 Station St E, Harris Park",
    "suburb": "Parramatta",
    "state": "NSW",
    "lat": -33.8222606,
    "lng": 151.0082642,
    "place_id": "ChIJbz0BjCOjEmsRHHbntwg_JS4",
    "maps_url": "https://www.google.com/maps/place/?q=place_id:ChIJbz0BjCOjEmsRHHbntwg_JS4",
    "rating": 5,
    "total_ratings": 4
  },
  {
    "name": "Rhodes vintage cameras",
    "address": "56 Walker St, Rhodes",
    "suburb": "Parramatta",
    "state": "NSW",
    "lat": -33.8251071,
    "lng": 151.0876981,
    "place_id": "ChIJxe26YAClEmsRWLABOhpK2GE",
    "maps_url": "https://www.google.com/maps/place/?q=place_id:ChIJxe26YAClEmsRWLABOhpK2GE",
    "rating": null,
    "total_ratings": 0
  },
  {
    "name": "Sydney Tools North Parramatta",
    "address": "596A Church St, North Parramatta",
    "suburb": "Parramatta",
    "state": "NSW",
    "lat": -33.7955474,
    "lng": 151.0017395,
    "place_id": "ChIJhXSqRz2jEmsR2D8dimbjG2A",
    "maps_url": "https://www.google.com/maps/place/?q=place_id:ChIJhXSqRz2jEmsR2D8dimbjG2A",
    "rating": 4,
    "total_ratings": 165
  },
  {
    "name": "Topex Trading Pty Ltd",
    "address": "35 Carlingford St, Regents Park",
    "suburb": "Parramatta",
    "state": "NSW",
    "lat": -33.8856074,
    "lng": 151.0169909,
    "place_id": "ChIJUXUIXcmSEmsRXJ6Za8l9rLU",
    "maps_url": "https://www.google.com/maps/place/?q=place_id:ChIJUXUIXcmSEmsRXJ6Za8l9rLU",
    "rating": 2.3,
    "total_ratings": 3
  },
  {
    "name": "Mr Tool House",
    "address": "Unit 28/575 Woodville Rd, Guildford",
    "suburb": "Parramatta",
    "state": "NSW",
    "lat": -33.8629977,
    "lng": 150.9927284,
    "place_id": "ChIJo5VX4Bq9EmsRRaizFCjF5sQ",
    "maps_url": "https://www.google.com/maps/place/?q=place_id:ChIJo5VX4Bq9EmsRRaizFCjF5sQ",
    "rating": 4.6,
    "total_ratings": 11
  },
  {
    "name": "Don Nelson Australia",
    "address": "25/13 Berry St, Granville",
    "suburb": "Parramatta",
    "state": "NSW",
    "lat": -33.8361791,
    "lng": 151.0182271,
    "place_id": "ChIJozkLCTSjEmsRsI2P41pT7Do",
    "maps_url": "https://www.google.com/maps/place/?q=place_id:ChIJozkLCTSjEmsRsI2P41pT7Do",
    "rating": 4.5,
    "total_ratings": 13
  },
  {
    "name": "Sydney Tools Smithfield",
    "address": "45 Victoria St, Smithfield",
    "suburb": "Parramatta",
    "state": "NSW",
    "lat": -33.8517096,
    "lng": 150.9391112,
    "place_id": "ChIJK84UwNqXEmsR19jGiyDPXWI",
    "maps_url": "https://www.google.com/maps/place/?q=place_id:ChIJK84UwNqXEmsR19jGiyDPXWI",
    "rating": 3.8,
    "total_ratings": 406
  },
  {
    "name": "Edmonds Keys",
    "address": "5/287 Victoria Rd, Rydalmere",
    "suburb": "Parramatta",
    "state": "NSW",
    "lat": -33.81222,
    "lng": 151.035922,
    "place_id": "ChIJH9xlhHqjEmsRaQn6J6VlmPg",
    "maps_url": "https://www.google.com/maps/place/?q=place_id:ChIJH9xlhHqjEmsRaQn6J6VlmPg",
    "rating": 5,
    "total_ratings": 2
  },
  {
    "name": "FABTAS HARDWARE TRADING",
    "address": "11 Junia Ave, Toongabbie",
    "suburb": "Parramatta",
    "state": "NSW",
    "lat": -33.7882001,
    "lng": 150.9484528,
    "place_id": "ChIJK4ru0jOZEmsRpSdv3E9vuVo",
    "maps_url": "https://www.google.com/maps/place/?q=place_id:ChIJK4ru0jOZEmsRpSdv3E9vuVo",
    "rating": null,
    "total_ratings": 0
  },
  {
    "name": "PRsupplies pty Ltd",
    "address": "302 Woodville Rd, Guildford",
    "suburb": "Parramatta",
    "state": "NSW",
    "lat": -33.8508746,
    "lng": 150.9962837,
    "place_id": "ChIJ501DNyG9EmsREyCkiUHdJNs",
    "maps_url": "https://www.google.com/maps/place/?q=place_id:ChIJ501DNyG9EmsREyCkiUHdJNs",
    "rating": 4.8,
    "total_ratings": 10
  },
  {
    "name": "Bunnings Marsden Park",
    "address": "Cnr Richmond Rd &, Hollinsworth Rd, Marsden Park",
    "suburb": "Blacktown",
    "state": "NSW",
    "lat": -33.71698310000001,
    "lng": 150.8421899,
    "place_id": "ChIJn5gHRfGbEmsRasgmA6zS-Ko",
    "maps_url": "https://www.google.com/maps/place/?q=place_id:ChIJn5gHRfGbEmsRasgmA6zS-Ko",
    "rating": 4.4,
    "total_ratings": 2923
  },
  {
    "name": "Bunnings Castle Hill",
    "address": "14 Victoria Ave, Castle Hill",
    "suburb": "Blacktown",
    "state": "NSW",
    "lat": -33.7283474,
    "lng": 150.9770088,
    "place_id": "ChIJP5ZPreqhEmsRdom5HMkKkeg",
    "maps_url": "https://www.google.com/maps/place/?q=place_id:ChIJP5ZPreqhEmsRdom5HMkKkeg",
    "rating": 4.3,
    "total_ratings": 2730
  },
  {
    "name": "Bunnings Blacktown",
    "address": "and, Cnr Reservoir Road, Great Western Hwy, Blacktown",
    "suburb": "Blacktown",
    "state": "NSW",
    "lat": -33.7997263,
    "lng": 150.89822,
    "place_id": "ChIJ-37u08-ZEmsRxsuPCk0zsXY",
    "maps_url": "https://www.google.com/maps/place/?q=place_id:ChIJ-37u08-ZEmsRxsuPCk0zsXY",
    "rating": 4.3,
    "total_ratings": 2962
  },
  {
    "name": "GJ & SH Trading Pty Ltd",
    "address": "111 Main St, Blacktown",
    "suburb": "Blacktown",
    "state": "NSW",
    "lat": -33.7710202,
    "lng": 150.9106541,
    "place_id": "ChIJJYGkE_2ZEmsRfilbJRsWAx4",
    "maps_url": "https://www.google.com/maps/place/?q=place_id:ChIJJYGkE_2ZEmsRfilbJRsWAx4",
    "rating": 3.5,
    "total_ratings": 57
  },
  {
    "name": "Hardware Cafe Bunnings Warehouse",
    "address": "14 Victoria Ave, Castle Hill",
    "suburb": "Blacktown",
    "state": "NSW",
    "lat": -33.7284019,
    "lng": 150.9771134,
    "place_id": "ChIJOQM_YNmhEmsRKZZD2O2zzIw",
    "maps_url": "https://www.google.com/maps/place/?q=place_id:ChIJOQM_YNmhEmsRKZZD2O2zzIw",
    "rating": 5,
    "total_ratings": 1
  },
  {
    "name": "Uni-Fit",
    "address": "3 Kelham Pl, Glendenning",
    "suburb": "Blacktown",
    "state": "NSW",
    "lat": -33.7484088,
    "lng": 150.8543809,
    "place_id": "ChIJ4bghBQCbEmsRmufhlYH_hQc",
    "maps_url": "https://www.google.com/maps/place/?q=place_id:ChIJ4bghBQCbEmsRmufhlYH_hQc",
    "rating": null,
    "total_ratings": 0
  },
  {
    "name": "Sydney Tools Castle Hill",
    "address": "Unit 4/7-13 Victoria Ave, Castle Hill",
    "suburb": "Blacktown",
    "state": "NSW",
    "lat": -33.7326368,
    "lng": 150.9810569,
    "place_id": "ChIJ-XNxnpWhEmsR2MPwK3eMCb0",
    "maps_url": "https://www.google.com/maps/place/?q=place_id:ChIJ-XNxnpWhEmsR2MPwK3eMCb0",
    "rating": 4.3,
    "total_ratings": 488
  },
  {
    "name": "HARDWARE LIVING",
    "address": "B41/24-32 Lexington Dr, Bella Vista",
    "suburb": "Blacktown",
    "state": "NSW",
    "lat": -33.7344047,
    "lng": 150.9453455,
    "place_id": "ChIJpbvtoFGfEmsRqwGL_5JQTn4",
    "maps_url": "https://www.google.com/maps/place/?q=place_id:ChIJpbvtoFGfEmsRqwGL_5JQTn4",
    "rating": 5,
    "total_ratings": 2
  },
  {
    "name": "Sydney Tools Minchinbury",
    "address": "41/40 Sterling Rd, Minchinbury",
    "suburb": "Blacktown",
    "state": "NSW",
    "lat": -33.7808491,
    "lng": 150.8187311,
    "place_id": "ChIJhRjt3jSbEmsRN6KbSXqAQMM",
    "maps_url": "https://www.google.com/maps/place/?q=place_id:ChIJhRjt3jSbEmsRN6KbSXqAQMM",
    "rating": 4.5,
    "total_ratings": 79
  },
  {
    "name": "Keeler Hardware",
    "address": "Unit 5/171-175 Newton Rd, Wetherill Park",
    "suburb": "Blacktown",
    "state": "NSW",
    "lat": -33.8379366,
    "lng": 150.8918009,
    "place_id": "ChIJa0Oln3-XEmsRd-bdWzeYWKk",
    "maps_url": "https://www.google.com/maps/place/?q=place_id:ChIJa0Oln3-XEmsRd-bdWzeYWKk",
    "rating": 3.4,
    "total_ratings": 21
  },
  {
    "name": "Decor Hardware",
    "address": "50 Carrington Rd, Castle Hill",
    "suburb": "Blacktown",
    "state": "NSW",
    "lat": -33.7306264,
    "lng": 150.9812713,
    "place_id": "ChIJqde7DBahEmsRhVhOeRGJFjs",
    "maps_url": "https://www.google.com/maps/place/?q=place_id:ChIJqde7DBahEmsRhVhOeRGJFjs",
    "rating": null,
    "total_ratings": 0
  },
  {
    "name": "DORADO",
    "address": "16 Hallmark St, Pendle Hill",
    "suburb": "Blacktown",
    "state": "NSW",
    "lat": -33.7984843,
    "lng": 150.956647,
    "place_id": "ChIJbSGLzZ2iEmsR-neCqVypvzQ",
    "maps_url": "https://www.google.com/maps/place/?q=place_id:ChIJbSGLzZ2iEmsR-neCqVypvzQ",
    "rating": null,
    "total_ratings": 0
  },
  {
    "name": "Blacktown Building Supplies",
    "address": "3 Penny Pl, Arndell Park",
    "suburb": "Blacktown",
    "state": "NSW",
    "lat": -33.7965535,
    "lng": 150.8960872,
    "place_id": "ChIJiVG5MR6ZEmsRx7U3OTKrFSc",
    "maps_url": "https://www.google.com/maps/place/?q=place_id:ChIJiVG5MR6ZEmsRx7U3OTKrFSc",
    "rating": 4.6,
    "total_ratings": 830
  },
  {
    "name": "Lillian (Cargo Hardware) Pty Ltd",
    "address": "144 Gipps Rd, Smithfield",
    "suburb": "Blacktown",
    "state": "NSW",
    "lat": -33.8397,
    "lng": 150.927203,
    "place_id": "ChIJ1WfqUL6XEmsRTubY7kWnQw4",
    "maps_url": "https://www.google.com/maps/place/?q=place_id:ChIJ1WfqUL6XEmsRTubY7kWnQw4",
    "rating": 3.9,
    "total_ratings": 7
  },
  {
    "name": "Bunnings Penrith",
    "address": "2745 Wolseley St, Penrith",
    "suburb": "Penrith",
    "state": "NSW",
    "lat": -33.7698099,
    "lng": 150.6685482,
    "place_id": "ChIJWS2qccqIEmsRy3D4LMJIzm8",
    "maps_url": "https://www.google.com/maps/place/?q=place_id:ChIJWS2qccqIEmsRy3D4LMJIzm8",
    "rating": 4.3,
    "total_ratings": 1693
  },
  {
    "name": "Bunnings North Penrith",
    "address": "2166 Castlereagh Rd, Penrith",
    "suburb": "Penrith",
    "state": "NSW",
    "lat": -33.7439249,
    "lng": 150.6899808,
    "place_id": "ChIJETwdk-uFEmsR5OrWUn2wMa4",
    "maps_url": "https://www.google.com/maps/place/?q=place_id:ChIJETwdk-uFEmsR5OrWUn2wMa4",
    "rating": 4.3,
    "total_ratings": 1891
  },
  {
    "name": "BCC Hardware Penrith",
    "address": "407-411 High St, Penrith",
    "suburb": "Penrith",
    "state": "NSW",
    "lat": -33.753586,
    "lng": 150.6984936,
    "place_id": "ChIJE5Z5TACFEmsR0H1VDtn_D9U",
    "maps_url": "https://www.google.com/maps/place/?q=place_id:ChIJE5Z5TACFEmsR0H1VDtn_D9U",
    "rating": null,
    "total_ratings": 0
  },
  {
    "name": "Home Timber & Hardware",
    "address": "30 Coombes Dr, Penrith",
    "suburb": "Penrith",
    "state": "NSW",
    "lat": -33.7455326,
    "lng": 150.7027771,
    "place_id": "ChIJOfZmuJOFEmsRitMqf78G39Q",
    "maps_url": "https://www.google.com/maps/place/?q=place_id:ChIJOfZmuJOFEmsRitMqf78G39Q",
    "rating": 3.8,
    "total_ratings": 58
  },
  {
    "name": "Hudson Mitre 10 Trade Centre Penrith",
    "address": "30 Coombes Dr, Penrith",
    "suburb": "Penrith",
    "state": "NSW",
    "lat": -33.7455017,
    "lng": 150.7026464,
    "place_id": "ChIJ6-39ICyFEmsRHZAHt-3BJHQ",
    "maps_url": "https://www.google.com/maps/place/?q=place_id:ChIJ6-39ICyFEmsRHZAHt-3BJHQ",
    "rating": 3.7,
    "total_ratings": 38
  },
  {
    "name": "St Mary's Hardware & Accessories",
    "address": "46 Queen St, St Marys",
    "suburb": "Penrith",
    "state": "NSW",
    "lat": -33.7638864,
    "lng": 150.7746022,
    "place_id": "ChIJ6TIqarGaEmsRJ50-WgwMcfM",
    "maps_url": "https://www.google.com/maps/place/?q=place_id:ChIJ6TIqarGaEmsRJ50-WgwMcfM",
    "rating": 4.7,
    "total_ratings": 40
  },
  {
    "name": "Blaxland Home Hardware",
    "address": "31 Great Western Hwy, Blaxland",
    "suburb": "Penrith",
    "state": "NSW",
    "lat": -33.7562744,
    "lng": 150.6122492,
    "place_id": "ChIJdxrxCkKIEmsRV3Yp4Jl7XRM",
    "maps_url": "https://www.google.com/maps/place/?q=place_id:ChIJdxrxCkKIEmsRV3Yp4Jl7XRM",
    "rating": 4.3,
    "total_ratings": 88
  },
  {
    "name": "Homespot South Penrith",
    "address": "Shop 16/2 Birmingham Rd, South Penrith",
    "suburb": "Penrith",
    "state": "NSW",
    "lat": -33.7742222,
    "lng": 150.6962022,
    "place_id": "ChIJC1zbvEGPEmsRtpTm1yVVl2E",
    "maps_url": "https://www.google.com/maps/place/?q=place_id:ChIJC1zbvEGPEmsRtpTm1yVVl2E",
    "rating": 4.6,
    "total_ratings": 5
  },
  {
    "name": "Sydney Tools Penrith",
    "address": "100-104 Batt St, Jamisontown",
    "suburb": "Penrith",
    "state": "NSW",
    "lat": -33.7680982,
    "lng": 150.6830487,
    "place_id": "ChIJaTWYgk6PEmsRuFckWliGMnI",
    "maps_url": "https://www.google.com/maps/place/?q=place_id:ChIJaTWYgk6PEmsRuFckWliGMnI",
    "rating": 3.9,
    "total_ratings": 339
  },
  {
    "name": "Swarts Tools",
    "address": "Unit 19/32-36 Dunheved Cct, St Marys",
    "suburb": "Penrith",
    "state": "NSW",
    "lat": -33.7407459,
    "lng": 150.7675329,
    "place_id": "ChIJM9grjr6ZEmsR3qs99jSpL7k",
    "maps_url": "https://www.google.com/maps/place/?q=place_id:ChIJM9grjr6ZEmsR3qs99jSpL7k",
    "rating": 5,
    "total_ratings": 138
  },
  {
    "name": "Total Tools Penrith",
    "address": "127 Coreen Ave, Penrith",
    "suburb": "Penrith",
    "state": "NSW",
    "lat": -33.7439121,
    "lng": 150.6977451,
    "place_id": "ChIJK36_yeyFEmsRxAqwEf2VdVk",
    "maps_url": "https://www.google.com/maps/place/?q=place_id:ChIJK36_yeyFEmsRxAqwEf2VdVk",
    "rating": 4.8,
    "total_ratings": 185
  },
  {
    "name": "Oz Abrasives - Abrasives & Hardware supplies",
    "address": "Located in, Star Arcade, Shop 2/178 Queen St, St Marys",
    "suburb": "Penrith",
    "state": "NSW",
    "lat": -33.7679523,
    "lng": 150.774114,
    "place_id": "ChIJJSjh49CfEmsRlycIWVyruNM",
    "maps_url": "https://www.google.com/maps/place/?q=place_id:ChIJJSjh49CfEmsRlycIWVyruNM",
    "rating": 5,
    "total_ratings": 1
  },
  {
    "name": "Panther Timber Hardware",
    "address": "Unit 6/18 Abel St, Jamisontown",
    "suburb": "Penrith",
    "state": "NSW",
    "lat": -33.7663645,
    "lng": 150.6865416,
    "place_id": "ChIJUUl0NEWPEmsRe7kTgF9pQqs",
    "maps_url": "https://www.google.com/maps/place/?q=place_id:ChIJUUl0NEWPEmsRe7kTgF9pQqs",
    "rating": 4,
    "total_ratings": 1
  },
  {
    "name": "Stayg Supply",
    "address": "Unit 2/64 Cox Ave, Kingswood",
    "suburb": "Penrith",
    "state": "NSW",
    "lat": -33.7563123,
    "lng": 150.7141998,
    "place_id": "ChIJlRZsrKiFEmsR8ZoAwuXTtiw",
    "maps_url": "https://www.google.com/maps/place/?q=place_id:ChIJlRZsrKiFEmsR8ZoAwuXTtiw",
    "rating": null,
    "total_ratings": 0
  },
  {
    "name": "Stratco Penrith South",
    "address": "29 York Rd, Jamisontown",
    "suburb": "Penrith",
    "state": "NSW",
    "lat": -33.7637389,
    "lng": 150.688533,
    "place_id": "ChIJhQFTNZOFEmsRYnSnUQ66er4",
    "maps_url": "https://www.google.com/maps/place/?q=place_id:ChIJhQFTNZOFEmsRYnSnUQ66er4",
    "rating": 4.1,
    "total_ratings": 154
  },
  {
    "name": "United Tools",
    "address": "5/119 Coreen Ave, Penrith",
    "suburb": "Penrith",
    "state": "NSW",
    "lat": -33.7448906,
    "lng": 150.7011729,
    "place_id": "ChIJqRjKdZOFEmsRN-wYRpGI-N8",
    "maps_url": "https://www.google.com/maps/place/?q=place_id:ChIJqRjKdZOFEmsRN-wYRpGI-N8",
    "rating": 4.6,
    "total_ratings": 38
  },
  {
    "name": "Computer Discounts Penrith",
    "address": "Shop 1A/269 High St, Penrith",
    "suburb": "Penrith",
    "state": "NSW",
    "lat": -33.754589,
    "lng": 150.7036385,
    "place_id": "ChIJ37n8-ouFEmsRx_HvABiAtro",
    "maps_url": "https://www.google.com/maps/place/?q=place_id:ChIJ37n8-ouFEmsRx_HvABiAtro",
    "rating": 4.4,
    "total_ratings": 57
  },
  {
    "name": "SS Mobile",
    "address": "80 Borrowdale Way, Cranebrook",
    "suburb": "Penrith",
    "state": "NSW",
    "lat": -33.7198321,
    "lng": 150.7100633,
    "place_id": "ChIJU9QsyF2FEmsRW-RIvjGERE4",
    "maps_url": "https://www.google.com/maps/place/?q=place_id:ChIJU9QsyF2FEmsRW-RIvjGERE4",
    "rating": 4.3,
    "total_ratings": 19
  },
  {
    "name": "Bunnings Hoxton Park",
    "address": "Corner Cowpasture Road &, Airfield Dr, Hoxton Park",
    "suburb": "Liverpool",
    "state": "NSW",
    "lat": -33.9167934,
    "lng": 150.8527232,
    "place_id": "ChIJvfGyOF-UEmsRMO0o605kmgw",
    "maps_url": "https://www.google.com/maps/place/?q=place_id:ChIJvfGyOF-UEmsRMO0o605kmgw",
    "rating": 4.2,
    "total_ratings": 1475
  },
  {
    "name": "Bunnings Bonnyrigg",
    "address": "1-9 Bonnyrigg Ave, Bonnyrigg",
    "suburb": "Liverpool",
    "state": "NSW",
    "lat": -33.8892175,
    "lng": 150.8849147,
    "place_id": "ChIJsy-zdiCUEmsReqGJHJU5HBo",
    "maps_url": "https://www.google.com/maps/place/?q=place_id:ChIJsy-zdiCUEmsReqGJHJU5HBo",
    "rating": 4.3,
    "total_ratings": 2057
  },
  {
    "name": "Bunnings Bankstown Airport",
    "address": "347-359 Milperra Rd, Bankstown Aerodrome",
    "suburb": "Liverpool",
    "state": "NSW",
    "lat": -33.9294018,
    "lng": 150.9943756,
    "place_id": "ChIJkegnSWK-EmsRKYxRPl3wQ08",
    "maps_url": "https://www.google.com/maps/place/?q=place_id:ChIJkegnSWK-EmsRKYxRPl3wQ08",
    "rating": 4.3,
    "total_ratings": 2368
  },
  {
    "name": "Sydney Tools Revesby",
    "address": "2-4 Marigold St, Revesby",
    "suburb": "Liverpool",
    "state": "NSW",
    "lat": -33.9321628,
    "lng": 150.9988364,
    "place_id": "ChIJMToxtRS_EmsRCfSoHRx2XMo",
    "maps_url": "https://www.google.com/maps/place/?q=place_id:ChIJMToxtRS_EmsRCfSoHRx2XMo",
    "rating": 2.3,
    "total_ratings": 3
  },
  {
    "name": "Bunnings Crossroads",
    "address": "Corner Campbelltown Road &, Camden Valley Wy, Casula",
    "suburb": "Liverpool",
    "state": "NSW",
    "lat": -33.9588358,
    "lng": 150.8841022,
    "place_id": "ChIJYft0JLiUEmsRmBdY5UoAJ9M",
    "maps_url": "https://www.google.com/maps/place/?q=place_id:ChIJYft0JLiUEmsRmBdY5UoAJ9M",
    "rating": 4.1,
    "total_ratings": 2248
  },
  {
    "name": "Bunnings Leppington",
    "address": "and, Cnr of Bringelly Road, Skyline Cres, Leppington",
    "suburb": "Liverpool",
    "state": "NSW",
    "lat": -33.9488965,
    "lng": 150.8309538,
    "place_id": "ChIJfe3BslmTEmsRrFG06Aix9m0",
    "maps_url": "https://www.google.com/maps/place/?q=place_id:ChIJfe3BslmTEmsRrFG06Aix9m0",
    "rating": 4.5,
    "total_ratings": 620
  },
  {
    "name": "Liverpool Mitre 10",
    "address": "247/251 Northumberland St, Liverpool",
    "suburb": "Liverpool",
    "state": "NSW",
    "lat": -33.924176,
    "lng": 150.921875,
    "place_id": "ChIJ43mtyruVEmsRMBb40nOndno",
    "maps_url": "https://www.google.com/maps/place/?q=place_id:ChIJ43mtyruVEmsRMBb40nOndno",
    "rating": 3.9,
    "total_ratings": 144
  },
  {
    "name": "Park & Hughes Hardware",
    "address": "Shop 3/44 Park Rd, Cabramatta",
    "suburb": "Liverpool",
    "state": "NSW",
    "lat": -33.8937258,
    "lng": 150.9372024,
    "place_id": "ChIJ868cfQ6WEmsRPm4P_7KDeEY",
    "maps_url": "https://www.google.com/maps/place/?q=place_id:ChIJ868cfQ6WEmsRPm4P_7KDeEY",
    "rating": 2.2,
    "total_ratings": 22
  },
  {
    "name": "Ming On Building Supplies",
    "address": "54/56 Chadderton St, Cabramatta",
    "suburb": "Liverpool",
    "state": "NSW",
    "lat": -33.893711,
    "lng": 150.9563598,
    "place_id": "ChIJiQogrPe9EmsRuy98_sTVvyQ",
    "maps_url": "https://www.google.com/maps/place/?q=place_id:ChIJiQogrPe9EmsRuy98_sTVvyQ",
    "rating": 4.2,
    "total_ratings": 39
  },
  {
    "name": "VT Building Materials",
    "address": "41 Chadderton St, Cabramatta",
    "suburb": "Liverpool",
    "state": "NSW",
    "lat": -33.894223,
    "lng": 150.955167,
    "place_id": "ChIJz8WExfe9EmsRJIuGcl_Hevg",
    "maps_url": "https://www.google.com/maps/place/?q=place_id:ChIJz8WExfe9EmsRJIuGcl_Hevg",
    "rating": 4.1,
    "total_ratings": 90
  },
  {
    "name": "Janbay Warehouse",
    "address": "18 Cutler Rd, Lansvale",
    "suburb": "Liverpool",
    "state": "NSW",
    "lat": -33.8977388,
    "lng": 150.9553687,
    "place_id": "ChIJiY4FY_i9EmsRXT_IDMWZbog",
    "maps_url": "https://www.google.com/maps/place/?q=place_id:ChIJiY4FY_i9EmsRXT_IDMWZbog",
    "rating": 3.5,
    "total_ratings": 4
  },
  {
    "name": "JANBAY HOME TIMBER AND HARDWARE",
    "address": "259 John St, Cabramatta West",
    "suburb": "Liverpool",
    "state": "NSW",
    "lat": -33.8921914,
    "lng": 150.9171704,
    "place_id": "ChIJsaa8l3mWEmsRugyBraQIk4k",
    "maps_url": "https://www.google.com/maps/place/?q=place_id:ChIJsaa8l3mWEmsRugyBraQIk4k",
    "rating": 4.2,
    "total_ratings": 52
  },
  {
    "name": "MD & Sons Hardware",
    "address": "3 Speed St, Liverpool",
    "suburb": "Liverpool",
    "state": "NSW",
    "lat": -33.9260882,
    "lng": 150.9246852,
    "place_id": "ChIJOWz3gLuVEmsRQii7bOv9kOM",
    "maps_url": "https://www.google.com/maps/place/?q=place_id:ChIJOWz3gLuVEmsRQii7bOv9kOM",
    "rating": 4,
    "total_ratings": 4
  },
  {
    "name": "McNaughtans",
    "address": "2/314 Hoxton Park Rd, Prestons",
    "suburb": "Liverpool",
    "state": "NSW",
    "lat": -33.9280245,
    "lng": 150.8858244,
    "place_id": "ChIJzc6-Qd4T1moRfEzieXwpph4",
    "maps_url": "https://www.google.com/maps/place/?q=place_id:ChIJzc6-Qd4T1moRfEzieXwpph4",
    "rating": 4.4,
    "total_ratings": 22
  },
  {
    "name": "Platinum Hardware",
    "address": "80 Railway St, Yennora",
    "suburb": "Liverpool",
    "state": "NSW",
    "lat": -33.8648808,
    "lng": 150.9714987,
    "place_id": "ChIJaQ9bqzO9EmsR5cKWK5mWMeE",
    "maps_url": "https://www.google.com/maps/place/?q=place_id:ChIJaQ9bqzO9EmsR5cKWK5mWMeE",
    "rating": 4.5,
    "total_ratings": 13
  },
  {
    "name": "Wakeley Mixed Business",
    "address": "Shop 13/4-10 Lomond St, Wakeley",
    "suburb": "Liverpool",
    "state": "NSW",
    "lat": -33.8701181,
    "lng": 150.9114086,
    "place_id": "ChIJz5DsxF6WEmsRTYDf00Xh09w",
    "maps_url": "https://www.google.com/maps/place/?q=place_id:ChIJz5DsxF6WEmsRTYDf00Xh09w",
    "rating": 3.6,
    "total_ratings": 9
  },
  {
    "name": "Hardware King",
    "address": "207 Hamilton Rd, Fairfield",
    "suburb": "Liverpool",
    "state": "NSW",
    "lat": -33.8725096,
    "lng": 150.9372242,
    "place_id": "ChIJydtBJTqWEmsRbjvnR7hCLGc",
    "maps_url": "https://www.google.com/maps/place/?q=place_id:ChIJydtBJTqWEmsRbjvnR7hCLGc",
    "rating": 5,
    "total_ratings": 1
  },
  {
    "name": "APG Timber & Hardware",
    "address": "36 Carrington Rd, Guildford",
    "suburb": "Liverpool",
    "state": "NSW",
    "lat": -33.8583617,
    "lng": 150.9771013,
    "place_id": "ChIJwbuTAwC9EmsRbgc6fw7h3Xk",
    "maps_url": "https://www.google.com/maps/place/?q=place_id:ChIJwbuTAwC9EmsRbgc6fw7h3Xk",
    "rating": 3,
    "total_ratings": 1
  },
  {
    "name": "Kentas Hardware, Tiles and Paints",
    "address": "113 Cabramatta Rd E, Cabramatta",
    "suburb": "Liverpool",
    "state": "NSW",
    "lat": -33.8950098,
    "lng": 150.9412429,
    "place_id": "ChIJzXJldA-WEmsRE-SZlsLo8FY",
    "maps_url": "https://www.google.com/maps/place/?q=place_id:ChIJzXJldA-WEmsRE-SZlsLo8FY",
    "rating": 5,
    "total_ratings": 2
  },
  {
    "name": "Tigerlink Hardware Sydney",
    "address": "Unit 10/55 Newton Rd, Wetherill Park",
    "suburb": "Liverpool",
    "state": "NSW",
    "lat": -33.8504192,
    "lng": 150.8855928,
    "place_id": "ChIJ6T6XzGeXEmsRbkz03kQndJ8",
    "maps_url": "https://www.google.com/maps/place/?q=place_id:ChIJ6T6XzGeXEmsRbkz03kQndJ8",
    "rating": 5,
    "total_ratings": 18
  },
  {
    "name": "Harrisons Trade Centre Pty Ltd",
    "address": "12 Ashford Ave, Milperra",
    "suburb": "Liverpool",
    "state": "NSW",
    "lat": -33.9318054,
    "lng": 150.9901108,
    "place_id": "ChIJdcmeOGa-EmsRgDyKDlgw1TU",
    "maps_url": "https://www.google.com/maps/place/?q=place_id:ChIJdcmeOGa-EmsRgDyKDlgw1TU",
    "rating": null,
    "total_ratings": 0
  },
  {
    "name": "Trident Hardware",
    "address": "3 Moorebank Ave, Moorebank",
    "suburb": "Liverpool",
    "state": "NSW",
    "lat": -33.935208,
    "lng": 150.9264796,
    "place_id": "ChIJtzEUUKGVEmsRA0RpjygDH-k",
    "maps_url": "https://www.google.com/maps/place/?q=place_id:ChIJtzEUUKGVEmsRA0RpjygDH-k",
    "rating": null,
    "total_ratings": 0
  },
  {
    "name": "Australian Timber & Hardware",
    "address": "180 Milperra Rd, Revesby",
    "suburb": "Liverpool",
    "state": "NSW",
    "lat": -33.9330749,
    "lng": 151.0018615,
    "place_id": "ChIJL5gWIpW_EmsRld2ixKAA86M",
    "maps_url": "https://www.google.com/maps/place/?q=place_id:ChIJL5gWIpW_EmsRld2ixKAA86M",
    "rating": 4,
    "total_ratings": 10
  },
  {
    "name": "Total Tools Lansvale",
    "address": "146 Hume Hwy, Lansvale",
    "suburb": "Liverpool",
    "state": "NSW",
    "lat": -33.8950298,
    "lng": 150.9575584,
    "place_id": "ChIJ4RNAf72VEmsRWRLKr1-twJU",
    "maps_url": "https://www.google.com/maps/place/?q=place_id:ChIJ4RNAf72VEmsRWRLKr1-twJU",
    "rating": 4.1,
    "total_ratings": 95
  },
  {
    "name": "Food Hardware",
    "address": "49 Railway St, Yennora",
    "suburb": "Liverpool",
    "state": "NSW",
    "lat": -33.862812,
    "lng": 150.975357,
    "place_id": "ChIJORkFHXO9EmsRidMEKtrBb9U",
    "maps_url": "https://www.google.com/maps/place/?q=place_id:ChIJORkFHXO9EmsRidMEKtrBb9U",
    "rating": 4.6,
    "total_ratings": 11
  },
  {
    "name": "Holroyd Timber & Hardware Pty Ltd",
    "address": "8 Ruby St, Guildford",
    "suburb": "Liverpool",
    "state": "NSW",
    "lat": -33.8475068,
    "lng": 150.9916291,
    "place_id": "ChIJvYOu9SS9EmsR9uU10pdkg-Y",
    "maps_url": "https://www.google.com/maps/place/?q=place_id:ChIJvYOu9SS9EmsR9uU10pdkg-Y",
    "rating": 4.9,
    "total_ratings": 14
  },
  {
    "name": "KHardware",
    "address": "211-213 The Boulevarde, Fairfield Heights",
    "suburb": "Liverpool",
    "state": "NSW",
    "lat": -33.8640546,
    "lng": 150.9382969,
    "place_id": "ChIJC_7v8tCXEmsRuefncU9_a1A",
    "maps_url": "https://www.google.com/maps/place/?q=place_id:ChIJC_7v8tCXEmsRuefncU9_a1A",
    "rating": 5,
    "total_ratings": 6
  },
  {
    "name": "Bunnings Narellan",
    "address": "Cnr Northern Road &, Porrende St, Narellan",
    "suburb": "Campbelltown",
    "state": "NSW",
    "lat": -34.0345369,
    "lng": 150.7298811,
    "place_id": "ChIJfTRXUqLxEmsRJuE0FVctZYk",
    "maps_url": "https://www.google.com/maps/place/?q=place_id:ChIJfTRXUqLxEmsRJuE0FVctZYk",
    "rating": 4.3,
    "total_ratings": 1570
  },
  {
    "name": "Bunnings Campbelltown",
    "address": "Cnr Blaxland Rd &, Farrow Rd, Blair Athol",
    "suburb": "Campbelltown",
    "state": "NSW",
    "lat": -34.0638462,
    "lng": 150.8088243,
    "place_id": "ChIJ1-12h7LvEmsR9M3dnYpxBVw",
    "maps_url": "https://www.google.com/maps/place/?q=place_id:ChIJ1-12h7LvEmsR9M3dnYpxBVw",
    "rating": 4.2,
    "total_ratings": 2521
  },
  {
    "name": "Bunnings Gregory Hills",
    "address": "2 Rodeo Rd, Gregory Hills",
    "suburb": "Campbelltown",
    "state": "NSW",
    "lat": -34.0234728,
    "lng": 150.760773,
    "place_id": "ChIJv2dC2PvxEmsRNYojb-sPsGY",
    "maps_url": "https://www.google.com/maps/place/?q=place_id:ChIJv2dC2PvxEmsRNYojb-sPsGY",
    "rating": 4.3,
    "total_ratings": 1455
  },
  {
    "name": "Sydney Tools Campbelltown",
    "address": "Tenancy 5/4 Blaxland Rd, Campbelltown",
    "suburb": "Campbelltown",
    "state": "NSW",
    "lat": -34.0536963,
    "lng": 150.8228298,
    "place_id": "ChIJYcaK8g_vEmsRLLA9UhKi3OY",
    "maps_url": "https://www.google.com/maps/place/?q=place_id:ChIJYcaK8g_vEmsRLLA9UhKi3OY",
    "rating": 4.3,
    "total_ratings": 205
  },
  {
    "name": "JP Hardware Supplies - NSW",
    "address": "Hartley Rd, Smeaton Grange",
    "suburb": "Campbelltown",
    "state": "NSW",
    "lat": -34.0398984,
    "lng": 150.757668,
    "place_id": "ChIJV7mMP93xEmsR3R5Qs11xndQ",
    "maps_url": "https://www.google.com/maps/place/?q=place_id:ChIJV7mMP93xEmsR3R5Qs11xndQ",
    "rating": null,
    "total_ratings": 0
  },
  {
    "name": "Minto Mitre 10",
    "address": "3 Merryvale Rd, Minto",
    "suburb": "Campbelltown",
    "state": "NSW",
    "lat": -34.0256556,
    "lng": 150.835585,
    "place_id": "ChIJx_DpBz3sEmsRIhPjH7FzuLg",
    "maps_url": "https://www.google.com/maps/place/?q=place_id:ChIJx_DpBz3sEmsRIhPjH7FzuLg",
    "rating": 4.4,
    "total_ratings": 82
  },
  {
    "name": "Hudson Mitre 10 Trade Centre Leumeah",
    "address": "9 Hollylea Rd, Leumeah",
    "suburb": "Campbelltown",
    "state": "NSW",
    "lat": -34.0524645,
    "lng": 150.8253246,
    "place_id": "ChIJa6yGjY3uEmsRFD3e-wH229Q",
    "maps_url": "https://www.google.com/maps/place/?q=place_id:ChIJa6yGjY3uEmsRFD3e-wH229Q",
    "rating": 4.3,
    "total_ratings": 29
  },
  {
    "name": "NSW Timber & Hardware",
    "address": "3/1 Culverston Rd, Minto",
    "suburb": "Campbelltown",
    "state": "NSW",
    "lat": -34.0382078,
    "lng": 150.8353602,
    "place_id": "ChIJ2awmIku_EmsRXmIhBBM43FU",
    "maps_url": "https://www.google.com/maps/place/?q=place_id:ChIJ2awmIku_EmsRXmIhBBM43FU",
    "rating": 4.6,
    "total_ratings": 19
  },
  {
    "name": "Sydney Tools Gregory Hills",
    "address": "1/1 Gregory Hills Dr, Gledswood Hills",
    "suburb": "Campbelltown",
    "state": "NSW",
    "lat": -34.0199775,
    "lng": 150.7620391,
    "place_id": "ChIJF8FWo__xEmsR4Tx-dGiJiWQ",
    "maps_url": "https://www.google.com/maps/place/?q=place_id:ChIJF8FWo__xEmsR4Tx-dGiJiWQ",
    "rating": 4.3,
    "total_ratings": 342
  },
  {
    "name": "MW Toolbox Canopy & Tray Campbelltown",
    "address": "7/3 Hollylea Rd, Leumeah",
    "suburb": "Campbelltown",
    "state": "NSW",
    "lat": -34.0509071,
    "lng": 150.8264007,
    "place_id": "ChIJJ0cD1TXvEmsRhwDwPJyaftU",
    "maps_url": "https://www.google.com/maps/place/?q=place_id:ChIJJ0cD1TXvEmsRhwDwPJyaftU",
    "rating": 4.8,
    "total_ratings": 16
  },
  {
    "name": "Minto Star Sand Supplies",
    "address": "3 Merryvale Rd, Bow Bowing",
    "suburb": "Campbelltown",
    "state": "NSW",
    "lat": -34.02553870000001,
    "lng": 150.8355828,
    "place_id": "ChIJ__8_CD3sEmsRnWurrp4iD6g",
    "maps_url": "https://www.google.com/maps/place/?q=place_id:ChIJ__8_CD3sEmsRnWurrp4iD6g",
    "rating": 5,
    "total_ratings": 11
  },
  {
    "name": "Master Woodturning",
    "address": "37 Lancaster St, Ingleburn",
    "suburb": "Campbelltown",
    "state": "NSW",
    "lat": -33.99607650000001,
    "lng": 150.8608904,
    "place_id": "ChIJa69Kg4LsEmsRx8_M7VME1dQ",
    "maps_url": "https://www.google.com/maps/place/?q=place_id:ChIJa69Kg4LsEmsRx8_M7VME1dQ",
    "rating": 4.3,
    "total_ratings": 26
  },
  {
    "name": "Home Cart",
    "address": "5/16 Swettenham Rd, Minto",
    "suburb": "Campbelltown",
    "state": "NSW",
    "lat": -34.0280676,
    "lng": 150.8331225,
    "place_id": "ChIJq6qaRiPsEmsRd_D_2x2eGSU",
    "maps_url": "https://www.google.com/maps/place/?q=place_id:ChIJq6qaRiPsEmsRd_D_2x2eGSU",
    "rating": 4.9,
    "total_ratings": 31
  },
  {
    "name": "AH Building Supplies",
    "address": "2/2 Pembury Rd, Minto",
    "suburb": "Campbelltown",
    "state": "NSW",
    "lat": -34.0354442,
    "lng": 150.8354046,
    "place_id": "ChIJG_XKtrqVEmsRRvjrLxzhfBs",
    "maps_url": "https://www.google.com/maps/place/?q=place_id:ChIJG_XKtrqVEmsRRvjrLxzhfBs",
    "rating": 4.1,
    "total_ratings": 22
  },
  {
    "name": "Total Tools Gregory Hills",
    "address": "Cnr Rodeo Rd. &, Steer Rd, Gregory Hills",
    "suburb": "Campbelltown",
    "state": "NSW",
    "lat": -34.0249989,
    "lng": 150.761672,
    "place_id": "ChIJcycd7_vxEmsR2872oShAoeY",
    "maps_url": "https://www.google.com/maps/place/?q=place_id:ChIJcycd7_vxEmsR2872oShAoeY",
    "rating": 4.8,
    "total_ratings": 145
  },
  {
    "name": "Roncut Builders Supplies",
    "address": "14 Porrende St, Narellan",
    "suburb": "Campbelltown",
    "state": "NSW",
    "lat": -34.0358297,
    "lng": 150.7298026,
    "place_id": "ChIJ40EOxriVEmsR5JFkU35xlFA",
    "maps_url": "https://www.google.com/maps/place/?q=place_id:ChIJ40EOxriVEmsR5JFkU35xlFA",
    "rating": 4.6,
    "total_ratings": 25
  },
  {
    "name": "V Belt & Power",
    "address": "Unit 2/12 Saggart Field Rd, Minto",
    "suburb": "Campbelltown",
    "state": "NSW",
    "lat": -34.0234627,
    "lng": 150.8379359,
    "place_id": "ChIJj6B8IYHsEmsRwWACgNbTXtc",
    "maps_url": "https://www.google.com/maps/place/?q=place_id:ChIJj6B8IYHsEmsRwWACgNbTXtc",
    "rating": null,
    "total_ratings": 0
  },
  {
    "name": "Aero Timber & Hardware Sales Pty Ltd.",
    "address": "24-26 Aero Rd, Ingleburn",
    "suburb": "Campbelltown",
    "state": "NSW",
    "lat": -33.9931245,
    "lng": 150.8651496,
    "place_id": "ChIJKynoEmPrEmsRPdqBguc8IjM",
    "maps_url": "https://www.google.com/maps/place/?q=place_id:ChIJKynoEmPrEmsRPdqBguc8IjM",
    "rating": 4.2,
    "total_ratings": 11
  },
  {
    "name": "Hafele Australia Design Centre",
    "address": "39 Topham Rd, Smeaton Grange",
    "suburb": "Campbelltown",
    "state": "NSW",
    "lat": -34.0339347,
    "lng": 150.7520021,
    "place_id": "ChIJH-7pCeGWEmsRy7cPoAWr8G4",
    "maps_url": "https://www.google.com/maps/place/?q=place_id:ChIJH-7pCeGWEmsRy7cPoAWr8G4",
    "rating": 3.8,
    "total_ratings": 12
  },
  {
    "name": "Bunnings Kingsgrove",
    "address": "Cnr Richland St &, Kingsgrove Rd, Kingsgrove",
    "suburb": "Bankstown",
    "state": "NSW",
    "lat": -33.934991,
    "lng": 151.0990789,
    "place_id": "ChIJARAJdS66EmsRr0532aHAab8",
    "maps_url": "https://www.google.com/maps/place/?q=place_id:ChIJARAJdS66EmsRr0532aHAab8",
    "rating": 4.2,
    "total_ratings": 2847
  },
  {
    "name": "Bunnings Greenacre",
    "address": "Cnr Roberts Road &, Amarina Ave, Greenacre",
    "suburb": "Bankstown",
    "state": "NSW",
    "lat": -33.90131909999999,
    "lng": 151.0664275,
    "place_id": "ChIJGwqHu3W7EmsRU4jLb9MGprU",
    "maps_url": "https://www.google.com/maps/place/?q=place_id:ChIJGwqHu3W7EmsRU4jLb9MGprU",
    "rating": 4.1,
    "total_ratings": 2300
  },
  {
    "name": "Bunnings Padstow",
    "address": "88 Fairford Rd, Padstow",
    "suburb": "Bankstown",
    "state": "NSW",
    "lat": -33.942003,
    "lng": 151.035989,
    "place_id": "ChIJzwrt0tK_EmsRbAIvfjjUzjc",
    "maps_url": "https://www.google.com/maps/place/?q=place_id:ChIJzwrt0tK_EmsRbAIvfjjUzjc",
    "rating": 4.2,
    "total_ratings": 1539
  },
  {
    "name": "Jack Hardware Bargain",
    "address": "261 Forest Rd, Hurstville",
    "suburb": "Bankstown",
    "state": "NSW",
    "lat": -33.9664485,
    "lng": 151.1014737,
    "place_id": "ChIJ5z4aYE69EmsRQKcVAmWnKsU",
    "maps_url": "https://www.google.com/maps/place/?q=place_id:ChIJ5z4aYE69EmsRQKcVAmWnKsU",
    "rating": 3.5,
    "total_ratings": 11
  },
  {
    "name": "Yaju Gyprock Tools 雅居建筑工具店",
    "address": "Level 1/116 S Parade, Auburn",
    "suburb": "Bankstown",
    "state": "NSW",
    "lat": -33.8496594,
    "lng": 151.0324189,
    "place_id": "ChIJwQbui3u9EmsR_Aj3Ka-flEo",
    "maps_url": "https://www.google.com/maps/place/?q=place_id:ChIJwQbui3u9EmsR_Aj3Ka-flEo",
    "rating": 4.5,
    "total_ratings": 36
  },
  {
    "name": "St George Builders Hardware",
    "address": "Lauricella La, Riverwood",
    "suburb": "Bankstown",
    "state": "NSW",
    "lat": -33.9530496,
    "lng": 151.0522218,
    "place_id": "ChIJ45yg3TW5EmsR1jW6lE1XxPc",
    "maps_url": "https://www.google.com/maps/place/?q=place_id:ChIJ45yg3TW5EmsR1jW6lE1XxPc",
    "rating": 2,
    "total_ratings": 1
  },
  {
    "name": "Kans Hardware",
    "address": "Level 1/46 Treacy St, Hurstville",
    "suburb": "Bankstown",
    "state": "NSW",
    "lat": -33.9678246,
    "lng": 151.1054947,
    "place_id": "ChIJs2WU1Ly5EmsRVCd_HOq6Flk",
    "maps_url": "https://www.google.com/maps/place/?q=place_id:ChIJs2WU1Ly5EmsRVCd_HOq6Flk",
    "rating": 3.7,
    "total_ratings": 7
  },
  {
    "name": "Century Ie Hardware",
    "address": "1 Homedale Rd, Bankstown",
    "suburb": "Bankstown",
    "state": "NSW",
    "lat": -33.9316934,
    "lng": 151.0394147,
    "place_id": "ChIJDTOtPam-EmsRkBaLWKbxYuE",
    "maps_url": "https://www.google.com/maps/place/?q=place_id:ChIJDTOtPam-EmsRkBaLWKbxYuE",
    "rating": 4,
    "total_ratings": 3
  },
  {
    "name": "Sunlite Mitre 10 Peakhurst - Hardware Shop & Pool Supplies",
    "address": "695 Forest Rd, Peakhurst",
    "suburb": "Bankstown",
    "state": "NSW",
    "lat": -33.9595472,
    "lng": 151.0632697,
    "place_id": "ChIJ44Nh4Du5EmsRRk4mXyovGOc",
    "maps_url": "https://www.google.com/maps/place/?q=place_id:ChIJ44Nh4Du5EmsRRk4mXyovGOc",
    "rating": 4.5,
    "total_ratings": 670
  },
  {
    "name": "Carlton Hardware",
    "address": "20 Willison Rd, Carlton",
    "suburb": "Bankstown",
    "state": "NSW",
    "lat": -33.966053,
    "lng": 151.124122,
    "place_id": "ChIJvbnGa-m5EmsR49M6ZrQpHNo",
    "maps_url": "https://www.google.com/maps/place/?q=place_id:ChIJvbnGa-m5EmsR49M6ZrQpHNo",
    "rating": 4.8,
    "total_ratings": 98
  },
  {
    "name": "Olympic Hardware Lakemba",
    "address": "31 The Boulevarde, Lakemba",
    "suburb": "Bankstown",
    "state": "NSW",
    "lat": -33.9199837,
    "lng": 151.0779683,
    "place_id": "ChIJc9nV5ca7EmsREcB2hf9ryNk",
    "maps_url": "https://www.google.com/maps/place/?q=place_id:ChIJc9nV5ca7EmsREcB2hf9ryNk",
    "rating": 4.4,
    "total_ratings": 33
  },
  {
    "name": "W & W Hardware",
    "address": "44 Stanley St, Peakhurst",
    "suburb": "Bankstown",
    "state": "NSW",
    "lat": -33.9619378,
    "lng": 151.0624918,
    "place_id": "ChIJId5OCRu5EmsRJo5rCEX1V6Y",
    "maps_url": "https://www.google.com/maps/place/?q=place_id:ChIJId5OCRu5EmsRJo5rCEX1V6Y",
    "rating": 4.2,
    "total_ratings": 13
  },
  {
    "name": "Omni Building & Hardware Supply",
    "address": "51 Cosgrove Rd, Strathfield South",
    "suburb": "Bankstown",
    "state": "NSW",
    "lat": -33.8913331,
    "lng": 151.072587,
    "place_id": "ChIJCd4ibQu7EmsRdlMAM3evCtQ",
    "maps_url": "https://www.google.com/maps/place/?q=place_id:ChIJCd4ibQu7EmsRdlMAM3evCtQ",
    "rating": null,
    "total_ratings": 0
  },
  {
    "name": "shenglitools",
    "address": "Unit 1/295 Beamish St, Campsie",
    "suburb": "Bankstown",
    "state": "NSW",
    "lat": -33.9131524,
    "lng": 151.1042883,
    "place_id": "ChIJNWVXULC7EmsRhJRuUfGBOls",
    "maps_url": "https://www.google.com/maps/place/?q=place_id:ChIJNWVXULC7EmsRhJRuUfGBOls",
    "rating": 5,
    "total_ratings": 9
  },
  {
    "name": "Australia Technology Solutions",
    "address": "Unit 6/34 Benaroon Rd, Lakemba",
    "suburb": "Bankstown",
    "state": "NSW",
    "lat": -33.9143614,
    "lng": 151.0799406,
    "place_id": "ChIJFUi8puu7EmsR51cBkdEUTzk",
    "maps_url": "https://www.google.com/maps/place/?q=place_id:ChIJFUi8puu7EmsR51cBkdEUTzk",
    "rating": 4,
    "total_ratings": 2
  },
  {
    "name": "Sydney Tools Roselands",
    "address": "102-104 Bonds Rd, Riverwood",
    "suburb": "Bankstown",
    "state": "NSW",
    "lat": -33.9384366,
    "lng": 151.0622777,
    "place_id": "ChIJgcV71Fu5EmsRyvZ84CyYWk0",
    "maps_url": "https://www.google.com/maps/place/?q=place_id:ChIJgcV71Fu5EmsRyvZ84CyYWk0",
    "rating": 3.5,
    "total_ratings": 313
  },
  {
    "name": "Radiant Supplies",
    "address": "Unit 17/46 Wellington Rd, South Granville",
    "suburb": "Bankstown",
    "state": "NSW",
    "lat": -33.8633971,
    "lng": 151.01139,
    "place_id": "ChIJTRJ_TA69EmsRWz8H7o3vRV4",
    "maps_url": "https://www.google.com/maps/place/?q=place_id:ChIJTRJ_TA69EmsRWz8H7o3vRV4",
    "rating": 5,
    "total_ratings": 2
  },
  {
    "name": "AGM Electrical Supplies Pty Ltd",
    "address": "Unit 3/52-54 Parramatta Rd, Croydon",
    "suburb": "Bankstown",
    "state": "NSW",
    "lat": -33.8708754,
    "lng": 151.1164829,
    "place_id": "ChIJrf6CAsq6EmsR5L0QUp4Vv00",
    "maps_url": "https://www.google.com/maps/place/?q=place_id:ChIJrf6CAsq6EmsR5L0QUp4Vv00",
    "rating": 4.2,
    "total_ratings": 201
  },
  {
    "name": "SYDNEY TIMBER AND HARDWARE",
    "address": "71 Canterbury Rd, Bankstown",
    "suburb": "Bankstown",
    "state": "NSW",
    "lat": -33.9339924,
    "lng": 151.0380244,
    "place_id": "ChIJCcQVcY6_EmsRycy62DZJmp0",
    "maps_url": "https://www.google.com/maps/place/?q=place_id:ChIJCcQVcY6_EmsRycy62DZJmp0",
    "rating": 4.4,
    "total_ratings": 7
  },
  {
    "name": "Hardware & General Peakhurst",
    "address": "107-109 Boundary Rd, Peakhurst",
    "suburb": "Bankstown",
    "state": "NSW",
    "lat": -33.96239360000001,
    "lng": 151.0667154,
    "place_id": "ChIJI48lVzy5EmsRcJmpKNu28jY",
    "maps_url": "https://www.google.com/maps/place/?q=place_id:ChIJI48lVzy5EmsRcJmpKNu28jY",
    "rating": 4.4,
    "total_ratings": 57
  },
  {
    "name": "Budget Supermarket and Tobacconist",
    "address": "61 McKern St, Campsie",
    "suburb": "Bankstown",
    "state": "NSW",
    "lat": -33.9174559,
    "lng": 151.098272,
    "place_id": "ChIJS0-L9Eu6EmsRsdJouRRsv3k",
    "maps_url": "https://www.google.com/maps/place/?q=place_id:ChIJS0-L9Eu6EmsRsdJouRRsv3k",
    "rating": 4.5,
    "total_ratings": 25
  },
  {
    "name": "Auspak tools",
    "address": "47-49 Carlingford St, Sefton",
    "suburb": "Bankstown",
    "state": "NSW",
    "lat": -33.8854373,
    "lng": 151.0158803,
    "place_id": "ChIJBRiAb1m8EmsRVlnBqfrhREk",
    "maps_url": "https://www.google.com/maps/place/?q=place_id:ChIJBRiAb1m8EmsRVlnBqfrhREk",
    "rating": 4.8,
    "total_ratings": 55
  },
  {
    "name": "Bunnings Rockdale",
    "address": "383 W Botany St, Rockdale",
    "suburb": "Hurstville",
    "state": "NSW",
    "lat": -33.957937,
    "lng": 151.1448844,
    "place_id": "ChIJky_Th1O3EmsRLAPIVhJT-YI",
    "maps_url": "https://www.google.com/maps/place/?q=place_id:ChIJky_Th1O3EmsRLAPIVhJT-YI",
    "rating": 4.1,
    "total_ratings": 2214
  },
  {
    "name": "Bunnings Kirrawee",
    "address": "127-141 Bath Rd, Kirrawee",
    "suburb": "Hurstville",
    "state": "NSW",
    "lat": -34.0303653,
    "lng": 151.075183,
    "place_id": "ChIJeZKUNW_HEmsRNHqRtRJ6YGs",
    "maps_url": "https://www.google.com/maps/place/?q=place_id:ChIJeZKUNW_HEmsRNHqRtRJ6YGs",
    "rating": 4.3,
    "total_ratings": 1855
  },
  {
    "name": "Bunnings Caringbah",
    "address": "Koonya Cct, Caringbah",
    "suburb": "Hurstville",
    "state": "NSW",
    "lat": -34.0279907,
    "lng": 151.1220345,
    "place_id": "ChIJ_cQCtQu4EmsR2us1Kl5JHSY",
    "maps_url": "https://www.google.com/maps/place/?q=place_id:ChIJ_cQCtQu4EmsR2us1Kl5JHSY",
    "rating": 4.3,
    "total_ratings": 1562
  },
  {
    "name": "Hudson Mitre 10 Trade Centre Kirrawee",
    "address": "558 Princes Hwy, Kirrawee",
    "suburb": "Hurstville",
    "state": "NSW",
    "lat": -34.0326663,
    "lng": 151.0745871,
    "place_id": "ChIJBwLGa2nHEmsRHaEiSl3TgGY",
    "maps_url": "https://www.google.com/maps/place/?q=place_id:ChIJBwLGa2nHEmsRHaEiSl3TgGY",
    "rating": 3.7,
    "total_ratings": 23
  },
  {
    "name": "Sydney Tools Kirrawee",
    "address": "Unit 1/35/39 Waratah St, Kirrawee",
    "suburb": "Hurstville",
    "state": "NSW",
    "lat": -34.0288828,
    "lng": 151.0774381,
    "place_id": "ChIJTa7e0u3HEmsRavezeRANa70",
    "maps_url": "https://www.google.com/maps/place/?q=place_id:ChIJTa7e0u3HEmsRavezeRANa70",
    "rating": 4.3,
    "total_ratings": 67
  },
  {
    "name": "Sydney Tools Taren Point",
    "address": "Unit 1/131-139 Taren Point Rd, Taren Point",
    "suburb": "Hurstville",
    "state": "NSW",
    "lat": -34.0208201,
    "lng": 151.1207036,
    "place_id": "ChIJO_FGngu4EmsRav2lQfDXyyg",
    "maps_url": "https://www.google.com/maps/place/?q=place_id:ChIJO_FGngu4EmsRav2lQfDXyyg",
    "rating": 4.3,
    "total_ratings": 286
  },
  {
    "name": "Goldilocks Decorative Hardware",
    "address": "58 Box Rd, Taren Point",
    "suburb": "Hurstville",
    "state": "NSW",
    "lat": -34.0250156,
    "lng": 151.1191826,
    "place_id": "ChIJJ_nPZAu4EmsRZcM8Gw7-cMc",
    "maps_url": "https://www.google.com/maps/place/?q=place_id:ChIJJ_nPZAu4EmsRZcM8Gw7-cMc",
    "rating": 5,
    "total_ratings": 1
  },
  {
    "name": "A'besco Architectural Hardware",
    "address": "49 Captain Cook Dr, Caringbah",
    "suburb": "Cronulla",
    "state": "NSW",
    "lat": -34.0323998,
    "lng": 151.1262778,
    "place_id": "ChIJZwGNqwPHEmsRfxbOFObRLA8",
    "maps_url": "https://www.google.com/maps/place/?q=place_id:ChIJZwGNqwPHEmsRfxbOFObRLA8",
    "rating": 5,
    "total_ratings": 1
  },
  {
    "name": "North Shore Timber & Hardware - Miranda",
    "address": "120 Parraweena Rd, Miranda",
    "suburb": "Cronulla",
    "state": "NSW",
    "lat": -34.027136,
    "lng": 151.117511,
    "place_id": "ChIJU9_y0w24EmsRmmfjX29g2CE",
    "maps_url": "https://www.google.com/maps/place/?q=place_id:ChIJU9_y0w24EmsRmmfjX29g2CE",
    "rating": 5,
    "total_ratings": 18
  },
  {
    "name": "Total Tools Taren Point",
    "address": "Unit 130/132 Taren Point Rd, Taren Point",
    "suburb": "Cronulla",
    "state": "NSW",
    "lat": -34.0219341,
    "lng": 151.1217133,
    "place_id": "ChIJY0fzxw24EmsRL_QwDJHm2iQ",
    "maps_url": "https://www.google.com/maps/place/?q=place_id:ChIJY0fzxw24EmsRL_QwDJHm2iQ",
    "rating": 4.5,
    "total_ratings": 250
  },
  {
    "name": "Tradestore",
    "address": "39 Cawarra Rd, Caringbah",
    "suburb": "Cronulla",
    "state": "NSW",
    "lat": -34.0285506,
    "lng": 151.1260601,
    "place_id": "ChIJpUWS_Qi4EmsR4vTwVmGaWjg",
    "maps_url": "https://www.google.com/maps/place/?q=place_id:ChIJpUWS_Qi4EmsR4vTwVmGaWjg",
    "rating": 4,
    "total_ratings": 4
  },
  {
    "name": "Cutting Tools Australia",
    "address": "Building A Loading Dock, 31 Monro Ave, Kirrawee",
    "suburb": "Cronulla",
    "state": "NSW",
    "lat": -34.0304313,
    "lng": 151.0734199,
    "place_id": "ChIJu-OnWWbHEmsRQSILyFwbYmA",
    "maps_url": "https://www.google.com/maps/place/?q=place_id:ChIJu-OnWWbHEmsRQSILyFwbYmA",
    "rating": null,
    "total_ratings": 0
  },
  {
    "name": "RKM Electrical Supplies",
    "address": "3/155 Taren Point Rd, Caringbah",
    "suburb": "Cronulla",
    "state": "NSW",
    "lat": -34.02519270000001,
    "lng": 151.120375,
    "place_id": "ChIJX_DmIgC5EmsRCAn2G51OD7s",
    "maps_url": "https://www.google.com/maps/place/?q=place_id:ChIJX_DmIgC5EmsRCAn2G51OD7s",
    "rating": 5,
    "total_ratings": 1
  },
  {
    "name": "Andrew's Fasteners & Engineering Supplies",
    "address": "65 Cawarra Rd, Caringbah",
    "suburb": "Cronulla",
    "state": "NSW",
    "lat": -34.030346,
    "lng": 151.125545,
    "place_id": "ChIJbZWjywm4EmsRZGupIV-tkoU",
    "maps_url": "https://www.google.com/maps/place/?q=place_id:ChIJbZWjywm4EmsRZGupIV-tkoU",
    "rating": 4.3,
    "total_ratings": 47
  },
  {
    "name": "Tilers Online",
    "address": "14 Parraweena Rd, Caringbah",
    "suburb": "Cronulla",
    "state": "NSW",
    "lat": -34.026795,
    "lng": 151.1292386,
    "place_id": "ChIJdyZIJjO5EmsRktLmmc2uHg0",
    "maps_url": "https://www.google.com/maps/place/?q=place_id:ChIJdyZIJjO5EmsRktLmmc2uHg0",
    "rating": null,
    "total_ratings": 0
  },
  {
    "name": "Bunnings Eastgardens",
    "address": "140-148 Denison St, Hillsdale",
    "suburb": "Bondi",
    "state": "NSW",
    "lat": -33.9491679,
    "lng": 151.2247949,
    "place_id": "ChIJ_fdk3GWxEmsRcKTayqA6KXk",
    "maps_url": "https://www.google.com/maps/place/?q=place_id:ChIJ_fdk3GWxEmsRcKTayqA6KXk",
    "rating": 4.4,
    "total_ratings": 1940
  },
  {
    "name": "Botany Timber & Hardware",
    "address": "1383 Botany Rd, Botany",
    "suburb": "Bondi",
    "state": "NSW",
    "lat": -33.9435595,
    "lng": 151.1960723,
    "place_id": "ChIJU71eoRmxEmsRd4LKC1Rc574",
    "maps_url": "https://www.google.com/maps/place/?q=place_id:ChIJU71eoRmxEmsRd4LKC1Rc574",
    "rating": 4.1,
    "total_ratings": 19
  },
  {
    "name": "J James & Co",
    "address": "Shop 1/260 Bronte Rd, Waverley",
    "suburb": "Bondi",
    "state": "NSW",
    "lat": -33.9007235,
    "lng": 151.254126,
    "place_id": "ChIJBwA8fgqyEmsRfluYG_0xlS8",
    "maps_url": "https://www.google.com/maps/place/?q=place_id:ChIJBwA8fgqyEmsRfluYG_0xlS8",
    "rating": 4.7,
    "total_ratings": 40
  },
  {
    "name": "Oxford Pure Discount",
    "address": "33 Oxford St, Surry Hills",
    "suburb": "Bondi",
    "state": "NSW",
    "lat": -33.8777156,
    "lng": 151.2131227,
    "place_id": "ChIJzTfeABeuEmsRz-woBv8gNxg",
    "maps_url": "https://www.google.com/maps/place/?q=place_id:ChIJzTfeABeuEmsRz-woBv8gNxg",
    "rating": 2.9,
    "total_ratings": 33
  },
  {
    "name": "cinto y anillos",
    "address": "31 Dixon St, Haymarket",
    "suburb": "Bondi",
    "state": "NSW",
    "lat": -33.8781026,
    "lng": 151.2038315,
    "place_id": "ChIJx9nyUACvEmsRi_f6IhGJ_Qo",
    "maps_url": "https://www.google.com/maps/place/?q=place_id:ChIJx9nyUACvEmsRi_f6IhGJ_Qo",
    "rating": null,
    "total_ratings": 0
  },
  {
    "name": "Elizabeth Bay Deli",
    "address": "Shop 33/76 Elizabeth Bay Rd, Elizabeth Bay",
    "suburb": "Bondi",
    "state": "NSW",
    "lat": -33.872153,
    "lng": 151.2288306,
    "place_id": "ChIJjaKAIDOvEmsR8V_rKig3gCw",
    "maps_url": "https://www.google.com/maps/place/?q=place_id:ChIJjaKAIDOvEmsR8V_rKig3gCw",
    "rating": 4.5,
    "total_ratings": 8
  },
  {
    "name": "IT Shopping",
    "address": "438 Anzac Parade, Kingsford",
    "suburb": "Bondi",
    "state": "NSW",
    "lat": -33.9217399,
    "lng": 151.2270539,
    "place_id": "ChIJd07K_xuyEmsRi3yXZig0EQg",
    "maps_url": "https://www.google.com/maps/place/?q=place_id:ChIJd07K_xuyEmsRi3yXZig0EQg",
    "rating": 4.7,
    "total_ratings": 44
  },
  {
    "name": "North Shore Timber & Hardware - Eastgardens",
    "address": "6 Jullian Cl, Banksmeadow",
    "suburb": "Bondi",
    "state": "NSW",
    "lat": -33.9487327,
    "lng": 151.2227343,
    "place_id": "ChIJqx-oo-exEmsRF5WIm9o2aXs",
    "maps_url": "https://www.google.com/maps/place/?q=place_id:ChIJqx-oo-exEmsRF5WIm9o2aXs",
    "rating": 3.7,
    "total_ratings": 18
  },
  {
    "name": "MSY - Ultimo",
    "address": "60a/558 Jones St, Ultimo",
    "suburb": "Bondi",
    "state": "NSW",
    "lat": -33.8810031,
    "lng": 151.1985334,
    "place_id": "ChIJPclRVS-uEmsRCoXn2mNV0ug",
    "maps_url": "https://www.google.com/maps/place/?q=place_id:ChIJPclRVS-uEmsRCoXn2mNV0ug",
    "rating": 4.1,
    "total_ratings": 869
  },
  {
    "name": "Auto",
    "address": "49 Warners Ave, Bondi Beach",
    "suburb": "Bondi",
    "state": "NSW",
    "lat": -33.8866695,
    "lng": 151.274839,
    "place_id": "ChIJX5vwAQCtEmsR7dJJEkvIpfw",
    "maps_url": "https://www.google.com/maps/place/?q=place_id:ChIJX5vwAQCtEmsR7dJJEkvIpfw",
    "rating": null,
    "total_ratings": 0
  },
  {
    "name": "Mother of Pearl & Sons Trading",
    "address": "suite 5/24/30 Wellington St, Waterloo",
    "suburb": "Bondi",
    "state": "NSW",
    "lat": -33.8987131,
    "lng": 151.2073073,
    "place_id": "ChIJHVyqgt2xEmsRqSiiz2GWjnk",
    "maps_url": "https://www.google.com/maps/place/?q=place_id:ChIJHVyqgt2xEmsRqSiiz2GWjnk",
    "rating": 4,
    "total_ratings": 36
  },
  {
    "name": "Cobbler Caballero",
    "address": "29 Darlinghurst Rd, Potts Point",
    "suburb": "Bondi",
    "state": "NSW",
    "lat": -33.8732837,
    "lng": 151.2241435,
    "place_id": "ChIJm3SrOg2uEmsRjU_4095mqKY",
    "maps_url": "https://www.google.com/maps/place/?q=place_id:ChIJm3SrOg2uEmsRjU_4095mqKY",
    "rating": 4.2,
    "total_ratings": 135
  },
  {
    "name": "Electrical Wholesaler Australia",
    "address": "3/52-54 Parramatta Rd, Croydon",
    "suburb": "Newtown",
    "state": "NSW",
    "lat": -33.8708291,
    "lng": 151.116543,
    "place_id": "ChIJeTIA-cm6EmsRmNuMt9JLWz8",
    "maps_url": "https://www.google.com/maps/place/?q=place_id:ChIJeTIA-cm6EmsRmNuMt9JLWz8",
    "rating": 5,
    "total_ratings": 3
  },
  {
    "name": "Bunnings Support Office NSW",
    "address": "Level 8/5 Rider Blvd, Rhodes",
    "suburb": "Burwood",
    "state": "NSW",
    "lat": -33.8324892,
    "lng": 151.0861616,
    "place_id": "ChIJBTDwIUajEmsRcgCyrZB-j8Y",
    "maps_url": "https://www.google.com/maps/place/?q=place_id:ChIJBTDwIUajEmsRcgCyrZB-j8Y",
    "rating": 2.6,
    "total_ratings": 84
  },
  {
    "name": "Fenix Store Australia",
    "address": "23 Antoine St, Rydalmere",
    "suburb": "Baulkham Hills",
    "state": "NSW",
    "lat": -33.8162792,
    "lng": 151.0430606,
    "place_id": "ChIJjTJC5t2jEmsR-FdKXhf9VA8",
    "maps_url": "https://www.google.com/maps/place/?q=place_id:ChIJjTJC5t2jEmsR-FdKXhf9VA8",
    "rating": 4.9,
    "total_ratings": 8
  },
  {
    "name": "Bunnings Kotara",
    "address": "30 Northcott Dr, Kotara",
    "suburb": "Newcastle CBD",
    "state": "NSW",
    "lat": -32.9392458,
    "lng": 151.7101025,
    "place_id": "ChIJw3MDivwVc2sRIcEX0XmoszQ",
    "maps_url": "https://www.google.com/maps/place/?q=place_id:ChIJw3MDivwVc2sRIcEX0XmoszQ",
    "rating": 4.2,
    "total_ratings": 1564
  },
  {
    "name": "Hunter Hardware Centre",
    "address": "15 Mitchell St, Stockton",
    "suburb": "Newcastle CBD",
    "state": "NSW",
    "lat": -32.9174611,
    "lng": 151.7835281,
    "place_id": "ChIJ8wzhM4YUc2sR9Ru1cHZ7arw",
    "maps_url": "https://www.google.com/maps/place/?q=place_id:ChIJ8wzhM4YUc2sR9Ru1cHZ7arw",
    "rating": 4.3,
    "total_ratings": 52
  },
  {
    "name": "Newcastle Home Timber & Hardware",
    "address": "83 Lambton Rd, Broadmeadow",
    "suburb": "Newcastle CBD",
    "state": "NSW",
    "lat": -32.9245716,
    "lng": 151.7305593,
    "place_id": "ChIJy7Sj_aQVc2sRfaLyMNGd1Lo",
    "maps_url": "https://www.google.com/maps/place/?q=place_id:ChIJy7Sj_aQVc2sRfaLyMNGd1Lo",
    "rating": 4.4,
    "total_ratings": 56
  },
  {
    "name": "Mayfield Super Save",
    "address": "129b Maitland Rd, Mayfield",
    "suburb": "Newcastle CBD",
    "state": "NSW",
    "lat": -32.8986341,
    "lng": 151.7384913,
    "place_id": "ChIJzdg2KBsVc2sRmCbFspm-fFo",
    "maps_url": "https://www.google.com/maps/place/?q=place_id:ChIJzdg2KBsVc2sRmCbFspm-fFo",
    "rating": 3.6,
    "total_ratings": 17
  },
  {
    "name": "Saddingtons Building Supplies",
    "address": "75 Lambton Rd, Broadmeadow",
    "suburb": "Newcastle CBD",
    "state": "NSW",
    "lat": -32.9244273,
    "lng": 151.7308014,
    "place_id": "ChIJ77j04TMVc2sRVXujFcRn5xE",
    "maps_url": "https://www.google.com/maps/place/?q=place_id:ChIJ77j04TMVc2sRVXujFcRn5xE",
    "rating": 3.8,
    "total_ratings": 70
  },
  {
    "name": "Specfast Lambton",
    "address": "30 Verulam Rd, Lambton",
    "suburb": "Newcastle CBD",
    "state": "NSW",
    "lat": -32.9110674,
    "lng": 151.7158035,
    "place_id": "ChIJD4Zar5sVc2sRgayUeTB8rRc",
    "maps_url": "https://www.google.com/maps/place/?q=place_id:ChIJD4Zar5sVc2sRgayUeTB8rRc",
    "rating": 4,
    "total_ratings": 44
  },
  {
    "name": "Sydney Tools Kotara (Newcastle)",
    "address": "47 Northcott Dr, Kotara",
    "suburb": "Newcastle CBD",
    "state": "NSW",
    "lat": -32.9391397,
    "lng": 151.7127621,
    "place_id": "ChIJ61-4ifwVc2sRl2hWpAngjHk",
    "maps_url": "https://www.google.com/maps/place/?q=place_id:ChIJ61-4ifwVc2sRl2hWpAngjHk",
    "rating": 4.3,
    "total_ratings": 301
  },
  {
    "name": "NHS Newcastle",
    "address": "30 Wyong Rd, Lambton",
    "suburb": "Newcastle CBD",
    "state": "NSW",
    "lat": -32.9148993,
    "lng": 151.7213769,
    "place_id": "ChIJdfWMLJgVc2sRHAz1VnpDAvY",
    "maps_url": "https://www.google.com/maps/place/?q=place_id:ChIJdfWMLJgVc2sRHAz1VnpDAvY",
    "rating": 4.9,
    "total_ratings": 75
  },
  {
    "name": "East Coast Door Hardware",
    "address": "42 Ashford Parade, Merewether Heights",
    "suburb": "Newcastle CBD",
    "state": "NSW",
    "lat": -32.9490819,
    "lng": 151.731418,
    "place_id": "ChIJjVm8DVMVc2sR1cexA1PRsuw",
    "maps_url": "https://www.google.com/maps/place/?q=place_id:ChIJjVm8DVMVc2sR1cexA1PRsuw",
    "rating": 5,
    "total_ratings": 4
  },
  {
    "name": "Wholesale Superstore",
    "address": "23 Clyde St, Islington",
    "suburb": "Newcastle CBD",
    "state": "NSW",
    "lat": -32.9108085,
    "lng": 151.7419738,
    "place_id": "ChIJwTpJAqoVc2sR6PeAloeLI94",
    "maps_url": "https://www.google.com/maps/place/?q=place_id:ChIJwTpJAqoVc2sR6PeAloeLI94",
    "rating": 4.6,
    "total_ratings": 517
  },
  {
    "name": "GalnGuy",
    "address": "26 Robert St, Jesmond",
    "suburb": "Newcastle CBD",
    "state": "NSW",
    "lat": -32.9061527,
    "lng": 151.6959914,
    "place_id": "ChIJx9D466kVc2sRY0Uc49-KVoI",
    "maps_url": "https://www.google.com/maps/place/?q=place_id:ChIJx9D466kVc2sRY0Uc49-KVoI",
    "rating": 5,
    "total_ratings": 1
  },
  {
    "name": "Gasweld Tools",
    "address": "49 Griffiths Rd, Lambton",
    "suburb": "Newcastle CBD",
    "state": "NSW",
    "lat": -32.91392510000001,
    "lng": 151.7222137,
    "place_id": "ChIJXTdWW5gVc2sRreM88InORgQ",
    "maps_url": "https://www.google.com/maps/place/?q=place_id:ChIJXTdWW5gVc2sRreM88InORgQ",
    "rating": 3.5,
    "total_ratings": 37
  },
  {
    "name": "Total Tools Sandgate",
    "address": "53 Maitland Rd, Sandgate",
    "suburb": "Newcastle CBD",
    "state": "NSW",
    "lat": -32.874197,
    "lng": 151.7127418,
    "place_id": "ChIJUXqLNW8Vc2sR_OOv8UK2j-E",
    "maps_url": "https://www.google.com/maps/place/?q=place_id:ChIJUXqLNW8Vc2sR_OOv8UK2j-E",
    "rating": 4.5,
    "total_ratings": 152
  },
  {
    "name": "CDA Eastland Trade Supplies",
    "address": "10 Albert St, Wickham",
    "suburb": "Newcastle CBD",
    "state": "NSW",
    "lat": -32.9187425,
    "lng": 151.7572591,
    "place_id": "ChIJL3nr16QVc2sRRHQjsuXey5I",
    "maps_url": "https://www.google.com/maps/place/?q=place_id:ChIJL3nr16QVc2sRRHQjsuXey5I",
    "rating": 4.4,
    "total_ratings": 8
  },
  {
    "name": "Newcastle Hi-Tensile Bolt Company",
    "address": "3 Gipps St, Carrington",
    "suburb": "Newcastle CBD",
    "state": "NSW",
    "lat": -32.9078956,
    "lng": 151.7651127,
    "place_id": "ChIJpxD_wuMUc2sRaB9R4pfKQeg",
    "maps_url": "https://www.google.com/maps/place/?q=place_id:ChIJpxD_wuMUc2sRaB9R4pfKQeg",
    "rating": 4.7,
    "total_ratings": 103
  },
  {
    "name": "Ovesco",
    "address": "4 Channel Rd, Mayfield West",
    "suburb": "Newcastle CBD",
    "state": "NSW",
    "lat": -32.882458,
    "lng": 151.7244747,
    "place_id": "ChIJRSxCX0UVc2sRgSy6V4qvTwQ",
    "maps_url": "https://www.google.com/maps/place/?q=place_id:ChIJRSxCX0UVc2sRgSy6V4qvTwQ",
    "rating": 4.4,
    "total_ratings": 51
  },
  {
    "name": "A. J. Edden Pty Ltd",
    "address": "2 Callistemon Cl, Warabrook",
    "suburb": "Newcastle CBD",
    "state": "NSW",
    "lat": -32.8885853,
    "lng": 151.7193792,
    "place_id": "ChIJM5j1f0EVc2sR2pnsu1LwBYE",
    "maps_url": "https://www.google.com/maps/place/?q=place_id:ChIJM5j1f0EVc2sR2pnsu1LwBYE",
    "rating": 4.6,
    "total_ratings": 119
  },
  {
    "name": "Velocity Home Lifts Newcastle Showroom",
    "address": "17 Murray Dwyer Cct, Mayfield West",
    "suburb": "Newcastle CBD",
    "state": "NSW",
    "lat": -32.8846726,
    "lng": 151.726003,
    "place_id": "ChIJMbBaOL0Vc2sROqhXbecfops",
    "maps_url": "https://www.google.com/maps/place/?q=place_id:ChIJMbBaOL0Vc2sROqhXbecfops",
    "rating": null,
    "total_ratings": 0
  },
  {
    "name": "Latches Doors & Frames",
    "address": "36 Rural Dr, Sandgate",
    "suburb": "Newcastle CBD",
    "state": "NSW",
    "lat": -32.8771666,
    "lng": 151.7101672,
    "place_id": "ChIJc8BqmlwVc2sRnTk6DiRHKog",
    "maps_url": "https://www.google.com/maps/place/?q=place_id:ChIJc8BqmlwVc2sRnTk6DiRHKog",
    "rating": 5,
    "total_ratings": 7
  },
  {
    "name": "Broadmeadow Timber & Building Supplies",
    "address": "34 Jackson St, Broadmeadow",
    "suburb": "Newcastle CBD",
    "state": "NSW",
    "lat": -32.918348,
    "lng": 151.7325828,
    "place_id": "ChIJw334KrsVc2sRGnl4xyFTWxo",
    "maps_url": "https://www.google.com/maps/place/?q=place_id:ChIJw334KrsVc2sRGnl4xyFTWxo",
    "rating": 5,
    "total_ratings": 6
  },
  {
    "name": "Home Timber & Hardware",
    "address": "Pacific Hwy &, Turea St, Blacksmiths",
    "suburb": "Lake Macquarie",
    "state": "NSW",
    "lat": -33.079589,
    "lng": 151.6501499,
    "place_id": "ChIJrbv_e8wjc2sRi_Jy5fujZYs",
    "maps_url": "https://www.google.com/maps/place/?q=place_id:ChIJrbv_e8wjc2sRi_Jy5fujZYs",
    "rating": 4.6,
    "total_ratings": 101
  },
  {
    "name": "Sand-Aid Abrasives and Coatings",
    "address": "6 Sara St, Toronto",
    "suburb": "Lake Macquarie",
    "state": "NSW",
    "lat": -33.0058614,
    "lng": 151.5921387,
    "place_id": "ChIJLS61riQlc2sRGedJPOyY2VQ",
    "maps_url": "https://www.google.com/maps/place/?q=place_id:ChIJLS61riQlc2sRGedJPOyY2VQ",
    "rating": 5,
    "total_ratings": 14
  },
  {
    "name": "Bunnings Maitland",
    "address": "Cnr Bungaree St &, New England Hwy, Maitland",
    "suburb": "Maitland",
    "state": "NSW",
    "lat": -32.725282,
    "lng": 151.54119,
    "place_id": "ChIJoQMbOMNFc2sRWiUk9fH-M5w",
    "maps_url": "https://www.google.com/maps/place/?q=place_id:ChIJoQMbOMNFc2sRWiUk9fH-M5w",
    "rating": 4.3,
    "total_ratings": 1820
  },
  {
    "name": "DGW Wholesale Timber & Hardware",
    "address": "115 Main Rd, Heddon Greta",
    "suburb": "Maitland",
    "state": "NSW",
    "lat": -32.8068803,
    "lng": 151.5023583,
    "place_id": "ChIJoRL-bNZJc2sRTXNdLasIURo",
    "maps_url": "https://www.google.com/maps/place/?q=place_id:ChIJoRL-bNZJc2sRTXNdLasIURo",
    "rating": 5,
    "total_ratings": 2
  },
  {
    "name": "Hudson Mitre 10 Trade Centre Rutherford",
    "address": "51-65 Aberglasslyn Rd, Rutherford",
    "suburb": "Maitland",
    "state": "NSW",
    "lat": -32.713946,
    "lng": 151.538406,
    "place_id": "ChIJzfsZ679Fc2sRiOmoS9fvnTo",
    "maps_url": "https://www.google.com/maps/place/?q=place_id:ChIJzfsZ679Fc2sRiOmoS9fvnTo",
    "rating": 4.5,
    "total_ratings": 32
  },
  {
    "name": "Sydney Tools Rutherford",
    "address": "Building E/435 New England Hwy, Rutherford",
    "suburb": "Maitland",
    "state": "NSW",
    "lat": -32.7077925,
    "lng": 151.5053042,
    "place_id": "ChIJI3rw_F1Pc2sRXF6D39aPEw4",
    "maps_url": "https://www.google.com/maps/place/?q=place_id:ChIJI3rw_F1Pc2sRXF6D39aPEw4",
    "rating": 4.1,
    "total_ratings": 238
  },
  {
    "name": "Chtibidi",
    "address": "52 Melbourne St, East Maitland",
    "suburb": "Maitland",
    "state": "NSW",
    "lat": -32.7454512,
    "lng": 151.5838939,
    "place_id": "ChIJpX8St-dFc2sRfArDoCvY0r4",
    "maps_url": "https://www.google.com/maps/place/?q=place_id:ChIJpX8St-dFc2sRfArDoCvY0r4",
    "rating": null,
    "total_ratings": 0
  },
  {
    "name": "Stratco Thornton",
    "address": "2A Hartley Dr, Thornton",
    "suburb": "Maitland",
    "state": "NSW",
    "lat": -32.7907807,
    "lng": 151.6376432,
    "place_id": "ChIJR2EwoxBBc2sR3ffoq3HnPJA",
    "maps_url": "https://www.google.com/maps/place/?q=place_id:ChIJR2EwoxBBc2sR3ffoq3HnPJA",
    "rating": 3.6,
    "total_ratings": 281
  },
  {
    "name": "Total Tools Rutherford",
    "address": "Homemaker Centre, Building B/366 New England Hwy, Rutherford",
    "suburb": "Maitland",
    "state": "NSW",
    "lat": -32.708208,
    "lng": 151.508861,
    "place_id": "ChIJE4q39q9Pc2sRJotUdVks-48",
    "maps_url": "https://www.google.com/maps/place/?q=place_id:ChIJE4q39q9Pc2sRJotUdVks-48",
    "rating": 4.9,
    "total_ratings": 44
  },
  {
    "name": "Saddingtons Building Supplies",
    "address": "43 Racecourse Rd, Rutherford",
    "suburb": "Maitland",
    "state": "NSW",
    "lat": -32.7136887,
    "lng": 151.5157706,
    "place_id": "ChIJbw5qY_NFc2sR65FDxXldfhY",
    "maps_url": "https://www.google.com/maps/place/?q=place_id:ChIJbw5qY_NFc2sR65FDxXldfhY",
    "rating": 4.1,
    "total_ratings": 40
  },
  {
    "name": "Rocket Tools",
    "address": "65 Elwell Cl, Beresfield",
    "suburb": "Maitland",
    "state": "NSW",
    "lat": -32.8042869,
    "lng": 151.6283264,
    "place_id": "ChIJcRY03xdBc2sRJ9HMloOqr_c",
    "maps_url": "https://www.google.com/maps/place/?q=place_id:ChIJcRY03xdBc2sRJ9HMloOqr_c",
    "rating": 4.8,
    "total_ratings": 26
  },
  {
    "name": "Sullivans Mining & Industrial Rutherford",
    "address": "24 Racecourse Rd, Rutherford",
    "suburb": "Maitland",
    "state": "NSW",
    "lat": -32.712035,
    "lng": 151.5151712,
    "place_id": "ChIJzc977rFFc2sRRXAb16lroqM",
    "maps_url": "https://www.google.com/maps/place/?q=place_id:ChIJzc977rFFc2sRRXAb16lroqM",
    "rating": null,
    "total_ratings": 0
  },
  {
    "name": "Hunter Joinery Group",
    "address": "76 Enterprise Dr, Beresfield",
    "suburb": "Maitland",
    "state": "NSW",
    "lat": -32.8048221,
    "lng": 151.6385371,
    "place_id": "ChIJ5askL-VAc2sRRkkuSLkAuMU",
    "maps_url": "https://www.google.com/maps/place/?q=place_id:ChIJ5askL-VAc2sRRkkuSLkAuMU",
    "rating": 4.5,
    "total_ratings": 36
  },
  {
    "name": "Valley Fasteners Rutherford",
    "address": "44 Mustang Dr, Rutherford",
    "suburb": "Maitland",
    "state": "NSW",
    "lat": -32.7057956,
    "lng": 151.5031775,
    "place_id": "ChIJ31tfjGdPc2sR7jm-M1jUrTE",
    "maps_url": "https://www.google.com/maps/place/?q=place_id:ChIJ31tfjGdPc2sR7jm-M1jUrTE",
    "rating": 4.9,
    "total_ratings": 9
  },
  {
    "name": "Connect Hygiene Services",
    "address": "16 Huntingdale Dr, Thornton",
    "suburb": "Maitland",
    "state": "NSW",
    "lat": -32.7853707,
    "lng": 151.6365128,
    "place_id": "ChIJVVUF-RNBc2sRWQINdaf4k6o",
    "maps_url": "https://www.google.com/maps/place/?q=place_id:ChIJVVUF-RNBc2sRWQINdaf4k6o",
    "rating": null,
    "total_ratings": 0
  },
  {
    "name": "Bunnings Bellambi",
    "address": "Cnr Bellambi Ln &, Watts Ln, Bellambi",
    "suburb": "Wollongong",
    "state": "NSW",
    "lat": -34.361548,
    "lng": 150.9096286,
    "place_id": "ChIJ1WsP-R8fE2sRPIX_DWczYwU",
    "maps_url": "https://www.google.com/maps/place/?q=place_id:ChIJ1WsP-R8fE2sRPIX_DWczYwU",
    "rating": 4.4,
    "total_ratings": 1246
  },
  {
    "name": "Bunnings Kembla Grange",
    "address": "640 Northcliffe Dr, Kembla Grange",
    "suburb": "Wollongong",
    "state": "NSW",
    "lat": -34.4699859,
    "lng": 150.8284454,
    "place_id": "ChIJySU-tRcXE2sRanPHqMpFzBU",
    "maps_url": "https://www.google.com/maps/place/?q=place_id:ChIJySU-tRcXE2sRanPHqMpFzBU",
    "rating": 4.3,
    "total_ratings": 1773
  },
  {
    "name": "Sydney Tools Wollongong",
    "address": "63 Flinders St, Wollongong",
    "suburb": "Wollongong",
    "state": "NSW",
    "lat": -34.4200414,
    "lng": 150.893059,
    "place_id": "ChIJHebyet0ZE2sRiXuSmpQCd60",
    "maps_url": "https://www.google.com/maps/place/?q=place_id:ChIJHebyet0ZE2sRiXuSmpQCd60",
    "rating": 4.2,
    "total_ratings": 128
  },
  {
    "name": "The Hardware Man",
    "address": "53-57 Princes Hwy, Unanderra",
    "suburb": "Wollongong",
    "state": "NSW",
    "lat": -34.4515713,
    "lng": 150.8481761,
    "place_id": "ChIJUaPHOaYQE2sRP-hD5ygRKAU",
    "maps_url": "https://www.google.com/maps/place/?q=place_id:ChIJUaPHOaYQE2sRP-hD5ygRKAU",
    "rating": 4.6,
    "total_ratings": 74
  },