[
  {
    "name": "Planet Juice",
    "address": "10/109 Pitt St, Sydney NSW 2000, Australia",
    "suburb": "Sydney NSW 2000",
    "state": "NSW",
    "rating": 5,
    "reviews": 116,
    "lat": -33.8662303,
    "lng": 151.2081952,
    "place_id": "ChIJxSIy3JmvEmsR_1CBsuyVf00",
    "maps_url": "https://www.google.com/maps/place/?q=place_id:ChIJxSIy3JmvEmsR_1CBsuyVf00"
  },
  {
    "name": "The Smoothie Co.",
    "address": "Shop 4B/50 Macleay St, Potts Point NSW 2011, Australia",
    "suburb": "Potts Point NSW 2011",
    "state": "NSW",
    "rating": 4.9,
    "reviews": 153,
    "lat": -33.8719081,
    "lng": 151.225206,
    "place_id": "ChIJD_F1LI6vEmsRcQLe-VaPOhw",
    "maps_url": "https://www.google.com/maps/place/?q=place_id:ChIJD_F1LI6vEmsRcQLe-VaPOhw"
  },
  {
    "name": "Auburn Fresh Juice Centre",
    "address": "9 Auburn Rd, Auburn NSW 2144, Australia",
    "suburb": "Auburn NSW 2144",
    "state": "NSW",
    "rating": 4.3,
    "reviews": 793,
    "lat": -33.8503714,
    "lng": 151.0328756,
    "place_id": "ChIJkUy_nrG8EmsRVE28nVZtaaM",
    "maps_url": "https://www.google.com/maps/place/?q=place_id:ChIJkUy_nrG8EmsRVE28nVZtaaM"
  },
  {
    "name": "Juice Land Sydney",
    "address": "14/358 Burwood Rd, Belmore NSW 2192, Australia",
    "suburb": "Belmore NSW 2192",
    "state": "NSW",
    "rating": 4.7,
    "reviews": 102,
    "lat": -33.9178615,
    "lng": 151.0882379,
    "place_id": "ChIJoasGb7C7EmsRxrNgUy3HUNg",
    "maps_url": "https://www.google.com/maps/place/?q=place_id:ChIJoasGb7C7EmsRxrNgUy3HUNg"
  },
  {
    "name": "Coconature",
    "address": "Central Plaza, Kiosk 1/450 George St, Sydney NSW 2000, Australia",
    "suburb": "Kiosk 1/450 George St",
    "state": "NSW",
    "rating": 4.4,
    "reviews": 425,
    "lat": -33.8704454,
    "lng": 151.2075254,
    "place_id": "ChIJIdK3SACvEmsR2GhZqXg4Qco",
    "maps_url": "https://www.google.com/maps/place/?q=place_id:ChIJIdK3SACvEmsR2GhZqXg4Qco"
  },
  {
    "name": "Habibi Juice",
    "address": "6 Sunnyholt Rd, Blacktown NSW 2148, Australia",
    "suburb": "Blacktown NSW 2148",
    "state": "NSW",
    "rating": 4.5,
    "reviews": 640,
    "lat": -33.7688709,
    "lng": 150.9120111,
    "place_id": "ChIJ8yeW5teZEmsRzPy12z3V3z0",
    "maps_url": "https://www.google.com/maps/place/?q=place_id:ChIJ8yeW5teZEmsRzPy12z3V3z0"
  },
  {
    "name": "Juiced Up Nutrition",
    "address": "Unit 1/361 Homer St, Earlwood NSW 2206, Australia",
    "suburb": "Earlwood NSW 2206",
    "state": "NSW",
    "rating": 4.7,
    "reviews": 109,
    "lat": -33.926834,
    "lng": 151.1245955,
    "place_id": "ChIJ_ULb1KixEmsR7NJ2yCIX_zk",
    "maps_url": "https://www.google.com/maps/place/?q=place_id:ChIJ_ULb1KixEmsR7NJ2yCIX_zk"
  },
  {
    "name": "Top Juice",
    "address": "25 Martin Place Centre Level 6 Shop 6K1, 19/29 Martin Pl, Sydney NSW 2000, Australia",
    "suburb": "19/29 Martin Pl",
    "state": "NSW",
    "rating": 3.7,
    "reviews": 57,
    "lat": -33.8682869,
    "lng": 151.209432,
    "place_id": "ChIJde6PGkCuEmsRPyllEMJkQxU",
    "maps_url": "https://www.google.com/maps/place/?q=place_id:ChIJde6PGkCuEmsRPyllEMJkQxU"
  },
  {
    "name": "Blend Cocktails",
    "address": "42 Memorial Ave, Liverpool NSW 2170, Australia",
    "suburb": "Liverpool NSW 2170",
    "state": "NSW",
    "rating": 4.1,
    "reviews": 426,
    "lat": -33.9248225,
    "lng": 150.9214282,
    "place_id": "ChIJ-a0HULqVEmsRV8XICfaISpg",
    "maps_url": "https://www.google.com/maps/place/?q=place_id:ChIJ-a0HULqVEmsRV8XICfaISpg"
  },
  {
    "name": "Coalesce Juice Bar & Acai",
    "address": "1/118-124 Willoughby Rd, Crows Nest NSW 2065, Australia",
    "suburb": "Crows Nest NSW 2065",
    "state": "NSW",
    "rating": 4.6,
    "reviews": 41,
    "lat": -33.8242841,
    "lng": 151.2006511,
    "place_id": "ChIJsVTNSa2vEmsR0UFyjRg2Tvc",
    "maps_url": "https://www.google.com/maps/place/?q=place_id:ChIJsVTNSa2vEmsR0UFyjRg2Tvc"
  },
  {
    "name": "Top Juice Piccadilly",
    "address": "15A/135 Castlereagh St, Sydney NSW 2000, Australia",
    "suburb": "Sydney NSW 2000",
    "state": "NSW",
    "rating": 4,
    "reviews": 74,
    "lat": -33.871662,
    "lng": 151.2092181,
    "place_id": "ChIJsxf9Tz6uEmsRZY6r22RMZrE",
    "maps_url": "https://www.google.com/maps/place/?q=place_id:ChIJsxf9Tz6uEmsRZY6r22RMZrE"
  },
  {
    "name": "Top Juice Galeries",
    "address": "The Galeries Lower Ground Floor, 500 George St, Sydney NSW 2000, Australia",
    "suburb": "500 George St",
    "state": "NSW",
    "rating": 4.1,
    "reviews": 79,
    "lat": -33.8723996,
    "lng": 151.2071178,
    "place_id": "ChIJRbF9iT6uEmsR-fc7Npmt8q8",
    "maps_url": "https://www.google.com/maps/place/?q=place_id:ChIJRbF9iT6uEmsR-fc7Npmt8q8"
  },
  {
    "name": "Season² - The Galeries",
    "address": "Shop RG05/500 George St, Sydney NSW 2000, Australia",
    "suburb": "Sydney NSW 2000",
    "state": "NSW",
    "rating": 4.3,
    "reviews": 37,
    "lat": -33.87233459999999,
    "lng": 151.2077417,
    "place_id": "ChIJLyd8fMKvEmsRLyxZN_i5QvA",
    "maps_url": "https://www.google.com/maps/place/?q=place_id:ChIJLyd8fMKvEmsRLyxZN_i5QvA"
  },
  {
    "name": "Central Squeeze",
    "address": "2000 Eddy Ave, Haymarket NSW 2000, Australia",
    "suburb": "Haymarket NSW 2000",
    "state": "NSW",
    "rating": 4.2,
    "reviews": 42,
    "lat": -33.882742,
    "lng": 151.207386,
    "place_id": "ChIJva1FMyKuEmsRx1PdRB2rAqs",
    "maps_url": "https://www.google.com/maps/place/?q=place_id:ChIJva1FMyKuEmsRx1PdRB2rAqs"
  },
  {
    "name": "Top Juice QVB",
    "address": "QVB, Shop 99/455 George St, Sydney NSW 2000, Australia",
    "suburb": "Shop 99/455 George St",
    "state": "NSW",
    "rating": 3.9,
    "reviews": 143,
    "lat": -33.8712011,
    "lng": 151.2066736,
    "place_id": "ChIJFZEg8j6uEmsR7WemROgrrGU",
    "maps_url": "https://www.google.com/maps/place/?q=place_id:ChIJFZEg8j6uEmsR7WemROgrrGU"
  },
  {
    "name": "Fruitologist",
    "address": "Shop 2c/2 Nagurra Pl, Rozelle NSW 2039, Australia",
    "suburb": "Rozelle NSW 2039",
    "state": "NSW",
    "rating": 4.5,
    "reviews": 885,
    "lat": -33.86135489999999,
    "lng": 151.1680686,
    "place_id": "ChIJ-5__HsGvEmsRmi79IZ0PzCQ",
    "maps_url": "https://www.google.com/maps/place/?q=place_id:ChIJ-5__HsGvEmsRmi79IZ0PzCQ"
  },
  {
    "name": "O Superfood",
    "address": "F2/87 Oxford St, Bondi Junction NSW 2022, Australia",
    "suburb": "Bondi Junction NSW 2022",
    "state": "NSW",
    "rating": 4.8,
    "reviews": 162,
    "lat": -33.8915297,
    "lng": 151.2461128,
    "place_id": "ChIJHU6ZiPCtEmsRfb2qYVs7-9g",
    "maps_url": "https://www.google.com/maps/place/?q=place_id:ChIJHU6ZiPCtEmsRfb2qYVs7-9g"
  },
  {
    "name": "Top Juice Barangaroo",
    "address": "T2/11/200 Barangaroo Ave, Barangaroo NSW 2000, Australia",
    "suburb": "Barangaroo NSW 2000",
    "state": "NSW",
    "rating": 4.8,
    "reviews": 63,
    "lat": -33.8646004,
    "lng": 151.2020349,
    "place_id": "ChIJx9TYnbWvEmsRHvQHycHXgww",
    "maps_url": "https://www.google.com/maps/place/?q=place_id:ChIJx9TYnbWvEmsRHvQHycHXgww"
  },
  {
    "name": "Top Juice World Square",
    "address": "lower, world square, Shop 9 K7/644 George St, Sydney NSW 2002, Australia",
    "suburb": "world square",
    "state": "NSW",
    "rating": 4.1,
    "reviews": 64,
    "lat": -33.8770505,
    "lng": 151.2071843,
    "place_id": "ChIJdRd-kNCvEmsRzlJr4_ZHCzo",
    "maps_url": "https://www.google.com/maps/place/?q=place_id:ChIJdRd-kNCvEmsRzlJr4_ZHCzo"
  },
  {
    "name": "Top Juice Centrepoint Level 5",
    "address": "Shop 5013/5 Level/5 Pitt St, Sydney NSW 2000, Australia",
    "suburb": "Sydney NSW 2000",
    "state": "NSW",
    "rating": 4.1,
    "reviews": 27,
    "lat": -33.8701223,
    "lng": 151.2092497,
    "place_id": "ChIJsQpTHBqvEmsRJadTM3Qo5Fk",
    "maps_url": "https://www.google.com/maps/place/?q=place_id:ChIJsQpTHBqvEmsRJadTM3Qo5Fk"
  },
  {
    "name": "Ali’s Fresh Juice Bar",
    "address": "Opp BigW, Shop 30/28 Blue Gum Rd, Jesmond NSW 2287, Australia",
    "suburb": "Shop 30/28 Blue Gum Rd",
    "state": "NSW",
    "rating": 4.9,
    "reviews": 549,
    "lat": -32.9021016,
    "lng": 151.6898859,
    "place_id": "ChIJT6EIJcI_c2sRd6WLtyQL4Co",
    "maps_url": "https://www.google.com/maps/place/?q=place_id:ChIJT6EIJcI_c2sRd6WLtyQL4Co"
  },
  {
    "name": "Buzz The Junction",
    "address": "25/200 Union St, The Junction NSW 2291, Australia",
    "suburb": "The Junction NSW 2291",
    "state": "NSW",
    "rating": 4.6,
    "reviews": 54,
    "lat": -32.9383743,
    "lng": 151.7586364,
    "place_id": "ChIJ8-hb1TkUc2sR0tjopkJNqgI",
    "maps_url": "https://www.google.com/maps/place/?q=place_id:ChIJ8-hb1TkUc2sR0tjopkJNqgI"
  },
  {
    "name": "The Berry Brothers",
    "address": "5/113-125 Darby St, Newcastle NSW 2300, Australia",
    "suburb": "Newcastle NSW 2300",
    "state": "NSW",
    "rating": 4.7,
    "reviews": 130,
    "lat": -32.9315416,
    "lng": 151.7723875,
    "place_id": "ChIJwaMZuWkUc2sRDoEY-CbUDRk",
    "maps_url": "https://www.google.com/maps/place/?q=place_id:ChIJwaMZuWkUc2sRDoEY-CbUDRk"
  },
  {
    "name": "Thirsty monkey",
    "address": "30 Pearson St, Charlestown NSW 2290, Australia",
    "suburb": "Charlestown NSW 2290",
    "state": "NSW",
    "rating": 4.5,
    "reviews": 51,
    "lat": -32.96223030000001,
    "lng": 151.6950382,
    "place_id": "ChIJ32CaPd89c2sRiGH_7n-SeYE",
    "maps_url": "https://www.google.com/maps/place/?q=place_id:ChIJ32CaPd89c2sRiGH_7n-SeYE"
  },
  {
    "name": "Thurst Burst",
    "address": "Marketown Shopping Centre West, Cnr King St and, National Park St, Newcastle West NSW 2302, Australia",
    "suburb": "Cnr King St and",
    "state": "NSW",
    "rating": 4.7,
    "reviews": 63,
    "lat": -32.9280377,
    "lng": 151.7610431,
    "place_id": "ChIJJ6S0aUQUc2sRBWyAzy5twhQ",
    "maps_url": "https://www.google.com/maps/place/?q=place_id:ChIJJ6S0aUQUc2sRBWyAzy5twhQ"
  },
  {
    "name": "Vital Smoothie Bar",
    "address": "Newcastle Corner, Shop 5A, Corner Allen Street &, Memel Rd, Hutten Heights, Newcastle, 2940, South Africa",
    "suburb": "Shop 5A",
    "state": "NSW",
    "rating": 5,
    "reviews": 2,
    "lat": -27.7466747,
    "lng": 29.93299,
    "place_id": "ChIJzVAWOjvD7R4RQwY9GmLLTzo",
    "maps_url": "https://www.google.com/maps/place/?q=place_id:ChIJzVAWOjvD7R4RQwY9GmLLTzo"
  },
  {
    "name": "The Yum Bar Nutrition",
    "address": "495 Pacific Hwy, Belmont NSW 2280, Australia",
    "suburb": "Belmont NSW 2280",
    "state": "NSW",
    "rating": 4.9,
    "reviews": 26,
    "lat": -33.0321449,
    "lng": 151.6612197,
    "place_id": "ChIJJTCnGHcjc2sRRiz_mtViugc",
    "maps_url": "https://www.google.com/maps/place/?q=place_id:ChIJJTCnGHcjc2sRRiz_mtViugc"
  },
  {
    "name": "Oakberry Acai Bar Beach - Newcastle",
    "address": "289-295 Darby St, Bar Beach NSW 2300, Australia",
    "suburb": "Bar Beach NSW 2300",
    "state": "NSW",
    "rating": 4.5,
    "reviews": 98,
    "lat": -32.9386041,
    "lng": 151.7656244,
    "place_id": "ChIJEf_CtDkVc2sRAY7ZTeDPrZo",
    "maps_url": "https://www.google.com/maps/place/?q=place_id:ChIJEf_CtDkVc2sRAY7ZTeDPrZo"
  },
  {
    "name": "The Kiosk Newcastle Beach",
    "address": "42 Shortland Esplanade, Newcastle NSW 2300, Australia",
    "suburb": "Newcastle NSW 2300",
    "state": "NSW",
    "rating": 4.4,
    "reviews": 599,
    "lat": -32.9292985,
    "lng": 151.7869598,
    "place_id": "ChIJcScTNXoUc2sR_a7I5kzQju0",
    "maps_url": "https://www.google.com/maps/place/?q=place_id:ChIJcScTNXoUc2sR_a7I5kzQju0"
  },
  {
    "name": "PRO VIBE Warners bay",
    "address": "10/450 The Esplanade, Warners Bay NSW 2282, Australia",
    "suburb": "Warners Bay NSW 2282",
    "state": "NSW",
    "rating": 4.7,
    "reviews": 61,
    "lat": -32.973767,
    "lng": 151.644168,
    "place_id": "ChIJIbcwRKo9c2sR-y4wNDoX2g0",
    "maps_url": "https://www.google.com/maps/place/?q=place_id:ChIJIbcwRKo9c2sR-y4wNDoX2g0"
  },
  {
    "name": "The Happy Wombat",
    "address": "2/575 Hunter St, Newcastle West NSW 2302, Australia",
    "suburb": "Newcastle West NSW 2302",
    "state": "NSW",
    "rating": 4.5,
    "reviews": 1708,
    "lat": -32.9272823,
    "lng": 151.765922,
    "place_id": "ChIJ23_MRUMUc2sRNigW8AnhcRs",
    "maps_url": "https://www.google.com/maps/place/?q=place_id:ChIJ23_MRUMUc2sRNigW8AnhcRs"
  },
  {
    "name": "Banana Blossom Newcastle",
    "address": "R15/20 Wolfe St, Newcastle NSW 2300, Australia",
    "suburb": "Newcastle NSW 2300",
    "state": "NSW",
    "rating": 4.9,
    "reviews": 77,
    "lat": -32.9273111,
    "lng": 151.779371,
    "place_id": "ChIJC0xCZOUVc2sRriNnxHkP4WE",
    "maps_url": "https://www.google.com/maps/place/?q=place_id:ChIJC0xCZOUVc2sRriNnxHkP4WE"
  },
  {
    "name": "Estabar",
    "address": "61 Shortland Esplanade, Newcastle NSW 2300, Australia",
    "suburb": "Newcastle NSW 2300",
    "state": "NSW",
    "rating": 4.5,
    "reviews": 843,
    "lat": -32.9291187,
    "lng": 151.7861196,
    "place_id": "ChIJe7KqqmkUc2sR6MmWUd7fw-I",
    "maps_url": "https://www.google.com/maps/place/?q=place_id:ChIJe7KqqmkUc2sR6MmWUd7fw-I"
  },
  {
    "name": "Juice Junkie - Fresh Juice & Smoothies",
    "address": "Shop 3/90 Terrigal Esplanade, Terrigal NSW 2260, Australia",
    "suburb": "Terrigal NSW 2260",
    "state": "NSW",
    "rating": 4.5,
    "reviews": 174,
    "lat": -33.4465401,
    "lng": 151.4438735,
    "place_id": "ChIJHQ2M9OfJcmsRSO8rsJAJwn0",
    "maps_url": "https://www.google.com/maps/place/?q=place_id:ChIJHQ2M9OfJcmsRSO8rsJAJwn0"
  },
  {
    "name": "Boost Juice",
    "address": "102 Northcott Dr, Kotara NSW 2289, Australia",
    "suburb": "Kotara NSW 2289",
    "state": "NSW",
    "rating": 3.9,
    "reviews": 64,
    "lat": -32.9415682,
    "lng": 151.711057,
    "place_id": "ChIJnXuRU_sVc2sRQGgkIPbx_Qw",
    "maps_url": "https://www.google.com/maps/place/?q=place_id:ChIJnXuRU_sVc2sRQGgkIPbx_Qw"
  },
  {
    "name": "Grain Store Newcastle",
    "address": "64-66 Scott St, Newcastle East NSW 2300, Australia",
    "suburb": "Newcastle East NSW 2300",
    "state": "NSW",
    "rating": 4.6,
    "reviews": 2071,
    "lat": -32.9274784,
    "lng": 151.7871688,
    "place_id": "ChIJLSPJ6XsUc2sR2ZrLnFveLx0",
    "maps_url": "https://www.google.com/maps/place/?q=place_id:ChIJLSPJ6XsUc2sR2ZrLnFveLx0"
  },
  {
    "name": "Swell Kiosk Bar Beach",
    "address": "1 Memorial Dr, Bar Beach NSW 2300, Australia",
    "suburb": "Bar Beach NSW 2300",
    "state": "NSW",
    "rating": 4,
    "reviews": 1225,
    "lat": -32.9413417,
    "lng": 151.7675616,
    "place_id": "ChIJKVPeiz4Uc2sR9kIRiEH_pDE",
    "maps_url": "https://www.google.com/maps/place/?q=place_id:ChIJKVPeiz4Uc2sR9kIRiEH_pDE"
  },
  {
    "name": "Moor Newcastle East",
    "address": "33 Hunter St, Newcastle NSW 2300, Australia",
    "suburb": "Newcastle NSW 2300",
    "state": "NSW",
    "rating": 4.5,
    "reviews": 369,
    "lat": -32.9281726,
    "lng": 151.7851151,
    "place_id": "ChIJdyXJBXsUc2sRftfHpGRCeEw",
    "maps_url": "https://www.google.com/maps/place/?q=place_id:ChIJdyXJBXsUc2sRftfHpGRCeEw"
  },
  {
    "name": "Three Monkeys Cafe",
    "address": "131 Darby St, Cooks Hill NSW 2300, Australia",
    "suburb": "Cooks Hill NSW 2300",
    "state": "NSW",
    "rating": 4.5,
    "reviews": 923,
    "lat": -32.9315446,
    "lng": 151.7717831,
    "place_id": "ChIJbU1owWkUc2sREHGRkERSNbg",
    "maps_url": "https://www.google.com/maps/place/?q=place_id:ChIJbU1owWkUc2sREHGRkERSNbg"
  },
  {
    "name": "Coco Monde Chocolateria",
    "address": "80 Darby St, Cooks Hill NSW 2300, Australia",
    "suburb": "Cooks Hill NSW 2300",
    "state": "NSW",
    "rating": 3.8,
    "reviews": 785,
    "lat": -32.9302025,
    "lng": 151.7726898,
    "place_id": "ChIJX7wcT2gUc2sROvxKoAI89Mg",
    "maps_url": "https://www.google.com/maps/place/?q=place_id:ChIJX7wcT2gUc2sROvxKoAI89Mg"
  },
  {
    "name": "Acai Bar Wollongong",
    "address": "shop 2/219 Crown St, Wollongong NSW 2500, Australia",
    "suburb": "Wollongong NSW 2500",
    "state": "NSW",
    "rating": 4.9,
    "reviews": 359,
    "lat": -34.4251796,
    "lng": 150.8932236,
    "place_id": "ChIJPzqIP8IZE2sRIxGwf55Z55Y",
    "maps_url": "https://www.google.com/maps/place/?q=place_id:ChIJPzqIP8IZE2sRIxGwf55Z55Y"
  },
  {
    "name": "Top Juice Wollongong",
    "address": "Wollongong Central Shopping Centre, West Building, Level 1 Shop W219/200 Crown St, Wollongong NSW 2500, Australia",
    "suburb": "West Building",
    "state": "NSW",
    "rating": 4.1,
    "reviews": 52,
    "lat": -34.4246042,
    "lng": 150.8933545,
    "place_id": "ChIJu9YIdaYZE2sRbUC48mJHrkU",
    "maps_url": "https://www.google.com/maps/place/?q=place_id:ChIJu9YIdaYZE2sRbUC48mJHrkU"
  },
  {
    "name": "Oakberry Acai Wollongong",
    "address": "2/14 Cliff Rd, North Wollongong NSW 2500, Australia",
    "suburb": "North Wollongong NSW 2500",
    "state": "NSW",
    "rating": 4.8,
    "reviews": 97,
    "lat": -34.4147749,
    "lng": 150.9006091,
    "place_id": "ChIJX1frKhoZE2sRZEdUiv9Rfs4",
    "maps_url": "https://www.google.com/maps/place/?q=place_id:ChIJX1frKhoZE2sRZEdUiv9Rfs4"
  },
  {
    "name": "Purple Parrot Acai Wollongong",
    "address": "Unit 3/51 Crown St, Wollongong NSW 2500, Australia",
    "suburb": "Wollongong NSW 2500",
    "state": "NSW",
    "rating": 4.7,
    "reviews": 179,
    "lat": -34.4260024,
    "lng": 150.8996087,
    "place_id": "ChIJg50ScSwZE2sRDEOlFEaDCeI",
    "maps_url": "https://www.google.com/maps/place/?q=place_id:ChIJg50ScSwZE2sRDEOlFEaDCeI"
  },
  {
    "name": "Boost Juice",
    "address": "200 Crown St, Wollongong NSW 2500, Australia",
    "suburb": "Wollongong NSW 2500",
    "state": "NSW",
    "rating": 3.9,
    "reviews": 63,
    "lat": -34.424676,
    "lng": 150.8941884,
    "place_id": "ChIJP_SUdKYZE2sRzaHEZPOSips",
    "maps_url": "https://www.google.com/maps/place/?q=place_id:ChIJP_SUdKYZE2sRzaHEZPOSips"
  },
  {
    "name": "Goodbar Shellharbour",
    "address": "211 Lake Entrance Rd, Shellharbour City Centre NSW 2529, Australia",
    "suburb": "Shellharbour City Centre NSW 2529",
    "state": "NSW",
    "rating": 4.8,
    "reviews": 671,
    "lat": -34.5643465,
    "lng": 150.8376781,
    "place_id": "ChIJheBm1WkTE2sRz7S2mnPAOQI",
    "maps_url": "https://www.google.com/maps/place/?q=place_id:ChIJheBm1WkTE2sRz7S2mnPAOQI"
  },
  {
    "name": "Lux Bistro Bar",
    "address": "SHOP 19 /110/114 Crown St, Wollongong NSW 2500, Australia",
    "suburb": "Wollongong NSW 2500",
    "state": "NSW",
    "rating": 4.7,
    "reviews": 344,
    "lat": -34.4250595,
    "lng": 150.8966536,
    "place_id": "ChIJhx2AdGgZE2sRocKcZca5m80",
    "maps_url": "https://www.google.com/maps/place/?q=place_id:ChIJhx2AdGgZE2sRocKcZca5m80"
  },
  {
    "name": "Daughter Judy's",
    "address": "172-174 Keira St, Wollongong NSW 2500, Australia",
    "suburb": "Wollongong NSW 2500",
    "state": "NSW",
    "rating": 4.7,
    "reviews": 33,
    "lat": -34.4237254,
    "lng": 150.8932135,
    "place_id": "ChIJtRTjSoUZE2sRG4TF7mbMA-w",
    "maps_url": "https://www.google.com/maps/place/?q=place_id:ChIJtRTjSoUZE2sRG4TF7mbMA-w"
  },
  {
    "name": "Froozie",
    "address": "119 Corrimal St, Wollongong NSW 2500, Australia",
    "suburb": "Wollongong NSW 2500",
    "state": "NSW",
    "rating": null,
    "reviews": 0,
    "lat": -34.4251777,
    "lng": 150.9002738,
    "place_id": "ChIJ8-Z_oXgZE2sR5RTgvFHe8Tg",
    "maps_url": "https://www.google.com/maps/place/?q=place_id:ChIJ8-Z_oXgZE2sR5RTgvFHe8Tg"
  },
  {
    "name": "Pro Juice",
    "address": "322 West St, Umina Beach NSW 2257, Australia",
    "suburb": "Umina Beach NSW 2257",
    "state": "NSW",
    "rating": 4.6,
    "reviews": 73,
    "lat": -33.5214687,
    "lng": 151.3183461,
    "place_id": "ChIJ___vKLFMDWsRxOer28RIFdc",
    "maps_url": "https://www.google.com/maps/place/?q=place_id:ChIJ___vKLFMDWsRxOer28RIFdc"
  },
  {
    "name": "Ocean Street Bowl & Smoothie Bar",
    "address": "Shop 4/4 Ocean St, Budgewoi NSW 2262, Australia",
    "suburb": "Budgewoi NSW 2262",
    "state": "NSW",
    "rating": 4.4,
    "reviews": 56,
    "lat": -33.2368936,
    "lng": 151.5629139,
    "place_id": "ChIJQxv7T1vZcmsRtuW2Db7iK80",
    "maps_url": "https://www.google.com/maps/place/?q=place_id:ChIJQxv7T1vZcmsRtuW2Db7iK80"
  },
  {
    "name": "Daleys Kitchen & Juice Bar",
    "address": "30 Empire Bay Dr, Daleys Point NSW 2257, Australia",
    "suburb": "Daleys Point NSW 2257",
    "state": "NSW",
    "rating": 4.4,
    "reviews": 300,
    "lat": -33.499586,
    "lng": 151.355494,
    "place_id": "ChIJZylMDJS0cmsRpmmmMuwQlwU",
    "maps_url": "https://www.google.com/maps/place/?q=place_id:ChIJZylMDJS0cmsRpmmmMuwQlwU"
  },
  {
    "name": "Acai Boy Dessert Bar",
    "address": "3/39 Pacific Hwy, Ourimbah NSW 2258, Australia",
    "suburb": "Ourimbah NSW 2258",
    "state": "NSW",
    "rating": 4.3,
    "reviews": 88,
    "lat": -33.361446,
    "lng": 151.369921,
    "place_id": "ChIJJ8-KJdrNcmsRq21fJY-EBZY",
    "maps_url": "https://www.google.com/maps/place/?q=place_id:ChIJJ8-KJdrNcmsRq21fJY-EBZY"
  },
  {
    "name": "Habibi Juice - Ettalong Beach",
    "address": "inside IGA, 396 Ocean View Rd, Ettalong Beach NSW 2257, Australia",
    "suburb": "396 Ocean View Rd",
    "state": "NSW",
    "rating": 3.4,
    "reviews": 13,
    "lat": -33.5141294,
    "lng": 151.3361039,
    "place_id": "ChIJhzIbzwezcmsRu88KDFa_Nvs",
    "maps_url": "https://www.google.com/maps/place/?q=place_id:ChIJhzIbzwezcmsRu88KDFa_Nvs"
  },
  {
    "name": "Oakberry Acai Terrigal",
    "address": "98 Terrigal Esplanade, Terrigal NSW 2260, Australia",
    "suburb": "Terrigal NSW 2260",
    "state": "NSW",
    "rating": 4.4,
    "reviews": 36,
    "lat": -33.4462153,
    "lng": 151.443479,
    "place_id": "ChIJrYs4_NHJcmsRiVTAprelkV4",
    "maps_url": "https://www.google.com/maps/place/?q=place_id:ChIJrYs4_NHJcmsRiVTAprelkV4"
  },
  {
    "name": "Top Juice Tuggerah",
    "address": "Westfeild Tuggerah, Kiosk K132/50 Wyong Rd, Tuggerah NSW 2259, Australia",
    "suburb": "Kiosk K132/50 Wyong Rd",
    "state": "NSW",
    "rating": 4.3,
    "reviews": 43,
    "lat": -33.3087099,
    "lng": 151.4119519,
    "place_id": "ChIJVTFwh9vNcmsRLMOVs2X7r4M",
    "maps_url": "https://www.google.com/maps/place/?q=place_id:ChIJVTFwh9vNcmsRLMOVs2X7r4M"
  },
  {
    "name": "Beach Yum Nutrition",
    "address": "15A Mitchell St, Norah Head NSW 2263, Australia",
    "suburb": "Norah Head NSW 2263",
    "state": "NSW",
    "rating": 4.4,
    "reviews": 10,
    "lat": -33.279072,
    "lng": 151.5651548,
    "place_id": "ChIJ1aQzFbDbcmsRBBT-Sy15xxA",
    "maps_url": "https://www.google.com/maps/place/?q=place_id:ChIJ1aQzFbDbcmsRBBT-Sy15xxA"
  },
  {
    "name": "Eastcoast Beverages",
    "address": "993 George Downes Dr, Kulnura NSW 2250, Australia",
    "suburb": "Kulnura NSW 2250",
    "state": "NSW",
    "rating": 4.4,
    "reviews": 102,
    "lat": -33.2299308,
    "lng": 151.2180786,
    "place_id": "ChIJLQx1bhwuDWsRhPoho1ZaanI",
    "maps_url": "https://www.google.com/maps/place/?q=place_id:ChIJLQx1bhwuDWsRhPoho1ZaanI"
  },
  {
    "name": "Yum Fast Nutrition",
    "address": "93 Scenic Dr, Budgewoi NSW 2262, Australia",
    "suburb": "Budgewoi NSW 2262",
    "state": "NSW",
    "rating": 4.7,
    "reviews": 46,
    "lat": -33.2337302,
    "lng": 151.5545926,
    "place_id": "ChIJPT7PLKTZcmsRovBir2rkI_o",
    "maps_url": "https://www.google.com/maps/place/?q=place_id:ChIJPT7PLKTZcmsRovBir2rkI_o"
  },
  {
    "name": "SuperSupps Healthy Cafe and Supplement Store",
    "address": "9 Tumbi Creek Rd, Berkeley Vale NSW 2261, Australia",
    "suburb": "Berkeley Vale NSW 2261",
    "state": "NSW",
    "rating": 4.9,
    "reviews": 78,
    "lat": -33.3594626,
    "lng": 151.4444176,
    "place_id": "ChIJRVKlQ8fOcmsR8wpULtObnXg",
    "maps_url": "https://www.google.com/maps/place/?q=place_id:ChIJRVKlQ8fOcmsR8wpULtObnXg"
  },
  {
    "name": "BDE Nutrition",
    "address": "Unit 5/47-49 The Esplanade, Ettalong Beach NSW 2257, Australia",
    "suburb": "Ettalong Beach NSW 2257",
    "state": "NSW",
    "rating": 4.9,
    "reviews": 51,
    "lat": -33.51481140000001,
    "lng": 151.335648,
    "place_id": "ChIJH7IkoROzcmsRJpKgBsw927A",
    "maps_url": "https://www.google.com/maps/place/?q=place_id:ChIJH7IkoROzcmsRJpKgBsw927A"
  },
  {
    "name": "Banana Blossom Terrigal",
    "address": "2/18 Church St, Terrigal NSW 2260, Australia",
    "suburb": "Terrigal NSW 2260",
    "state": "NSW",
    "rating": 4.7,
    "reviews": 72,
    "lat": -33.4472807,
    "lng": 151.4433195,
    "place_id": "ChIJET2w0uHJcmsRqfdBgrf_qTM",
    "maps_url": "https://www.google.com/maps/place/?q=place_id:ChIJET2w0uHJcmsRqfdBgrf_qTM"
  },
  {
    "name": "Island Time Espresso Bar",
    "address": "104 Terrigal Esplanade, Terrigal NSW 2260, Australia",
    "suburb": "Terrigal NSW 2260",
    "state": "NSW",
    "rating": 4.2,
    "reviews": 329,
    "lat": -33.4458638,
    "lng": 151.4435239,
    "place_id": "ChIJWd-7-OfJcmsR0iI7KQ8jNh8",
    "maps_url": "https://www.google.com/maps/place/?q=place_id:ChIJWd-7-OfJcmsR0iI7KQ8jNh8"
  },
  {
    "name": "Gnostic Mana Cafe",
    "address": "31 The Boulevarde, Woy Woy NSW 2256, Australia",
    "suburb": "Woy Woy NSW 2256",
    "state": "NSW",
    "rating": 4.3,
    "reviews": 344,
    "lat": -33.484236,
    "lng": 151.325202,
    "place_id": "ChIJi5l-6zRLDWsRWFuBiWvG1J4",
    "maps_url": "https://www.google.com/maps/place/?q=place_id:ChIJi5l-6zRLDWsRWFuBiWvG1J4"
  },
  {
    "name": "Boost Juice Ampol Foodary Wyong Southbound",
    "address": "31/35 St Johns Rd, Warnervale NSW 2259, Australia",
    "suburb": "Warnervale NSW 2259",
    "state": "NSW",
    "rating": 3.4,
    "reviews": 11,
    "lat": -33.2545648,
    "lng": 151.4049808,
    "place_id": "ChIJE8afd1mxEmsRDxKu7_WOdSg",
    "maps_url": "https://www.google.com/maps/place/?q=place_id:ChIJE8afd1mxEmsRDxKu7_WOdSg"
  },
  {
    "name": "Boost Juice",
    "address": "Terrigal Drive, TK22 Erina Fair Shopping Centre, Erina NSW 2250, Australia",
    "suburb": "TK22 Erina Fair Shopping Centre",
    "state": "NSW",
    "rating": 3.7,
    "reviews": 77,
    "lat": -33.4375004,
    "lng": 151.3926417,
    "place_id": "ChIJqTwEMHLKcmsRca5p7P2aQn0",
    "maps_url": "https://www.google.com/maps/place/?q=place_id:ChIJqTwEMHLKcmsRca5p7P2aQn0"
  },
  {
    "name": "Top Juice Parramatta Level 1",
    "address": "Shop 1172/159/175 Church St, Parramatta NSW 2150, Australia",
    "suburb": "Parramatta NSW 2150",
    "state": "NSW",
    "rating": 3.4,
    "reviews": 276,
    "lat": -33.8171842,
    "lng": 151.0035087,
    "place_id": "ChIJV-ucYiCjEmsR8rJ2R5g-G8g",
    "maps_url": "https://www.google.com/maps/place/?q=place_id:ChIJV-ucYiCjEmsR8rJ2R5g-G8g"
  },
  {
    "name": "I JUICE + چای خانه",
    "address": "273 Church St, Parramatta NSW 2150, Australia",
    "suburb": "Parramatta NSW 2150",
    "state": "NSW",
    "rating": 4.4,
    "reviews": 134,
    "lat": -33.8125197,
    "lng": 151.0034633,
    "place_id": "ChIJtWfX3hSjEmsRRjx_5h3OLx8",
    "maps_url": "https://www.google.com/maps/place/?q=place_id:ChIJtWfX3hSjEmsRRjx_5h3OLx8"
  },
  {
    "name": "Blend & Drip",
    "address": "531-537 Victoria Rd, Ermington NSW 2115, Australia",
    "suburb": "Ermington NSW 2115",
    "state": "NSW",
    "rating": 5,
    "reviews": 32,
    "lat": -33.8149998,
    "lng": 151.056152,
    "place_id": "ChIJcU-SWROlEmsR9C2SGjbLyts",
    "maps_url": "https://www.google.com/maps/place/?q=place_id:ChIJcU-SWROlEmsR9C2SGjbLyts"
  },
  {
    "name": "Top Juice Parramatta Level 5",
    "address": "5050/159-175 Church Street Level 5 Westfield, Shop 1172/159/175 Church St, Parramatta NSW 2150, Australia",
    "suburb": "Shop 1172/159/175 Church St",
    "state": "NSW",
    "rating": 3,
    "reviews": 132,
    "lat": -33.817449,
    "lng": 151.0011076,
    "place_id": "ChIJ0ym-FbOjEmsRHKiUa5QMs6A",
    "maps_url": "https://www.google.com/maps/place/?q=place_id:ChIJ0ym-FbOjEmsRHKiUa5QMs6A"
  },
  {
    "name": "Pure Juice Granville",
    "address": "8 Railway Parade, Granville NSW 2142, Australia",
    "suburb": "Granville NSW 2142",
    "state": "NSW",
    "rating": 4.8,
    "reviews": 139,
    "lat": -33.8327108,
    "lng": 151.0109428,
    "place_id": "ChIJa066-PujEmsRVGe1CDeTqzs",
    "maps_url": "https://www.google.com/maps/place/?q=place_id:ChIJa066-PujEmsRVGe1CDeTqzs"
  },
  {
    "name": "MAD Juice & Salad Cafe",
    "address": "Suite 2. Ground floor/111 Phillip St, Parramatta NSW 2150, Australia",
    "suburb": "Parramatta NSW 2150",
    "state": "NSW",
    "rating": 3,
    "reviews": 8,
    "lat": -33.8138225,
    "lng": 151.0091444,
    "place_id": "ChIJXXBV__mjEmsROsCceNY589Q",
    "maps_url": "https://www.google.com/maps/place/?q=place_id:ChIJXXBV__mjEmsROsCceNY589Q"
  },
  {
    "name": "Agha juice",
    "address": "2 Memorial Ave, Merrylands NSW 2160, Australia",
    "suburb": "Merrylands NSW 2160",
    "state": "NSW",
    "rating": 4.3,
    "reviews": 755,
    "lat": -33.8366427,
    "lng": 150.9891968,
    "place_id": "ChIJ8TsajC29EmsRLvMNFnsIzmY",
    "maps_url": "https://www.google.com/maps/place/?q=place_id:ChIJ8TsajC29EmsRLvMNFnsIzmY"
  },
  {
    "name": "SolBowl Parramatta",
    "address": "Parramatta Square, 6.04, 6&8/10 Darcy St, Parramatta NSW 2150, Australia",
    "suburb": "6.04",
    "state": "NSW",
    "rating": 4.6,
    "reviews": 167,
    "lat": -33.8164699,
    "lng": 151.0038909,
    "place_id": "ChIJcWV3sGCjEmsRWB_NPIiZqy8",
    "maps_url": "https://www.google.com/maps/place/?q=place_id:ChIJcWV3sGCjEmsRWB_NPIiZqy8"
  },
  {
    "name": "Boost Juice Parramatta Westfield",
    "address": "159-175 Church St, Parramatta NSW 2150, Australia",
    "suburb": "Parramatta NSW 2150",
    "state": "NSW",
    "rating": 3.1,
    "reviews": 319,
    "lat": -33.8176176,
    "lng": 151.0012476,
    "place_id": "ChIJ1ZLQZyCjEmsRzDp7Ss6c8n8",
    "maps_url": "https://www.google.com/maps/place/?q=place_id:ChIJ1ZLQZyCjEmsRzDp7Ss6c8n8"
  },
  {
    "name": "Master Juice & Ice cream",
    "address": "30 Station St, Wentworthville NSW 2145, Australia",
    "suburb": "Wentworthville NSW 2145",
    "state": "NSW",
    "rating": 4.6,
    "reviews": 191,
    "lat": -33.8083312,
    "lng": 150.9722147,
    "place_id": "ChIJqQXyF3GjEmsRyv2QIt8LQbM",
    "maps_url": "https://www.google.com/maps/place/?q=place_id:ChIJqQXyF3GjEmsRyv2QIt8LQbM"
  },
  {
    "name": "Natural Field",
    "address": "LEVEL 5/159-175 Church St, Parramatta NSW 2150, Australia",
    "suburb": "Parramatta NSW 2150",
    "state": "NSW",
    "rating": 3.2,
    "reviews": 20,
    "lat": -33.8175472,
    "lng": 151.0010031,
    "place_id": "ChIJxfl5eiCjEmsRB-4Vb6SOcyc",
    "maps_url": "https://www.google.com/maps/place/?q=place_id:ChIJxfl5eiCjEmsRB-4Vb6SOcyc"
  },
  {
    "name": "Sip & Smoke",
    "address": "56 Auburn Rd, Auburn NSW 2144, Australia",
    "suburb": "Auburn NSW 2144",
    "state": "NSW",
    "rating": 4.9,
    "reviews": 50,
    "lat": -33.8529207,
    "lng": 151.0327863,
    "place_id": "ChIJO9XrSAC9EmsRpYvIfCsl5uc",
    "maps_url": "https://www.google.com/maps/place/?q=place_id:ChIJO9XrSAC9EmsRpYvIfCsl5uc"
  },
  {
    "name": "Tropi Crush",
    "address": "97 Rawson St, Auburn NSW 2144, Australia",
    "suburb": "Auburn NSW 2144",
    "state": "NSW",
    "rating": 4.6,
    "reviews": 7,
    "lat": -33.84883629999999,
    "lng": 151.0329153,
    "place_id": "ChIJMZ6Y_dm9EmsRzPYSclb3ljw",
    "maps_url": "https://www.google.com/maps/place/?q=place_id:ChIJMZ6Y_dm9EmsRzPYSclb3ljw"
  },
  {
    "name": "Açai & juice co",
    "address": "33A South St, Granville NSW 2142, Australia",
    "suburb": "Granville NSW 2142",
    "state": "NSW",
    "rating": 3.8,
    "reviews": 36,
    "lat": -33.8337275,
    "lng": 151.0111672,
    "place_id": "ChIJY38ydCijEmsRTbjYb5bt1-Y",
    "maps_url": "https://www.google.com/maps/place/?q=place_id:ChIJY38ydCijEmsRTbjYb5bt1-Y"
  },
  {
    "name": "SolBowl Rosehill",
    "address": "2/22-24 Oak St, Rosehill NSW 2142, Australia",
    "suburb": "Rosehill NSW 2142",
    "state": "NSW",
    "rating": 4.5,
    "reviews": 222,
    "lat": -33.8195048,
    "lng": 151.0197585,
    "place_id": "ChIJrQ-ZLZ2jEmsROEeWxhavBoc",
    "maps_url": "https://www.google.com/maps/place/?q=place_id:ChIJrQ-ZLZ2jEmsROEeWxhavBoc"
  },
  {
    "name": "Bay Vista Parramatta",
    "address": "Altitude Building, 1/330 Church St, Parramatta NSW 2150, Australia",
    "suburb": "1/330 Church St",
    "state": "NSW",
    "rating": 4,
    "reviews": 3178,
    "lat": -33.8114388,
    "lng": 151.0044689,
    "place_id": "ChIJ96oUnR6jEmsRzdPaLepjjOw",
    "maps_url": "https://www.google.com/maps/place/?q=place_id:ChIJ96oUnR6jEmsRzdPaLepjjOw"
  },
  {
    "name": "Top Juice Merrylands",
    "address": "Stockland, 191-201 Pitt St, Merrylands NSW 2160, Australia",
    "suburb": "191-201 Pitt St",
    "state": "NSW",
    "rating": 3.6,
    "reviews": 65,
    "lat": -33.8345238,
    "lng": 150.989449,
    "place_id": "ChIJhy6Qay29EmsRfWYJ-qAt7JY",
    "maps_url": "https://www.google.com/maps/place/?q=place_id:ChIJhy6Qay29EmsRfWYJ-qAt7JY"
  },
  {
    "name": "Juice Mia - Stockland Merrylands",
    "address": "199 Pitt St, Merrylands NSW 2160, Australia",
    "suburb": "Merrylands NSW 2160",
    "state": "NSW",
    "rating": 4.5,
    "reviews": 43,
    "lat": -33.8347606,
    "lng": 150.9877643,
    "place_id": "ChIJCQHXD9OiEmsRG9qj9apZZIY",
    "maps_url": "https://www.google.com/maps/place/?q=place_id:ChIJCQHXD9OiEmsRG9qj9apZZIY"
  },
  {
    "name": "Thirsty Monkey",
    "address": "K517/159-175 Church St, Parramatta NSW 2150, Australia",
    "suburb": "Parramatta NSW 2150",
    "state": "NSW",
    "rating": 3.3,
    "reviews": 109,
    "lat": -33.8178942,
    "lng": 151.0024999,
    "place_id": "ChIJb0WTagCjEmsRLeki0dbpwrc",
    "maps_url": "https://www.google.com/maps/place/?q=place_id:ChIJb0WTagCjEmsRLeki0dbpwrc"
  },
  {
    "name": "Tropicana Juice Food Bar Headquarter",
    "address": "213 Elizabeth St, Melbourne VIC 3000, Australia",
    "suburb": "Melbourne VIC 3000",
    "state": "VIC",
    "rating": 4.2,
    "reviews": 597,
    "lat": -37.8134683,
    "lng": 144.9626564,
    "place_id": "ChIJz747QLVC1moRZa4V3nWhQ4s",
    "maps_url": "https://www.google.com/maps/place/?q=place_id:ChIJz747QLVC1moRZa4V3nWhQ4s"
  },
  {
    "name": "Tropicana Juice Food Bar Swanston St",
    "address": "Shop 1B/55 Swanston St, Melbourne VIC 3000, Australia",
    "suburb": "Melbourne VIC 3000",
    "state": "VIC",
    "rating": 4.4,
    "reviews": 206,
    "lat": -37.8162347,
    "lng": 144.966687,
    "place_id": "ChIJJ6TNgbZC1moRVYqxBZe_29c",
    "maps_url": "https://www.google.com/maps/place/?q=place_id:ChIJJ6TNgbZC1moRVYqxBZe_29c"
  },
  {
    "name": "Jungle Juice Bar",
    "address": "Shop/20 Centre Pl, Melbourne VIC 3000, Australia",
    "suburb": "Melbourne VIC 3000",
    "state": "VIC",
    "rating": 4.8,
    "reviews": 504,
    "lat": -37.8165477,
    "lng": 144.9655452,
    "place_id": "ChIJQWunObRC1moREmlWbJ9xtP4",
    "maps_url": "https://www.google.com/maps/place/?q=place_id:ChIJQWunObRC1moREmlWbJ9xtP4"
  },
  {
    "name": "JUICED Lygon",
    "address": "129 Lygon St, Carlton VIC 3053, Australia",
    "suburb": "Carlton VIC 3053",
    "state": "VIC",
    "rating": 4.9,
    "reviews": 74,
    "lat": -37.80402249999999,
    "lng": 144.9660465,
    "place_id": "ChIJx9fLg5hD1moRheBVrud3MeQ",
    "maps_url": "https://www.google.com/maps/place/?q=place_id:ChIJx9fLg5hD1moRheBVrud3MeQ"
  },
  {
    "name": "Top Juice Melbourne Central",
    "address": "Central Shopping Centre, 211 La Trobe St, Melbourne VIC 3000, Australia",
    "suburb": "211 La Trobe St",
    "state": "VIC",
    "rating": 3.3,
    "reviews": 209,
    "lat": -37.8105341,
    "lng": 144.9630335,
    "place_id": "ChIJaZxR5MpC1moRmYxCzT09g5s",
    "maps_url": "https://www.google.com/maps/place/?q=place_id:ChIJaZxR5MpC1moRmYxCzT09g5s"
  },
  {
    "name": "Canecoco",
    "address": "160 Bay St, Port Melbourne VIC 3207, Australia",
    "suburb": "Port Melbourne VIC 3207",
    "state": "VIC",
    "rating": 5,
    "reviews": 725,
    "lat": -37.83988009999999,
    "lng": 144.9414317,
    "place_id": "ChIJ6_drFItn1moRs2D7WodnAwE",
    "maps_url": "https://www.google.com/maps/place/?q=place_id:ChIJ6_drFItn1moRs2D7WodnAwE"
  },
  {
    "name": "Drip Bar Acai Carlton",
    "address": "147 Lygon St, Carlton North VIC 3053, Australia",
    "suburb": "Carlton North VIC 3053",
    "state": "VIC",
    "rating": 4.7,
    "reviews": 516,
    "lat": -37.8037499,
    "lng": 144.9662312,
    "place_id": "ChIJKVnOQSJD1moRRnm8GBWVLPo",
    "maps_url": "https://www.google.com/maps/place/?q=place_id:ChIJKVnOQSJD1moRRnm8GBWVLPo"
  },
  {
    "name": "Agha Juice Carlton",
    "address": "232 Lygon St, Carlton VIC 3053, Australia",
    "suburb": "Carlton VIC 3053",
    "state": "VIC",
    "rating": 4.6,
    "reviews": 361,
    "lat": -37.80174,
    "lng": 144.96703,
    "place_id": "ChIJFVhdY9ND1moRHcEyddwo6oA",
    "maps_url": "https://www.google.com/maps/place/?q=place_id:ChIJFVhdY9ND1moRHcEyddwo6oA"
  },
  {
    "name": "On The Juice",
    "address": "Kiosk 6/111 Cecil St, South Melbourne VIC 3205, Australia",
    "suburb": "South Melbourne VIC 3205",
    "state": "VIC",
    "rating": 4.5,
    "reviews": 157,
    "lat": -37.83081749999999,
    "lng": 144.9571956,
    "place_id": "ChIJu2ucX95n1moRiOVLnAnAUVo",
    "maps_url": "https://www.google.com/maps/place/?q=place_id:ChIJu2ucX95n1moRiOVLnAnAUVo"
  },
  {
    "name": "Savour cafe’ and juice bar",
    "address": "41 Sydney Rd, Brunswick VIC 3056, Australia",
    "suburb": "Brunswick VIC 3056",
    "state": "VIC",
    "rating": 4.5,
    "reviews": 137,
    "lat": -37.7767102,
    "lng": 144.9603325,
    "place_id": "ChIJaTMj1sVd1moRVDjfC-zClOs",
    "maps_url": "https://www.google.com/maps/place/?q=place_id:ChIJaTMj1sVd1moRVDjfC-zClOs"
  },
  {
    "name": ".",
    "address": "12 Motto Dr, Coolaroo VIC 3048, Australia",
    "suburb": "Coolaroo VIC 3048",
    "state": "VIC",
    "rating": 4.7,
    "reviews": 18,
    "lat": -37.6436869,
    "lng": 144.932806,
    "place_id": "ChIJZzMdFptR1moR3--SL0IrIZc",
    "maps_url": "https://www.google.com/maps/place/?q=place_id:ChIJZzMdFptR1moR3--SL0IrIZc"
  },
  {
    "name": "Boost Juice QV",
    "address": "QV Food Hall Cnr Lonsdale and, Queen Victoria, R01-075, Level 1 Swanston St, Melbourne VIC 3000, Australia",
    "suburb": "Queen Victoria",
    "state": "VIC",
    "rating": 3.9,
    "reviews": 123,
    "lat": -37.8111121,
    "lng": 144.9650986,
    "place_id": "ChIJXXGZSmlD1moRupfKuNvhsHo",
    "maps_url": "https://www.google.com/maps/place/?q=place_id:ChIJXXGZSmlD1moRupfKuNvhsHo"
  },
  {
    "name": "On The Juice",
    "address": "168 Swan St, Richmond VIC 3121, Australia",
    "suburb": "Richmond VIC 3121",
    "state": "VIC",
    "rating": 4.5,
    "reviews": 162,
    "lat": -37.8255639,
    "lng": 144.9954464,
    "place_id": "ChIJ1e3V2GFD1moRAZIqjSiznP4",
    "maps_url": "https://www.google.com/maps/place/?q=place_id:ChIJ1e3V2GFD1moRAZIqjSiznP4"
  },
  {
    "name": "Boost Juice Melbourne Central",
    "address": "Melbourne Central S/C, Shop 145A/300 Lonsdale St, Melbourne VIC 3049, Australia",
    "suburb": "Shop 145A/300 Lonsdale St",
    "state": "VIC",
    "rating": 3.6,
    "reviews": 365,
    "lat": -37.810369,
    "lng": 144.9633048,
    "place_id": "ChIJu71A8iVo1moRLA6V0RCQb_Q",
    "maps_url": "https://www.google.com/maps/place/?q=place_id:ChIJu71A8iVo1moRLA6V0RCQb_Q"
  },
  {
    "name": "Bitterjoy",
    "address": "13 Dhanga Djeembana Walk, Melbourne VIC 3000, Australia",
    "suburb": "Melbourne VIC 3000",
    "state": "VIC",
    "rating": 4.5,
    "reviews": 62,
    "lat": -37.8078195,
    "lng": 144.9587008,
    "place_id": "ChIJKQbJbgBd1moRqO1lJp1fyTc",
    "maps_url": "https://www.google.com/maps/place/?q=place_id:ChIJKQbJbgBd1moRqO1lJp1fyTc"
  },
  {
    "name": "Green Cup Lonsdale",
    "address": "150 Lonsdale St, Melbourne VIC 3004, Australia",
    "suburb": "Melbourne VIC 3004",
    "state": "VIC",
    "rating": 4.4,
    "reviews": 94,
    "lat": -37.8103098,
    "lng": 144.9676801,
    "place_id": "ChIJHWmYn6JD1moRNQw1uBmHCu4",
    "maps_url": "https://www.google.com/maps/place/?q=place_id:ChIJHWmYn6JD1moRNQw1uBmHCu4"
  },
  {
    "name": "Juicello South Melbourne Market",
    "address": "South Melbourne Market, Coventry St, South Melbourne VIC 3205, Australia",
    "suburb": "Coventry St",
    "state": "VIC",
    "rating": 4.1,
    "reviews": 61,
    "lat": -37.8323649,
    "lng": 144.9572745,
    "place_id": "ChIJ78P_DABn1moRP6OrjH_bwak",
    "maps_url": "https://www.google.com/maps/place/?q=place_id:ChIJ78P_DABn1moRP6OrjH_bwak"
  },
  {
    "name": "Best Juices Co",
    "address": "315 Cooper St, Epping VIC 3076, Australia",
    "suburb": "Epping VIC 3076",
    "state": "VIC",
    "rating": 5,
    "reviews": 2,
    "lat": -37.6494089,
    "lng": 144.998724,
    "place_id": "ChIJ-VXcOPlP1moRC3o-uMbo00E",
    "maps_url": "https://www.google.com/maps/place/?q=place_id:ChIJ-VXcOPlP1moRC3o-uMbo00E"
  },
  {
    "name": "Crepes and Juice bar",
    "address": "Northcote Shopping Plaza, Kiosk 2/25 Separation St, Northcote VIC 3070, Australia",
    "suburb": "Kiosk 2/25 Separation St",
    "state": "VIC",
    "rating": 4.9,
    "reviews": 40,
    "lat": -37.7682595,
    "lng": 145.0017221,
    "place_id": "ChIJfcmcT7pF1moRf0GWqO1CGE8",
    "maps_url": "https://www.google.com/maps/place/?q=place_id:ChIJfcmcT7pF1moRf0GWqO1CGE8"
  },
  {
    "name": "Acai Bros Port Melbourne",
    "address": "299 Bay St, Port Melbourne VIC 3207, Australia",
    "suburb": "Port Melbourne VIC 3207",
    "state": "VIC",
    "rating": 4.2,
    "reviews": 233,
    "lat": -37.836632,
    "lng": 144.9438742,
    "place_id": "ChIJsb8iMuxn1moRmLqi-5LgM58",
    "maps_url": "https://www.google.com/maps/place/?q=place_id:ChIJsb8iMuxn1moRmLqi-5LgM58"
  },
  {
    "name": "The Juicy Bar",
    "address": "SHOP 6/112 Pakington St, Geelong West VIC 3218, Australia",
    "suburb": "Geelong West VIC 3218",
    "state": "VIC",
    "rating": 3.8,
    "reviews": 41,
    "lat": -38.13841,
    "lng": 144.348955,
    "place_id": "ChIJnwRWqgsX1GoReBwNm5i6FLA",
    "maps_url": "https://www.google.com/maps/place/?q=place_id:ChIJnwRWqgsX1GoReBwNm5i6FLA"
  },
  {
    "name": "Juice Culture",
    "address": "20 Woods Rd, St Albans Park VIC 3219, Australia",
    "suburb": "St Albans Park VIC 3219",
    "state": "VIC",
    "rating": 5,
    "reviews": 47,
    "lat": -38.1962368,
    "lng": 144.3891622,
    "place_id": "ChIJs1PACv4U1GoRNHq5RHUI178",
    "maps_url": "https://www.google.com/maps/place/?q=place_id:ChIJs1PACv4U1GoRNHq5RHUI178"
  },
  {
    "name": "Agha Juice & Kebab Geelong",
    "address": "58 Moorabool St, Geelong VIC 3220, Australia",
    "suburb": "Geelong VIC 3220",
    "state": "VIC",
    "rating": 4.6,
    "reviews": 320,
    "lat": -38.1460945,
    "lng": 144.3610848,
    "place_id": "ChIJI5KvwasV1GoR6-jPiNIh8Rk",
    "maps_url": "https://www.google.com/maps/place/?q=place_id:ChIJI5KvwasV1GoR6-jPiNIh8Rk"
  },
  {
    "name": "De Tox Superfood Bar",
    "address": "Unit 1/346-350 Pakington St, Newtown VIC 3220, Australia",
    "suburb": "Newtown VIC 3220",
    "state": "VIC",
    "rating": 4,
    "reviews": 86,
    "lat": -38.1578541,
    "lng": 144.3454272,
    "place_id": "ChIJ9QQndbET1GoRb9fmkBvis2A",
    "maps_url": "https://www.google.com/maps/place/?q=place_id:ChIJ9QQndbET1GoRb9fmkBvis2A"
  },
  {
    "name": "Juice Syndicate",
    "address": "258 Pakington St, Geelong West VIC 3218, Australia",
    "suburb": "Geelong West VIC 3218",
    "state": "VIC",
    "rating": 5,
    "reviews": 23,
    "lat": -38.1454143,
    "lng": 144.3478478,
    "place_id": "ChIJ30LdbNMV1GoRzpvOsufG4dM",
    "maps_url": "https://www.google.com/maps/place/?q=place_id:ChIJ30LdbNMV1GoRzpvOsufG4dM"
  },
  {
    "name": "Acai Arcade",
    "address": "2/129 Pakington St, Geelong West VIC 3218, Australia",
    "suburb": "Geelong West VIC 3218",
    "state": "VIC",
    "rating": 4.7,
    "reviews": 69,
    "lat": -38.1396025,
    "lng": 144.3483165,
    "place_id": "ChIJEbG-UNgX1GoR2YEdJMWNx0c",
    "maps_url": "https://www.google.com/maps/place/?q=place_id:ChIJEbG-UNgX1GoR2YEdJMWNx0c"
  },
  {
    "name": "Central Nutrition",
    "address": "41 Yarra St, Geelong VIC 3220, Australia",
    "suburb": "Geelong VIC 3220",
    "state": "VIC",
    "rating": 4.4,
    "reviews": 33,
    "lat": -38.1484968,
    "lng": 144.3632634,
    "place_id": "ChIJVR_cFUQV1GoRxeSxPRXfxNU",
    "maps_url": "https://www.google.com/maps/place/?q=place_id:ChIJVR_cFUQV1GoRxeSxPRXfxNU"
  },
  {
    "name": "Purple Haze Acai",
    "address": "Shop 4/152 High St, Belmont VIC 3216, Australia",
    "suburb": "Belmont VIC 3216",
    "state": "VIC",
    "rating": 4.7,
    "reviews": 107,
    "lat": -38.1736006,
    "lng": 144.343866,
    "place_id": "ChIJA1SILrcT1GoR7qtQWR1Fb-I",
    "maps_url": "https://www.google.com/maps/place/?q=place_id:ChIJA1SILrcT1GoR7qtQWR1Fb-I"
  },
  {
    "name": "AGHA Juice Werribee",
    "address": "38 Watton St, Werribee VIC 3030, Australia",
    "suburb": "Werribee VIC 3030",
    "state": "VIC",
    "rating": 4.3,
    "reviews": 345,
    "lat": -37.9016318,
    "lng": 144.6602865,
    "place_id": "ChIJPxEiy5GF1moRPCrivlTvHNo",
    "maps_url": "https://www.google.com/maps/place/?q=place_id:ChIJPxEiy5GF1moRPCrivlTvHNo"
  },
  {
    "name": "Boost Juice",
    "address": "Cnr Malop & Moorabool Streets, Kiosk 11 Market Square Shopping Centre, K203/95 Malop St, Geelong VIC 3220, Australia",
    "suburb": "Kiosk 11 Market Square Shopping Centre",
    "state": "VIC",
    "rating": 3.1,
    "reviews": 81,
    "lat": -38.1465087,
    "lng": 144.3628069,
    "place_id": "ChIJSZjtbRwU1GoROfemmc19VRM",
    "maps_url": "https://www.google.com/maps/place/?q=place_id:ChIJSZjtbRwU1GoROfemmc19VRM"
  },
  {
    "name": "The Juice Era",
    "address": "Next to Planet Fitness, 331 Glenelg Hwy, Smythes Creek VIC 3351, Australia",
    "suburb": "331 Glenelg Hwy",
    "state": "VIC",
    "rating": 4.7,
    "reviews": 47,
    "lat": -37.5908471,
    "lng": 143.8028479,
    "place_id": "ChIJrfMcf21d0WoRQrhDXWP_WPc",
    "maps_url": "https://www.google.com/maps/place/?q=place_id:ChIJrfMcf21d0WoRQrhDXWP_WPc"
  },
  {
    "name": "Boost Juice Ballarat Central",
    "address": "18 Armstrong St S, Ballarat Central VIC 3350, Australia",
    "suburb": "Ballarat Central VIC 3350",
    "state": "VIC",
    "rating": 4.2,
    "reviews": 46,
    "lat": -37.5631375,
    "lng": 143.8554452,
    "place_id": "ChIJJckKQvdE0WoRl8xTC65fbN8",
    "maps_url": "https://www.google.com/maps/place/?q=place_id:ChIJJckKQvdE0WoRl8xTC65fbN8"
  },
  {
    "name": "Boost Juice Sebastopol Drive-Thru",
    "address": "22A Albert St, Sebastopol VIC 3356, Australia",
    "suburb": "Sebastopol VIC 3356",
    "state": "VIC",
    "rating": 4.4,
    "reviews": 165,
    "lat": -37.5839483,
    "lng": 143.8404006,
    "place_id": "ChIJoRqzL7dE0WoRCjJsCYL83wc",
    "maps_url": "https://www.google.com/maps/place/?q=place_id:ChIJoRqzL7dE0WoRCjJsCYL83wc"
  },
  {
    "name": "Refuel Hub",
    "address": "2 Sturt St, Ballarat Central VIC 3350, Australia",
    "suburb": "Ballarat Central VIC 3350",
    "state": "VIC",
    "rating": 4.4,
    "reviews": 286,
    "lat": -37.5619664,
    "lng": 143.8605645,
    "place_id": "ChIJiUrw-MVF0WoRM9yxqNr7YeE",
    "maps_url": "https://www.google.com/maps/place/?q=place_id:ChIJiUrw-MVF0WoRM9yxqNr7YeE"
  },
  {
    "name": "Boost Juice Alfredton",
    "address": "1601 Sturt St, Alfredton VIC 3350, Australia",
    "suburb": "Alfredton VIC 3350",
    "state": "VIC",
    "rating": 2.8,
    "reviews": 12,
    "lat": -37.5559936,
    "lng": 143.8182367,
    "place_id": "ChIJg2Swc4dD0WoR_7_1jhqGgfw",
    "maps_url": "https://www.google.com/maps/place/?q=place_id:ChIJg2Swc4dD0WoR_7_1jhqGgfw"
  },
  {
    "name": "Roy Hammond",
    "address": "24-28 Armstrong St N, Ballarat Central VIC 3350, Australia",
    "suburb": "Ballarat Central VIC 3350",
    "state": "VIC",
    "rating": 4.8,
    "reviews": 679,
    "lat": -37.5605359,
    "lng": 143.8567834,
    "place_id": "ChIJJzQLiblF0WoRR4_3MvdYQuk",
    "maps_url": "https://www.google.com/maps/place/?q=place_id:ChIJJzQLiblF0WoRR4_3MvdYQuk"
  },
  {
    "name": "Eclectic Tastes Cafe & Pantry",
    "address": "2 Burnbank St, Lake Wendouree VIC 3350, Australia",
    "suburb": "Lake Wendouree VIC 3350",
    "state": "VIC",
    "rating": 4.6,
    "reviews": 1114,
    "lat": -37.54891509999999,
    "lng": 143.8473488,
    "place_id": "ChIJeRH9EF1E0WoRqghhtTJ41Bk",
    "maps_url": "https://www.google.com/maps/place/?q=place_id:ChIJeRH9EF1E0WoRqghhtTJ41Bk"
  },
  {
    "name": "Boost Juice Wendouree",
    "address": "330 Gillies St N, Wendouree VIC 3355, Australia",
    "suburb": "Wendouree VIC 3355",
    "state": "VIC",
    "rating": 3.3,
    "reviews": 24,
    "lat": -37.534732,
    "lng": 143.825035,
    "place_id": "ChIJn9DT5nVE0WoRXQY39U40SLw",
    "maps_url": "https://www.google.com/maps/place/?q=place_id:ChIJn9DT5nVE0WoRXQY39U40SLw"
  },
  {
    "name": "BITES AND DRINKS",
    "address": "105 View St, Bendigo VIC 3550, Australia",
    "suburb": "Bendigo VIC 3550",
    "state": "VIC",
    "rating": 5,
    "reviews": 15,
    "lat": -36.757746,
    "lng": 144.2759976,
    "place_id": "ChIJobiSKj1Z12oRdlUiuZTB-as",
    "maps_url": "https://www.google.com/maps/place/?q=place_id:ChIJobiSKj1Z12oRdlUiuZTB-as"
  },
  {
    "name": "Heavenly melts",
    "address": "290 Hargreaves St, Bendigo VIC 3550, Australia",
    "suburb": "Bendigo VIC 3550",
    "state": "VIC",
    "rating": 4.5,
    "reviews": 147,
    "lat": -36.7598437,
    "lng": 144.2802208,
    "place_id": "ChIJYVF79GVZ12oRDRCx3mDKHPQ",
    "maps_url": "https://www.google.com/maps/place/?q=place_id:ChIJYVF79GVZ12oRDRCx3mDKHPQ"
  },
  {
    "name": "Surely Goodness",
    "address": "4/14 Panton St, Golden Square VIC 3555, Australia",
    "suburb": "Golden Square VIC 3555",
    "state": "VIC",
    "rating": 4.9,
    "reviews": 56,
    "lat": -36.771063,
    "lng": 144.262228,
    "place_id": "ChIJH6sCT2tb12oRqiPtwXbkCjw",
    "maps_url": "https://www.google.com/maps/place/?q=place_id:ChIJH6sCT2tb12oRqiPtwXbkCjw"
  },
  {
    "name": "Scrambled",
    "address": "143 Mollison St, Bendigo VIC 3550, Australia",
    "suburb": "Bendigo VIC 3550",
    "state": "VIC",
    "rating": 4.4,
    "reviews": 600,
    "lat": -36.763346,
    "lng": 144.2832136,
    "place_id": "ChIJ-0d4nZJZ12oR1m55yvLe37o",
    "maps_url": "https://www.google.com/maps/place/?q=place_id:ChIJ-0d4nZJZ12oR1m55yvLe37o"
  },
  {
    "name": "Ghosty's Diner",
    "address": "35 View St, Bendigo VIC 3550, Australia",
    "suburb": "Bendigo VIC 3550",
    "state": "VIC",
    "rating": 4.8,
    "reviews": 391,
    "lat": -36.7587688,
    "lng": 144.2773245,
    "place_id": "ChIJyRslCQ9Z12oR5h0sM3X7vMU",
    "maps_url": "https://www.google.com/maps/place/?q=place_id:ChIJyRslCQ9Z12oR5h0sM3X7vMU"
  },
  {
    "name": "Boost Juice",
    "address": "116-120 Mitchell St, Bendigo VIC 3550, Australia",
    "suburb": "Bendigo VIC 3550",
    "state": "VIC",
    "rating": 3.3,
    "reviews": 89,
    "lat": -36.7656986,
    "lng": 144.2809061,
    "place_id": "ChIJn4R0MvNZ12oR0PM-jSodUt4",
    "maps_url": "https://www.google.com/maps/place/?q=place_id:ChIJn4R0MvNZ12oR0PM-jSodUt4"
  },
  {
    "name": "Oasis Juice Bar",
    "address": "99 Queen St, Brisbane City QLD 4000, Australia",
    "suburb": "Brisbane City QLD 4000",
    "state": "QLD",
    "rating": 4.2,
    "reviews": 230,
    "lat": -27.4701895,
    "lng": 153.0246573,
    "place_id": "ChIJv30AlARakWsRtZaI6Orisp0",
    "maps_url": "https://www.google.com/maps/place/?q=place_id:ChIJv30AlARakWsRtZaI6Orisp0"
  },
  {
    "name": "So Juicy",
    "address": "270 Queen St, Brisbane City QLD 4000, Australia",
    "suburb": "Brisbane City QLD 4000",
    "state": "QLD",
    "rating": 4.5,
    "reviews": 225,
    "lat": -27.4674532,
    "lng": 153.0275231,
    "place_id": "ChIJo5M35u5bkWsRJpKkhQKbRFY",
    "maps_url": "https://www.google.com/maps/place/?q=place_id:ChIJo5M35u5bkWsRJpKkhQKbRFY"
  },
  {
    "name": "Orange Juice Bar",
    "address": "97 Boundary St, West End QLD 4101, Australia",
    "suburb": "West End QLD 4101",
    "state": "QLD",
    "rating": 4.5,
    "reviews": 40,
    "lat": -27.4778787,
    "lng": 153.0117718,
    "place_id": "ChIJByKh1V5RkWsR-XrnrrAiuBk",
    "maps_url": "https://www.google.com/maps/place/?q=place_id:ChIJByKh1V5RkWsR-XrnrrAiuBk"
  },
  {
    "name": "Freshbite Health Bar",
    "address": "1/599 Brunswick St, New Farm QLD 4005, Australia",
    "suburb": "New Farm QLD 4005",
    "state": "QLD",
    "rating": 4.9,
    "reviews": 367,
    "lat": -27.4630611,
    "lng": 153.0405778,
    "place_id": "ChIJc_RjAM1ZkWsRKdcjFNv-_UM",
    "maps_url": "https://www.google.com/maps/place/?q=place_id:ChIJc_RjAM1ZkWsRKdcjFNv-_UM"
  },
  {
    "name": "Insane Acai Bar",
    "address": "120 Boundary St, West End QLD 4101, Australia",
    "suburb": "West End QLD 4101",
    "state": "QLD",
    "rating": 4.8,
    "reviews": 756,
    "lat": -27.4799889,
    "lng": 153.0124352,
    "place_id": "ChIJg-Dvdp9QkWsR5fSu7S8htKI",
    "maps_url": "https://www.google.com/maps/place/?q=place_id:ChIJg-Dvdp9QkWsR5fSu7S8htKI"
  },
  {
    "name": "Madre Mia",
    "address": "285 Given Ter, Paddington QLD 4064, Australia",
    "suburb": "Paddington QLD 4064",
    "state": "QLD",
    "rating": 4.9,
    "reviews": 196,
    "lat": -27.4602984,
    "lng": 153.0032885,
    "place_id": "ChIJPdWmpshRkWsRzoyBtVOsQno",
    "maps_url": "https://www.google.com/maps/place/?q=place_id:ChIJPdWmpshRkWsRzoyBtVOsQno"
  },
  {
    "name": "Hello Berry - Acai and Juice Bar",
    "address": "110 Eagle St, Brisbane City QLD 4000, Australia",
    "suburb": "Brisbane City QLD 4000",
    "state": "QLD",
    "rating": 5,
    "reviews": 30,
    "lat": -27.4662808,
    "lng": 153.0300829,
    "place_id": "ChIJSckpmDZbkWsRFc0pgyFMxOc",
    "maps_url": "https://www.google.com/maps/place/?q=place_id:ChIJSckpmDZbkWsRFc0pgyFMxOc"
  },
  {
    "name": "Hello Juice",
    "address": "Shop 15 2/24 Wembley Rd, Logan Central QLD 4114, Australia",
    "suburb": "Logan Central QLD 4114",
    "state": "QLD",
    "rating": 4.7,
    "reviews": 234,
    "lat": -27.6428526,
    "lng": 153.1171292,
    "place_id": "ChIJG3KDNuVDkWsRjsQBoxfM6xI",
    "maps_url": "https://www.google.com/maps/place/?q=place_id:ChIJG3KDNuVDkWsRjsQBoxfM6xI"
  },
  {
    "name": "Teaology Lab",
    "address": "102/125 Melbourne St, South Brisbane QLD 4101, Australia",
    "suburb": "South Brisbane QLD 4101",
    "state": "QLD",
    "rating": 4.8,
    "reviews": 857,
    "lat": -27.4753943,
    "lng": 153.015185,
    "place_id": "ChIJB7mKoxpbkWsR66FEm390XXo",
    "maps_url": "https://www.google.com/maps/place/?q=place_id:ChIJB7mKoxpbkWsR66FEm390XXo"
  },
  {
    "name": "Quench Juice Bar",
    "address": "22 James St, Fortitude Valley QLD 4006, Australia",
    "suburb": "Fortitude Valley QLD 4006",
    "state": "QLD",
    "rating": 3.7,
    "reviews": 61,
    "lat": -27.4557787,
    "lng": 153.0392973,
    "place_id": "ChIJy8_JWY1ZkWsR63HDYJiUGfc",
    "maps_url": "https://www.google.com/maps/place/?q=place_id:ChIJy8_JWY1ZkWsR63HDYJiUGfc"
  },
  {
    "name": "Quench Juice Bar",
    "address": "76 Skyring Terrace, Newstead QLD 4006, Australia",
    "suburb": "Newstead QLD 4006",
    "state": "QLD",
    "rating": 3.8,
    "reviews": 71,
    "lat": -27.4504613,
    "lng": 153.0446057,
    "place_id": "ChIJQQvBoZZZkWsRTpgmzLq0f34",
    "maps_url": "https://www.google.com/maps/place/?q=place_id:ChIJQQvBoZZZkWsRTpgmzLq0f34"
  },
  {
    "name": "The Fat Carrot",
    "address": "179 Boundary St, West End QLD 4101, Australia",
    "suburb": "West End QLD 4101",
    "state": "QLD",
    "rating": 4.6,
    "reviews": 239,
    "lat": -27.4801921,
    "lng": 153.0120766,
    "place_id": "ChIJN5kzVKBQkWsRoBUjMvYp8RQ",
    "maps_url": "https://www.google.com/maps/place/?q=place_id:ChIJN5kzVKBQkWsRoBUjMvYp8RQ"
  },
  {
    "name": "Foladi Juice Point",
    "address": "Shop 3/365 Mortimer Rd, Acacia Ridge QLD 4110, Australia",
    "suburb": "Acacia Ridge QLD 4110",
    "state": "QLD",
    "rating": 4,
    "reviews": 92,
    "lat": -27.5799273,
    "lng": 153.0250112,
    "place_id": "ChIJJ_e_vtdFkWsR5QVoNygKIPA",
    "maps_url": "https://www.google.com/maps/place/?q=place_id:ChIJJ_e_vtdFkWsR5QVoNygKIPA"
  },
  {
    "name": "Insane Acai Bar Jindalee",
    "address": "Shop 49B DFO Amazons Pl, Jindalee QLD 4074, Australia",
    "suburb": "Jindalee QLD 4074",
    "state": "QLD",
    "rating": 4.7,
    "reviews": 66,
    "lat": -27.5313,
    "lng": 152.9481969,
    "place_id": "ChIJEeRPPSVRkWsRUcqqXCUOGLo",
    "maps_url": "https://www.google.com/maps/place/?q=place_id:ChIJEeRPPSVRkWsRUcqqXCUOGLo"
  },
  {
    "name": "Riverbar & Kitchen",
    "address": "71 Eagle St, Brisbane City QLD 4000, Australia",
    "suburb": "Brisbane City QLD 4000",
    "state": "QLD",
    "rating": 4.2,
    "reviews": 3095,
    "lat": -27.4681508,
    "lng": 153.0310188,
    "place_id": "ChIJ2QLaRBxakWsRHnTRui9Q1ho",
    "maps_url": "https://www.google.com/maps/place/?q=place_id:ChIJ2QLaRBxakWsRHnTRui9Q1ho"
  },
  {
    "name": "The Juice Box Vending Machine",
    "address": "255 Queen St, Brisbane City QLD 4000, Australia",
    "suburb": "Brisbane City QLD 4000",
    "state": "QLD",
    "rating": 4.5,
    "reviews": 8,
    "lat": -27.4685065,
    "lng": 153.0278193,
    "place_id": "ChIJzRGSCaZbkWsRk9Ez94f4KYY",
    "maps_url": "https://www.google.com/maps/place/?q=place_id:ChIJzRGSCaZbkWsRk9Ez94f4KYY"
  },
  {
    "name": "BUBBLEBOY",
    "address": "KIOSK/63 Skyring Terrace, Newstead QLD 4006, Australia",
    "suburb": "Newstead QLD 4006",
    "state": "QLD",
    "rating": 4.1,
    "reviews": 74,
    "lat": -27.4497207,
    "lng": 153.0433562,
    "place_id": "ChIJszidrRRZkWsRT9nGvyX-QIA",
    "maps_url": "https://www.google.com/maps/place/?q=place_id:ChIJszidrRRZkWsRT9nGvyX-QIA"
  },
  {
    "name": "Charlie's Raw Squeeze Clayfield",
    "address": "730 Sandgate Rd, Clayfield QLD 4011, Australia",
    "suburb": "Clayfield QLD 4011",
    "state": "QLD",
    "rating": 4.2,
    "reviews": 255,
    "lat": -27.4183702,
    "lng": 153.0551315,
    "place_id": "ChIJ9S2uKFFYkWsRC3QZ1GOQGCk",
    "maps_url": "https://www.google.com/maps/place/?q=place_id:ChIJ9S2uKFFYkWsRC3QZ1GOQGCk"
  },
  {
    "name": "Khan Juice Garden City",
    "address": "2120 Logan Rd, Upper Mount Gravatt QLD 4122, Australia",
    "suburb": "Upper Mount Gravatt QLD 4122",
    "state": "QLD",
    "rating": 3.7,
    "reviews": 218,
    "lat": -27.5608809,
    "lng": 153.0839496,
    "place_id": "ChIJCbjk4ABbkWsReBKzfU5v4lw",
    "maps_url": "https://www.google.com/maps/place/?q=place_id:ChIJCbjk4ABbkWsReBKzfU5v4lw"
  },
  {
    "name": "Bay Blends",
    "address": "1/155 Florence St, Wynnum QLD 4178, Australia",
    "suburb": "Wynnum QLD 4178",
    "state": "QLD",
    "rating": 4.8,
    "reviews": 142,
    "lat": -27.445003,
    "lng": 153.1712319,
    "place_id": "ChIJnYEdtrZfkWsRsruza4pQHug",
    "maps_url": "https://www.google.com/maps/place/?q=place_id:ChIJnYEdtrZfkWsRsruza4pQHug"
  },
  {
    "name": "The Fresh Bar by HR. PETTY.",
    "address": "2 Hooker Blvd, Broadbeach Waters QLD 4218, Australia",
    "suburb": "Broadbeach Waters QLD 4218",
    "state": "QLD",
    "rating": 4.2,
    "reviews": 70,
    "lat": -28.0371716,
    "lng": 153.4259745,
    "place_id": "ChIJKQszoPoEkWsRALJ3Ez5gpbY",
    "maps_url": "https://www.google.com/maps/place/?q=place_id:ChIJKQszoPoEkWsRALJ3Ez5gpbY"
  },
  {
    "name": "Tropicana Fresh",
    "address": "Unit 2/34 Hanlan St, Surfers Paradise QLD 4217, Australia",
    "suburb": "Surfers Paradise QLD 4217",
    "state": "QLD",
    "rating": 4.6,
    "reviews": 10,
    "lat": -28.0033336,
    "lng": 153.4295968,
    "place_id": "ChIJof1qJU4FkWsRNrgs3ciOwK0",
    "maps_url": "https://www.google.com/maps/place/?q=place_id:ChIJof1qJU4FkWsRNrgs3ciOwK0"
  },
  {
    "name": "The Fruit Shop Burleigh",
    "address": "5 James St, Burleigh Heads QLD 4220, Australia",
    "suburb": "Burleigh Heads QLD 4220",
    "state": "QLD",
    "rating": 4.5,
    "reviews": 157,
    "lat": -28.089348,
    "lng": 153.451461,
    "place_id": "ChIJNQNmU5cDkWsRmNq14ia4J1Y",
    "maps_url": "https://www.google.com/maps/place/?q=place_id:ChIJNQNmU5cDkWsRmNq14ia4J1Y"
  },
  {
    "name": "Helen's Heavenly Wholefoods Cafe",
    "address": "1/29 James St, Burleigh Heads QLD 4220, Australia",
    "suburb": "Burleigh Heads QLD 4220",
    "state": "QLD",
    "rating": 4.4,
    "reviews": 264,
    "lat": -28.0890744,
    "lng": 153.4507116,
    "place_id": "ChIJo0aUJpkDkWsRgyjNrKrBga4",
    "maps_url": "https://www.google.com/maps/place/?q=place_id:ChIJo0aUJpkDkWsRgyjNrKrBga4"
  },
  {
    "name": "Quench Juice Bar",
    "address": "107 Ferry Rd, Southport QLD 4215, Australia",
    "suburb": "Southport QLD 4215",
    "state": "QLD",
    "rating": 3.9,
    "reviews": 31,
    "lat": -27.980136,
    "lng": 153.4099833,
    "place_id": "ChIJqbTJ1lgFkWsRWR65EVxtYt4",
    "maps_url": "https://www.google.com/maps/place/?q=place_id:ChIJqbTJ1lgFkWsRWR65EVxtYt4"
  },
  {
    "name": "Crave On Chevron",
    "address": "52 Thomas Dr, Surfers Paradise QLD 4217, Australia",
    "suburb": "Surfers Paradise QLD 4217",
    "state": "QLD",
    "rating": 4.3,
    "reviews": 36,
    "lat": -27.9982304,
    "lng": 153.4194598,
    "place_id": "ChIJAV1Q9AsFkWsRWny6cW4CQJQ",
    "maps_url": "https://www.google.com/maps/place/?q=place_id:ChIJAV1Q9AsFkWsRWny6cW4CQJQ"
  },
  {
    "name": "Açai Point",
    "address": "The Oasis Broadbeach, 75 Surf Parade, Broadbeach QLD 4218, Australia",
    "suburb": "75 Surf Parade",
    "state": "QLD",
    "rating": 4.9,
    "reviews": 81,
    "lat": -28.0296428,
    "lng": 153.4325634,
    "place_id": "ChIJnWSFlckFkWsRdTXwT_y6neA",
    "maps_url": "https://www.google.com/maps/place/?q=place_id:ChIJnWSFlckFkWsRdTXwT_y6neA"
  },
  {
    "name": "Sandbar Surfers Paradise",
    "address": "52 Esplanade, Surfers Paradise QLD 4217, Australia",
    "suburb": "Surfers Paradise QLD 4217",
    "state": "QLD",
    "rating": 4.1,
    "reviews": 3472,
    "lat": -27.998942,
    "lng": 153.430619,
    "place_id": "ChIJ49XHfXEFkWsRWMIAB2R4GbI",
    "maps_url": "https://www.google.com/maps/place/?q=place_id:ChIJ49XHfXEFkWsRWMIAB2R4GbI"
  },
  {
    "name": "Saigon Baguette & Sugarcane Juice",
    "address": "3183 Surfers Paradise Blvd, Surfers Paradise QLD 4217, Australia",
    "suburb": "Surfers Paradise QLD 4217",
    "state": "QLD",
    "rating": 4.7,
    "reviews": 341,
    "lat": -27.9993226,
    "lng": 153.4288097,
    "place_id": "ChIJ62XP9tgFkWsRILaj1SpwGeY",
    "maps_url": "https://www.google.com/maps/place/?q=place_id:ChIJ62XP9tgFkWsRILaj1SpwGeY"
  },
  {
    "name": "Tonic Juice Co.",
    "address": "1/108 Dover Dr, Burleigh Heads QLD 4220, Australia",
    "suburb": "Burleigh Heads QLD 4220",
    "state": "QLD",
    "rating": 4.5,
    "reviews": 32,
    "lat": -28.1094387,
    "lng": 153.4255003,
    "place_id": "ChIJSfQ3axECkWsRrxlXYMp1QyQ",
    "maps_url": "https://www.google.com/maps/place/?q=place_id:ChIJSfQ3axECkWsRrxlXYMp1QyQ"
  },
  {
    "name": "Boost Juice Surfers Cavill",
    "address": "8 Cavill Ave, Surfers Paradise QLD 4217, Australia",
    "suburb": "Surfers Paradise QLD 4217",
    "state": "QLD",
    "rating": 3.4,
    "reviews": 184,
    "lat": -28.0023723,
    "lng": 153.4300067,
    "place_id": "ChIJCfp7uQ0FkWsRc8J84yLudnM",
    "maps_url": "https://www.google.com/maps/place/?q=place_id:ChIJCfp7uQ0FkWsRc8J84yLudnM"
  },
  {
    "name": "Protein Shake",
    "address": "110 Griffith St, Coolangatta QLD 4225, Australia",
    "suburb": "Coolangatta QLD 4225",
    "state": "QLD",
    "rating": 4.3,
    "reviews": 57,
    "lat": -28.1689769,
    "lng": 153.5398969,
    "place_id": "ChIJlU53ay4AkWsR8jT8ZEkAzGA",
    "maps_url": "https://www.google.com/maps/place/?q=place_id:ChIJlU53ay4AkWsR8jT8ZEkAzGA"
  },
  {
    "name": "Down 2 Earth Cafe",
    "address": "Shop 5/1114 Gold Coast Hwy, Palm Beach QLD 4221, Australia",
    "suburb": "Palm Beach QLD 4221",
    "state": "QLD",
    "rating": 3.8,
    "reviews": 120,
    "lat": -28.1220812,
    "lng": 153.4729094,
    "place_id": "ChIJK3f-xDICkWsR5X2il-SKhDw",
    "maps_url": "https://www.google.com/maps/place/?q=place_id:ChIJK3f-xDICkWsR5X2il-SKhDw"
  },
  {
    "name": "Brewlicious Cafe & Juice Bar/ Brewlicious Desserts",
    "address": "Shop 4/1 Brygon Creek Dr, Upper Coomera QLD 4209, Australia",
    "suburb": "Upper Coomera QLD 4209",
    "state": "QLD",
    "rating": 4.6,
    "reviews": 286,
    "lat": -27.869246,
    "lng": 153.2961818,
    "place_id": "ChIJ2Z822qoWkWsRgmjCSbNxhRM",
    "maps_url": "https://www.google.com/maps/place/?q=place_id:ChIJ2Z822qoWkWsRgmjCSbNxhRM"
  },
  {
    "name": "Bamba Juice Tea",
    "address": "109 Foxwell Rd, Coomera QLD 4209, Australia",
    "suburb": "Coomera QLD 4209",
    "state": "QLD",
    "rating": 4.3,
    "reviews": 42,
    "lat": -27.8533579,
    "lng": 153.3152774,
    "place_id": "ChIJ____b-wTkWsRHg09eJ3vufk",
    "maps_url": "https://www.google.com/maps/place/?q=place_id:ChIJ____b-wTkWsRHg09eJ3vufk"
  },
  {
    "name": "BUBBLEBOY",
    "address": "Sunshine Plaza, Shop K172/154-164 Horton Parade, Maroochydore QLD 4558, Australia",
    "suburb": "Shop K172/154-164 Horton Parade",
    "state": "QLD",
    "rating": 5,
    "reviews": 5,
    "lat": -26.6551269,
    "lng": 153.0876182,
    "place_id": "ChIJrw-dcsZ3k2sRUnk1DTXBWu8",
    "maps_url": "https://www.google.com/maps/place/?q=place_id:ChIJrw-dcsZ3k2sRUnk1DTXBWu8"
  },
  {
    "name": "Noosa Juicer",
    "address": "Bay Village, Unit 24/18 Hastings St, Noosa Heads QLD 4567, Australia",
    "suburb": "Unit 24/18 Hastings St",
    "state": "QLD",
    "rating": 4.5,
    "reviews": 111,
    "lat": -26.3866861,
    "lng": 153.0891824,
    "place_id": "ChIJLW56VZ5pk2sR9Afv7A6lI2A",
    "maps_url": "https://www.google.com/maps/place/?q=place_id:ChIJLW56VZ5pk2sR9Afv7A6lI2A"
  },
  {
    "name": "Quenchers",
    "address": "2/9-11 Sunshine Beach Rd, Noosa Heads QLD 4567, Australia",
    "suburb": "Noosa Heads QLD 4567",
    "state": "QLD",
    "rating": 4.7,
    "reviews": 97,
    "lat": -26.396694,
    "lng": 153.090379,
    "place_id": "ChIJD534xHNpk2sRQRTftE3Vssk",
    "maps_url": "https://www.google.com/maps/place/?q=place_id:ChIJD534xHNpk2sRQRTftE3Vssk"
  },
  {
    "name": "Mountain Juice & Coffee (Juice, Coffee, Smoothies & Snacks)",
    "address": "Jarnahill Dr, Mount Coolum QLD 4573, Australia",
    "suburb": "Mount Coolum QLD 4573",
    "state": "QLD",
    "rating": 5,
    "reviews": 48,
    "lat": -26.5619067,
    "lng": 153.0909256,
    "place_id": "ChIJ_-GsZeBxk2sR1Y3IUjw2TRE",
    "maps_url": "https://www.google.com/maps/place/?q=place_id:ChIJ_-GsZeBxk2sR1Y3IUjw2TRE"
  },
  {
    "name": "Blended Health Bar",
    "address": "Shop 4/18 Hastings St, Noosa Heads QLD 4567, Australia",
    "suburb": "Noosa Heads QLD 4567",
    "state": "QLD",
    "rating": 4,
    "reviews": 127,
    "lat": -26.386581,
    "lng": 153.089203,
    "place_id": "ChIJGYtXWJ5pk2sRu-HLr_hoklE",
    "maps_url": "https://www.google.com/maps/place/?q=place_id:ChIJGYtXWJ5pk2sRu-HLr_hoklE"
  },
  {
    "name": "Get Poked Mooloolaba",
    "address": "Shop 108, 59-75 Mooloolaba Espl, Mooloolaba QLD 4557, Australia",
    "suburb": "59-75 Mooloolaba Espl",
    "state": "QLD",
    "rating": 4.8,
    "reviews": 307,
    "lat": -26.6793899,
    "lng": 153.1194171,
    "place_id": "ChIJBbCBik51k2sROsUUCg13D88",
    "maps_url": "https://www.google.com/maps/place/?q=place_id:ChIJBbCBik51k2sROsUUCg13D88"
  },
  {
    "name": "Frocals",
    "address": "6/79 Edmund St, Kings Beach QLD 4551, Australia",
    "suburb": "Kings Beach QLD 4551",
    "state": "QLD",
    "rating": 4.1,
    "reviews": 211,
    "lat": -26.8020702,
    "lng": 153.1420023,
    "place_id": "ChIJib2waDCZk2sRDiKC44NdCOI",
    "maps_url": "https://www.google.com/maps/place/?q=place_id:ChIJib2waDCZk2sRDiKC44NdCOI"
  },
  {
    "name": "Sunshine Nutrition & Co",
    "address": "1 Moreton Parade, Kings Beach QLD 4551, Australia",
    "suburb": "Kings Beach QLD 4551",
    "state": "QLD",
    "rating": 4.8,
    "reviews": 25,
    "lat": -26.8007087,
    "lng": 153.1414544,
    "place_id": "ChIJC4_aYwCZk2sR0S3NRmZzd2c",
    "maps_url": "https://www.google.com/maps/place/?q=place_id:ChIJC4_aYwCZk2sR0S3NRmZzd2c"
  },
  {
    "name": "Boost Juice",
    "address": "Echelon, 10a/67 Bulcock St, Caloundra QLD 4551, Australia",
    "suburb": "10a/67 Bulcock St",
    "state": "QLD",
    "rating": 4.5,
    "reviews": 70,
    "lat": -26.804518,
    "lng": 153.131182,
    "place_id": "ChIJN2ybbEeZk2sRA9H9olhWRJg",
    "maps_url": "https://www.google.com/maps/place/?q=place_id:ChIJN2ybbEeZk2sRA9H9olhWRJg"
  },
  {
    "name": "Coca Bar | Cafe",
    "address": "Ground Level, Shop 516 Sunshine Plaza, 146-164 Horton Parade, Maroochydore QLD 4558, Australia",
    "suburb": "Shop 516 Sunshine Plaza",
    "state": "QLD",
    "rating": 4.8,
    "reviews": 705,
    "lat": -26.6552929,
    "lng": 153.0867178,
    "place_id": "ChIJzZ0v7-B3k2sRRpAhySUK3fY",
    "maps_url": "https://www.google.com/maps/place/?q=place_id:ChIJzZ0v7-B3k2sRRpAhySUK3fY"
  },
  {
    "name": "Crumbed or Naked",
    "address": "116/59 Mooloolaba Espl, Mooloolaba QLD 4557, Australia",
    "suburb": "Mooloolaba QLD 4557",
    "state": "QLD",
    "rating": 4.6,
    "reviews": 826,
    "lat": -26.6795503,
    "lng": 153.1195974,
    "place_id": "ChIJExz76Od1k2sRtsiTYNppuR0",
    "maps_url": "https://www.google.com/maps/place/?q=place_id:ChIJExz76Od1k2sRtsiTYNppuR0"
  },
  {
    "name": "Olakino Noosa Heads",
    "address": "Unit 4/52 Hastings St, Noosa Heads QLD 4567, Australia",
    "suburb": "Noosa Heads QLD 4567",
    "state": "QLD",
    "rating": 4.3,
    "reviews": 253,
    "lat": -26.3876077,
    "lng": 153.091693,
    "place_id": "ChIJ4dMB251pk2sReKOFWgeW9Kw",
    "maps_url": "https://www.google.com/maps/place/?q=place_id:ChIJ4dMB251pk2sReKOFWgeW9Kw"
  },
  {
    "name": "Boost Juice",
    "address": "Cnr Houghton & Sunshine Plaza, Shop K398 Sunshine Plaza, Maroochydore QLD 4558, Australia",
    "suburb": "Shop K398 Sunshine Plaza",
    "state": "QLD",
    "rating": 3.8,
    "reviews": 77,
    "lat": -26.655555,
    "lng": 153.0881367,
    "place_id": "ChIJ1eg72WB2k2sRHh2nS39ZBlE",
    "maps_url": "https://www.google.com/maps/place/?q=place_id:ChIJ1eg72WB2k2sRHh2nS39ZBlE"
  },
  {
    "name": "Coco Cantina & Co",
    "address": "1 Ridgeview Dr, Peregian Springs QLD 4573, Australia",
    "suburb": "Peregian Springs QLD 4573",
    "state": "QLD",
    "rating": 4.9,
    "reviews": 271,
    "lat": -26.4970356,
    "lng": 153.0795258,
    "place_id": "ChIJLcLLqe5vk2sROrfI8sai02w",
    "maps_url": "https://www.google.com/maps/place/?q=place_id:ChIJLcLLqe5vk2sROrfI8sai02w"
  },
  {
    "name": "Jungle Lab Caroline Springs",
    "address": "Shop 15/15 Lake St, Caroline Springs VIC 3023, Australia",
    "suburb": "Caroline Springs VIC 3023",
    "state": "QLD",
    "rating": 4.6,
    "reviews": 772,
    "lat": -37.7329631,
    "lng": 144.7413416,
    "place_id": "ChIJIV1SOln11moRGp0NIBAWNoc",
    "maps_url": "https://www.google.com/maps/place/?q=place_id:ChIJIV1SOln11moRGp0NIBAWNoc"
  },
  {
    "name": "Oakberry Acai Mooloolaba",
    "address": "19/13 Mooloolaba Espl, Mooloolaba QLD 4557, Australia",
    "suburb": "Mooloolaba QLD 4557",
    "state": "QLD",
    "rating": 4.5,
    "reviews": 84,
    "lat": -26.6806682,
    "lng": 153.1203663,
    "place_id": "ChIJyzdmK7p1k2sRuHta__fGFD0",
    "maps_url": "https://www.google.com/maps/place/?q=place_id:ChIJyzdmK7p1k2sRuHta__fGFD0"
  },
  {
    "name": "Boost Juice",
    "address": "Shop 21A/13 Mooloolaba Espl, Mooloolaba QLD 4557, Australia",
    "suburb": "Mooloolaba QLD 4557",
    "state": "QLD",
    "rating": 3.9,
    "reviews": 87,
    "lat": -26.6806276,
    "lng": 153.120191,
    "place_id": "ChIJ4Vuifuh1k2sRS18WY_jiuGk",
    "maps_url": "https://www.google.com/maps/place/?q=place_id:ChIJ4Vuifuh1k2sRS18WY_jiuGk"
  },
  {
    "name": "Kunara Organic Marketplace",
    "address": "330 Mons Rd, Forest Glen QLD 4556, Australia",
    "suburb": "Forest Glen QLD 4556",
    "state": "QLD",
    "rating": 4.4,
    "reviews": 1401,
    "lat": -26.68881,
    "lng": 153.00699,
    "place_id": "ChIJtaFm0LGCk2sRMpDo6XRrB4I",
    "maps_url": "https://www.google.com/maps/place/?q=place_id:ChIJtaFm0LGCk2sRMpDo6XRrB4I"
  },
  {
    "name": "Berry Good Coffee",
    "address": "1 Mooloolaba Espl, Mooloolaba QLD 4557, Australia",
    "suburb": "Mooloolaba QLD 4557",
    "state": "QLD",
    "rating": 4.6,
    "reviews": 79,
    "lat": -26.6814356,
    "lng": 153.1209823,
    "place_id": "ChIJyU85QIZ1k2sRcbPAeqmfEwo",
    "maps_url": "https://www.google.com/maps/place/?q=place_id:ChIJyU85QIZ1k2sRcbPAeqmfEwo"
  },
  {
    "name": "Mine",
    "address": "Shop 6/48-54 Duke St, Sunshine Beach QLD 4567, Australia",
    "suburb": "Sunshine Beach QLD 4567",
    "state": "QLD",
    "rating": 4.7,
    "reviews": 125,
    "lat": -26.4057173,
    "lng": 153.1107611,
    "place_id": "ChIJvTyjPthrk2sRgasmbpjI5gA",
    "maps_url": "https://www.google.com/maps/place/?q=place_id:ChIJvTyjPthrk2sRgasmbpjI5gA"
  },
  {
    "name": "Squeeze Me North Ward",
    "address": "Shop 2/42 Mitchell St, North Ward QLD 4810, Australia",
    "suburb": "North Ward QLD 4810",
    "state": "QLD",
    "rating": 4.4,
    "reviews": 137,
    "lat": -19.2510344,
    "lng": 146.8139395,
    "place_id": "ChIJlT6lDMT41WsRU6qYGjY2pMc",
    "maps_url": "https://www.google.com/maps/place/?q=place_id:ChIJlT6lDMT41WsRU6qYGjY2pMc"
  },
  {
    "name": "The Beet Bar",
    "address": "21 Stokes St, Townsville City QLD 4810, Australia",
    "suburb": "Townsville City QLD 4810",
    "state": "QLD",
    "rating": 4.3,
    "reviews": 449,
    "lat": -19.258998,
    "lng": 146.8164612,
    "place_id": "ChIJT0wF0tv41WsRxRqP0uJ8a6M",
    "maps_url": "https://www.google.com/maps/place/?q=place_id:ChIJT0wF0tv41WsRxRqP0uJ8a6M"
  },
  {
    "name": "High Vibes Nutrition",
    "address": "280 Flinders St Ground Floor, Northtown Centre, Townsville City QLD 4810, Australia",
    "suburb": "Northtown Centre",
    "state": "QLD",
    "rating": 4.6,
    "reviews": 29,
    "lat": -19.2591381,
    "lng": 146.8177801,
    "place_id": "ChIJO53yaiH51WsRmiG8KmAaUzM",
    "maps_url": "https://www.google.com/maps/place/?q=place_id:ChIJO53yaiH51WsRmiG8KmAaUzM"
  },
  {
    "name": "Boost Juice Townsville Shopping Centre",
    "address": "Townsvile Shopping Centre, Kiosk 21/310-330 Ross River Rd, Aitkenvale QLD 4814, Australia",
    "suburb": "Kiosk 21/310-330 Ross River Rd",
    "state": "QLD",
    "rating": 4.1,
    "reviews": 48,
    "lat": -19.2999932,
    "lng": 146.7624256,
    "place_id": "ChIJOxoF7h_61WsR97Y0k51_w70",
    "maps_url": "https://www.google.com/maps/place/?q=place_id:ChIJOxoF7h_61WsR97Y0k51_w70"
  },
  {
    "name": "Happy Place",
    "address": "62 The Strand, North Ward QLD 4810, Australia",
    "suburb": "North Ward QLD 4810",
    "state": "QLD",
    "rating": 4.6,
    "reviews": 300,
    "lat": -19.249463,
    "lng": 146.8139629,
    "place_id": "ChIJz0B4Gj_51WsRPzV5GNAzcn4",
    "maps_url": "https://www.google.com/maps/place/?q=place_id:ChIJz0B4Gj_51WsRPzV5GNAzcn4"
  },
  {
    "name": "The Spirited Goat ‘The Strand’",
    "address": "62 The Strand, Townsville City QLD 4810, Australia",
    "suburb": "Townsville City QLD 4810",
    "state": "QLD",
    "rating": 4.2,
    "reviews": 322,
    "lat": -19.2494591,
    "lng": 146.8139576,
    "place_id": "ChIJ0Vvmnd_51WsR-HJc5moXIa4",
    "maps_url": "https://www.google.com/maps/place/?q=place_id:ChIJ0Vvmnd_51WsR-HJc5moXIa4"
  },
  {
    "name": "Boost Juice Castletown",
    "address": "K6, Castletown Shopping Centre, Hyde Park QLD 4812, Australia",
    "suburb": "Castletown Shopping Centre",
    "state": "QLD",
    "rating": 4.1,
    "reviews": 57,
    "lat": -19.2718195,
    "lng": 146.7907146,
    "place_id": "ChIJI79Vm9L51WsRWVD1gdLz2Ng",
    "maps_url": "https://www.google.com/maps/place/?q=place_id:ChIJI79Vm9L51WsRWVD1gdLz2Ng"
  },
  {
    "name": "Rayyan Cafe",
    "address": "83 Esplanade, Cairns City QLD 4870, Australia",
    "suburb": "Cairns City QLD 4870",
    "state": "QLD",
    "rating": 4.8,
    "reviews": 277,
    "lat": -16.9194822,
    "lng": 145.7767799,
    "place_id": "ChIJF275NgBneGkR3Zm4jyl9edg",
    "maps_url": "https://www.google.com/maps/place/?q=place_id:ChIJF275NgBneGkR3Zm4jyl9edg"
  },
  {
    "name": "The Mango Bar",
    "address": "103/60 Abbott St, Cairns City QLD 4870, Australia",
    "suburb": "Cairns City QLD 4870",
    "state": "QLD",
    "rating": 4.8,
    "reviews": 79,
    "lat": -16.9204483,
    "lng": 145.7764002,
    "place_id": "ChIJYyuIpuFneGkRAhy9ZayA4FU",
    "maps_url": "https://www.google.com/maps/place/?q=place_id:ChIJYyuIpuFneGkRAhy9ZayA4FU"
  },
  {
    "name": "Wild Vibes Nutrition",
    "address": "Shop B/83 Esplanade, Cairns City QLD 4870, Australia",
    "suburb": "Cairns City QLD 4870",
    "state": "QLD",
    "rating": 4.3,
    "reviews": 65,
    "lat": -16.9196231,
    "lng": 145.7766207,
    "place_id": "ChIJe1rGVpJneGkRb1fyDwQAvPg",
    "maps_url": "https://www.google.com/maps/place/?q=place_id:ChIJe1rGVpJneGkRb1fyDwQAvPg"
  },
  {
    "name": "Tropi Juicy Sugarcane",
    "address": "54-60 Abbott St, Cairns City QLD 4870, Australia",
    "suburb": "Cairns City QLD 4870",
    "state": "QLD",
    "rating": 4.8,
    "reviews": 18,
    "lat": -16.9200455,
    "lng": 145.777036,
    "place_id": "ChIJ2725WQBneGkRHZRtbZ7OZi4",
    "maps_url": "https://www.google.com/maps/place/?q=place_id:ChIJ2725WQBneGkRHZRtbZ7OZi4"
  },
  {
    "name": "Snoogies",
    "address": "Main Arcade, 82 Grafton St, Cairns City QLD 4870, Australia",
    "suburb": "82 Grafton St",
    "state": "QLD",
    "rating": 4.8,
    "reviews": 252,
    "lat": -16.9229611,
    "lng": 145.7757722,
    "place_id": "ChIJf7Nf54VmeGkRSOLfoglUKN4",
    "maps_url": "https://www.google.com/maps/place/?q=place_id:ChIJf7Nf54VmeGkRSOLfoglUKN4"
  },
  {
    "name": "Mr Green's",
    "address": "T2 Domestic Terminal, 2 Airport Ave, Cairns City QLD 4870, Australia",
    "suburb": "2 Airport Ave",
    "state": "QLD",
    "rating": 3.8,
    "reviews": 114,
    "lat": -16.8768412,
    "lng": 145.7534876,
    "place_id": "ChIJ8UK7GZxleGkRcROP69IP_qY",
    "maps_url": "https://www.google.com/maps/place/?q=place_id:ChIJ8UK7GZxleGkRcROP69IP_qY"
  },
  {
    "name": "Mooz Gelato & Juice Bar",
    "address": "5/2 Pier Point Rd, Cairns City QLD 4870, Australia",
    "suburb": "Cairns City QLD 4870",
    "state": "QLD",
    "rating": 4.2,
    "reviews": 354,
    "lat": -16.9184805,
    "lng": 145.7804847,
    "place_id": "ChIJ4z0DKfNmeGkRxImsN0EBncQ",
    "maps_url": "https://www.google.com/maps/place/?q=place_id:ChIJ4z0DKfNmeGkRxImsN0EBncQ"
  },
  {
    "name": "Crave Cairns",
    "address": "117a Abbott St, Cairns City QLD 4870, Australia",
    "suburb": "Cairns City QLD 4870",
    "state": "QLD",
    "rating": 4.3,
    "reviews": 746,
    "lat": -16.9212646,
    "lng": 145.776543,
    "place_id": "ChIJ2RqicJJmeGkRFFE4taP9GdA",
    "maps_url": "https://www.google.com/maps/place/?q=place_id:ChIJ2RqicJJmeGkRFFE4taP9GdA"
  },
  {
    "name": "The Beach Hut Cafe & Juice Bar",
    "address": "Shop 1B 2/22 Veivers Rd, Palm Cove QLD 4879, Australia",
    "suburb": "Palm Cove QLD 4879",
    "state": "QLD",
    "rating": 4.6,
    "reviews": 216,
    "lat": -16.7493677,
    "lng": 145.6707767,
    "place_id": "ChIJDXP62-lteGkR4E2i7H_YlQ0",
    "maps_url": "https://www.google.com/maps/place/?q=place_id:ChIJDXP62-lteGkR4E2i7H_YlQ0"
  },
  {
    "name": "Rusty’s Juice & Smoothie Bar",
    "address": "54 Sheridan St, Cairns City QLD 4870, Australia",
    "suburb": "Cairns City QLD 4870",
    "state": "QLD",
    "rating": 3.8,
    "reviews": 6,
    "lat": -16.9247343,
    "lng": 145.7748494,
    "place_id": "ChIJpRDypDZneGkRsoqsnHJX_z0",
    "maps_url": "https://www.google.com/maps/place/?q=place_id:ChIJpRDypDZneGkRsoqsnHJX_z0"
  },
  {
    "name": "Fruibies Organic Juice Bar & Cafe Kuranda, Cairns",
    "address": "Cafe, Shop 16, 1/3 Coondoo St, Kuranda QLD 4881, Australia",
    "suburb": "Shop 16",
    "state": "QLD",
    "rating": 3.8,
    "reviews": 273,
    "lat": -16.8198831,
    "lng": 145.6342112,
    "place_id": "ChIJIe1uIF1weGkR6h-jXRVYMFI",
    "maps_url": "https://www.google.com/maps/place/?q=place_id:ChIJIe1uIF1weGkR6h-jXRVYMFI"
  },
  {
    "name": "P.T.N Sugarcane juice & Coconut",
    "address": "78 Sheridan St, Cairns City QLD 4870, Australia",
    "suburb": "Cairns City QLD 4870",
    "state": "QLD",
    "rating": 4.9,
    "reviews": 25,
    "lat": -16.9239541,
    "lng": 145.7742003,
    "place_id": "ChIJxZrnX5FmeGkRfuPcg6yo_ks",
    "maps_url": "https://www.google.com/maps/place/?q=place_id:ChIJxZrnX5FmeGkRfuPcg6yo_ks"
  },
  {
    "name": "Ozmosis Café Trattoria Bar",
    "address": "1/116 Collins Ave, Edge Hill QLD 4870, Australia",
    "suburb": "Edge Hill QLD 4870",
    "state": "QLD",
    "rating": 4.3,
    "reviews": 1268,
    "lat": -16.9001457,
    "lng": 145.7445031,
    "place_id": "ChIJWWRP0M1leGkRy_epySvGYd0",
    "maps_url": "https://www.google.com/maps/place/?q=place_id:ChIJWWRP0M1leGkRy_epySvGYd0"
  },
  {
    "name": "100% Juice Bar",
    "address": "Rusty's Markets, Sheridan St, Cairns City QLD 4870, Australia",
    "suburb": "Sheridan St",
    "state": "QLD",
    "rating": 5,
    "reviews": 1,
    "lat": -16.9241522,
    "lng": 145.7743524,
    "place_id": "ChIJmWCgFO1neGkR9Wdk_LzYvI0",
    "maps_url": "https://www.google.com/maps/place/?q=place_id:ChIJmWCgFO1neGkR9Wdk_LzYvI0"
  },
  {
    "name": "Pantry 15",
    "address": "15/62 Grafton St, Cairns City QLD 4870, Australia",
    "suburb": "Cairns City QLD 4870",
    "state": "QLD",
    "rating": 4.3,
    "reviews": 484,
    "lat": -16.9238763,
    "lng": 145.7758347,
    "place_id": "ChIJ-SC2t5NmeGkRgRu8YFEgUBs",
    "maps_url": "https://www.google.com/maps/place/?q=place_id:ChIJ-SC2t5NmeGkRgRu8YFEgUBs"
  },
  {
    "name": "Amazeal Acai Bar",
    "address": "Rusty's Markets, Shop 3/89 Grafton St, Cairns City QLD 4870, Australia",
    "suburb": "Shop 3/89 Grafton St",
    "state": "QLD",
    "rating": 5,
    "reviews": 163,
    "lat": -16.9244505,
    "lng": 145.7749952,
    "place_id": "ChIJQz84fJxneGkRngRVHmuuhPY",
    "maps_url": "https://www.google.com/maps/place/?q=place_id:ChIJQz84fJxneGkRngRVHmuuhPY"
  },
  {
    "name": "Boost Juice",
    "address": "1 McLeod St, Cairns City QLD 4870, Australia",
    "suburb": "Cairns City QLD 4870",
    "state": "QLD",
    "rating": 3.8,
    "reviews": 79,
    "lat": -16.9241863,
    "lng": 145.7717962,
    "place_id": "ChIJwUkZopNmeGkRKougkZwgUjA",
    "maps_url": "https://www.google.com/maps/place/?q=place_id:ChIJwUkZopNmeGkRKougkZwgUjA"
  },
  {
    "name": "La Isla Fresh Juice",
    "address": "Kiosc 1 From Woolworths, 150 Butler Blvd, Butler WA 6036, Australia",
    "suburb": "150 Butler Blvd",
    "state": "WA",
    "rating": 5,
    "reviews": 151,
    "lat": -31.636714,
    "lng": 115.6994521,
    "place_id": "ChIJBZK52AxXzSsRQXR1WRAIAh8",
    "maps_url": "https://www.google.com/maps/place/?q=place_id:ChIJBZK52AxXzSsRQXR1WRAIAh8"
  },
  {
    "name": "Java Juice",
    "address": "863 Hay St, Perth WA 6000, Australia",
    "suburb": "Perth WA 6000",
    "state": "WA",
    "rating": 4.2,
    "reviews": 94,
    "lat": -31.9526114,
    "lng": 115.8536105,
    "place_id": "ChIJFZ0I-DC7MioRykU9OC9eCbQ",
    "maps_url": "https://www.google.com/maps/place/?q=place_id:ChIJFZ0I-DC7MioRykU9OC9eCbQ"
  },
  {
    "name": "Joe's Juice Joint",
    "address": "232-234 William St, Northbridge WA 6000, Australia",
    "suburb": "Northbridge WA 6000",
    "state": "WA",
    "rating": 4.2,
    "reviews": 381,
    "lat": -31.948517,
    "lng": 115.8601117,
    "place_id": "ChIJ9bUCFNG6MioRkM4n2qH9S2g",
    "maps_url": "https://www.google.com/maps/place/?q=place_id:ChIJ9bUCFNG6MioRkM4n2qH9S2g"
  },
  {
    "name": "Pure + NOOD",
    "address": "123 Angove St, North Perth WA 6006, Australia",
    "suburb": "North Perth WA 6006",
    "state": "WA",
    "rating": 4.9,
    "reviews": 47,
    "lat": -31.9281645,
    "lng": 115.8532162,
    "place_id": "ChIJhyXlI7O6MioRTrVCExOWMzU",
    "maps_url": "https://www.google.com/maps/place/?q=place_id:ChIJhyXlI7O6MioRTrVCExOWMzU"
  },
  {
    "name": "Pressed Earth Shop",
    "address": "5/24 St Quentin Ave, Claremont WA 6010, Australia",
    "suburb": "Claremont WA 6010",
    "state": "WA",
    "rating": 4.7,
    "reviews": 58,
    "lat": -31.9830205,
    "lng": 115.779618,
    "place_id": "ChIJF0gnjTekMioRBo-NtI7wpQ4",
    "maps_url": "https://www.google.com/maps/place/?q=place_id:ChIJF0gnjTekMioRBo-NtI7wpQ4"
  },
  {
    "name": "The Juicist",
    "address": "Unit 6/29 Opportunity St, Wangara WA 6065, Australia",
    "suburb": "Wangara WA 6065",
    "state": "WA",
    "rating": 4.8,
    "reviews": 67,
    "lat": -31.79202099999999,
    "lng": 115.8396947,
    "place_id": "ChIJ4zHGJtS6MioRdaDASZYbSVI",
    "maps_url": "https://www.google.com/maps/place/?q=place_id:ChIJ4zHGJtS6MioRdaDASZYbSVI"
  },
  {
    "name": "LaBuda Juice Bar",
    "address": "Shop 3/109 Flora Terrace, North Beach WA 6020, Australia",
    "suburb": "North Beach WA 6020",
    "state": "WA",
    "rating": 4.2,
    "reviews": 116,
    "lat": -31.8560679,
    "lng": 115.7543386,
    "place_id": "ChIJt9VEflSpMioR6e9nwRhZ2jA",
    "maps_url": "https://www.google.com/maps/place/?q=place_id:ChIJt9VEflSpMioR6e9nwRhZ2jA"
  },
  {
    "name": "Boost Juice Raine Square",
    "address": "Raine Square Shopping Centre, 300 Murray Street Mall, Perth WA 6000, Australia",
    "suburb": "300 Murray Street Mall",
    "state": "WA",
    "rating": 3.7,
    "reviews": 68,
    "lat": -31.951643,
    "lng": 115.857339,
    "place_id": "ChIJQXyYHUK7MioR2-hDiKyB5f8",
    "maps_url": "https://www.google.com/maps/place/?q=place_id:ChIJQXyYHUK7MioR2-hDiKyB5f8"
  },
  {
    "name": "Inner Ego",
    "address": "92 Howe St, Osborne Park WA 6017, Australia",
    "suburb": "Osborne Park WA 6017",
    "state": "WA",
    "rating": 4.9,
    "reviews": 41,
    "lat": -31.9082582,
    "lng": 115.8155517,
    "place_id": "ChIJRfwrE5GwMioRXsbxaQ-6U5c",
    "maps_url": "https://www.google.com/maps/place/?q=place_id:ChIJRfwrE5GwMioRXsbxaQ-6U5c"
  },
  {
    "name": "Boost Juice Perth Train Station",
    "address": "City Station Concourse, Shop 5A/378 Wellington St, Perth WA 6000, Australia",
    "suburb": "Shop 5A/378 Wellington St",
    "state": "WA",
    "rating": 3.8,
    "reviews": 99,
    "lat": -31.951422,
    "lng": 115.8603633,
    "place_id": "ChIJEdDyCI67MioRyThVe8nNaw8",
    "maps_url": "https://www.google.com/maps/place/?q=place_id:ChIJEdDyCI67MioRyThVe8nNaw8"
  },
  {
    "name": "Planet Point",
    "address": "12/222-226 Belmont Ave, Cloverdale WA 6105, Australia",
    "suburb": "Cloverdale WA 6105",
    "state": "WA",
    "rating": 4,
    "reviews": 346,
    "lat": -31.9659979,
    "lng": 115.9331692,
    "place_id": "ChIJ68-Mqsm7MioRj0ndAoGZVdY",
    "maps_url": "https://www.google.com/maps/place/?q=place_id:ChIJ68-Mqsm7MioRj0ndAoGZVdY"
  },
  {
    "name": "CRU Health + Juice Bar",
    "address": "72 Pantheon Ave, North Coogee WA 6163, Australia",
    "suburb": "North Coogee WA 6163",
    "state": "WA",
    "rating": 4.4,
    "reviews": 121,
    "lat": -32.1022556,
    "lng": 115.761885,
    "place_id": "ChIJ4RPnayqjMioRDKddJ1P1BnY",
    "maps_url": "https://www.google.com/maps/place/?q=place_id:ChIJ4RPnayqjMioRDKddJ1P1BnY"
  },
  {
    "name": "99 Shades of Green",
    "address": "111 St Georges Terrace, Perth WA 6000, Australia",
    "suburb": "Perth WA 6000",
    "state": "WA",
    "rating": 4.4,
    "reviews": 144,
    "lat": -31.9546224,
    "lng": 115.8557971,
    "place_id": "ChIJYbpI9dG7MioRd8SAqMxKydk",
    "maps_url": "https://www.google.com/maps/place/?q=place_id:ChIJYbpI9dG7MioRd8SAqMxKydk"
  },
  {
    "name": "Fresh Juice & Gelato",
    "address": "1382 Albany Hwy, Cannington WA 6107, Australia",
    "suburb": "Cannington WA 6107",
    "state": "WA",
    "rating": 4.5,
    "reviews": 118,
    "lat": -32.0179596,
    "lng": 115.9378436,
    "place_id": "ChIJd88fBvC9MioR1Qq3wS0VKVY",
    "maps_url": "https://www.google.com/maps/place/?q=place_id:ChIJd88fBvC9MioR1Qq3wS0VKVY"
  },
  {
    "name": "Refresh Juice Perth",
    "address": "2/15 Walters Dr, Osborne Park WA 6017, Australia",
    "suburb": "Osborne Park WA 6017",
    "state": "WA",
    "rating": 4.8,
    "reviews": 17,
    "lat": -31.9079787,
    "lng": 115.8077449,
    "place_id": "ChIJXbQTxna8MioRU1EWQeqFSDc",
    "maps_url": "https://www.google.com/maps/place/?q=place_id:ChIJXbQTxna8MioRU1EWQeqFSDc"
  },
  {
    "name": "The Acai Corner",
    "address": "6/172 St Brigids Terrace, Scarborough WA 6019, Australia",
    "suburb": "Scarborough WA 6019",
    "state": "WA",
    "rating": 4.5,
    "reviews": 90,
    "lat": -31.8977447,
    "lng": 115.7749698,
    "place_id": "ChIJ35wzPk-vMioR8IBwDtQs8ko",
    "maps_url": "https://www.google.com/maps/place/?q=place_id:ChIJ35wzPk-vMioR8IBwDtQs8ko"
  },
  {
    "name": "Little Cultures",
    "address": "51 Rokeby Rd, Subiaco WA 6008, Australia",
    "suburb": "Subiaco WA 6008",
    "state": "WA",
    "rating": 4.4,
    "reviews": 169,
    "lat": -31.9467394,
    "lng": 115.8238849,
    "place_id": "ChIJV87RGRSlMioRXfxyHtzVjj0",
    "maps_url": "https://www.google.com/maps/place/?q=place_id:ChIJV87RGRSlMioRXfxyHtzVjj0"
  },
  {
    "name": "Gemini",
    "address": "Level 1/66 St Georges Terrace, Perth WA 6000, Australia",
    "suburb": "Perth WA 6000",
    "state": "WA",
    "rating": 4,
    "reviews": 597,
    "lat": -31.9551848,
    "lng": 115.8585797,
    "place_id": "ChIJq9L0yqi7MioRGXprJiqlSFI",
    "maps_url": "https://www.google.com/maps/place/?q=place_id:ChIJq9L0yqi7MioRGXprJiqlSFI"
  },
  {
    "name": "Boost Juice Joondalup",
    "address": "K17, Lakeside Joondalup Shopping City, 420 Joondalup Dr, Joondalup WA 6027, Australia",
    "suburb": "Lakeside Joondalup Shopping City",
    "state": "WA",
    "rating": 3.7,
    "reviews": 177,
    "lat": -31.7439728,
    "lng": 115.7675269,
    "place_id": "ChIJt0pil11TzSsRXzA_4XQs55c",
    "maps_url": "https://www.google.com/maps/place/?q=place_id:ChIJt0pil11TzSsRXzA_4XQs55c"
  },
  {
    "name": "Juice Palace Fremantle",
    "address": "South Beach Dog Exercise Area, Marine Terrace, South Fremantle WA 6162, Australia",
    "suburb": "Marine Terrace",
    "state": "WA",
    "rating": 4.8,
    "reviews": 20,
    "lat": -32.0708081,
    "lng": 115.749878,
    "place_id": "ChIJt9I1awChMioR5j1ZmkutDTs",
    "maps_url": "https://www.google.com/maps/place/?q=place_id:ChIJt9I1awChMioR5j1ZmkutDTs"
  },
  {
    "name": "Pure and Healthy",
    "address": "313 Stock Rd, O'Connor WA 6163, Australia",
    "suburb": "O'Connor WA 6163",
    "state": "WA",
    "rating": 5,
    "reviews": 12,
    "lat": -32.0558759,
    "lng": 115.7931755,
    "place_id": "ChIJg0d0oVKiMioR8I-1XQVKBy0",
    "maps_url": "https://www.google.com/maps/place/?q=place_id:ChIJg0d0oVKiMioR8I-1XQVKBy0"
  },
  {
    "name": "Third Wheel Café Fremantle",
    "address": "18 Collie St, Fremantle WA 6160, Australia",
    "suburb": "Fremantle WA 6160",
    "state": "WA",
    "rating": 4.7,
    "reviews": 51,
    "lat": -32.0564084,
    "lng": 115.7464942,
    "place_id": "ChIJ8Rjl8fWhMioR0KfZwEYbXQo",
    "maps_url": "https://www.google.com/maps/place/?q=place_id:ChIJ8Rjl8fWhMioR0KfZwEYbXQo"
  },
  {
    "name": "The Salty Beetroot",
    "address": "Unit 6/177 High St, Fremantle WA 6160, Australia",
    "suburb": "Fremantle WA 6160",
    "state": "WA",
    "rating": 4.9,
    "reviews": 136,
    "lat": -32.0536377,
    "lng": 115.7495257,
    "place_id": "ChIJ1-4xCACXMioR-55id52zCl8",
    "maps_url": "https://www.google.com/maps/place/?q=place_id:ChIJ1-4xCACXMioR-55id52zCl8"
  },
  {
    "name": "Delish Fast Nutrition",
    "address": "4b/27-35 William St, Fremantle WA 6160, Australia",
    "suburb": "Fremantle WA 6160",
    "state": "WA",
    "rating": 3.9,
    "reviews": 51,
    "lat": -32.0548331,
    "lng": 115.7480361,
    "place_id": "ChIJS8-8m8mhMioRbETjukU6Hnk",
    "maps_url": "https://www.google.com/maps/place/?q=place_id:ChIJS8-8m8mhMioRbETjukU6Hnk"
  },
  {
    "name": "Manna Wholefoods & Cafe",
    "address": "274 South Terrace, South Fremantle WA 6162, Australia",
    "suburb": "South Fremantle WA 6162",
    "state": "WA",
    "rating": 4.6,
    "reviews": 306,
    "lat": -32.0657921,
    "lng": 115.7526169,
    "place_id": "ChIJK7dTmoGhMioRyvYFHZ5axsM",
    "maps_url": "https://www.google.com/maps/place/?q=place_id:ChIJK7dTmoGhMioRyvYFHZ5axsM"
  },
  {
    "name": "Raw Raw Raw",
    "address": "74 South Terrace, Fremantle WA 6160, Australia",
    "suburb": "Fremantle WA 6160",
    "state": "WA",
    "rating": 4.7,
    "reviews": 40,
    "lat": -32.0558191,
    "lng": 115.7497972,
    "place_id": "ChIJJxbOP_mjMioRz79Tt_GjXnc",
    "maps_url": "https://www.google.com/maps/place/?q=place_id:ChIJJxbOP_mjMioRz79Tt_GjXnc"
  },
  {
    "name": "Big Easy South Freo",
    "address": "306 South Terrace, South Fremantle WA 6162, Australia",
    "suburb": "South Fremantle WA 6162",
    "state": "WA",
    "rating": 4.7,
    "reviews": 63,
    "lat": -32.0675094,
    "lng": 115.7527123,
    "place_id": "ChIJC-PXun6hMioR-dAMUYx6jYI",
    "maps_url": "https://www.google.com/maps/place/?q=place_id:ChIJC-PXun6hMioR-dAMUYx6jYI"
  },
  {
    "name": "The Old Synagogue",
    "address": "92 South Terrace, Fremantle WA 6160, Australia",
    "suburb": "Fremantle WA 6160",
    "state": "WA",
    "rating": 4.4,
    "reviews": 728,
    "lat": -32.0568748,
    "lng": 115.7497036,
    "place_id": "ChIJLXKfshqhMioRfDwIgYcmWdY",
    "maps_url": "https://www.google.com/maps/place/?q=place_id:ChIJLXKfshqhMioRfDwIgYcmWdY"
  },
  {
    "name": "Wild in the Street",
    "address": "2/388 South Terrace, Fremantle WA 6162, Australia",
    "suburb": "Fremantle WA 6162",
    "state": "WA",
    "rating": 4.7,
    "reviews": 226,
    "lat": -32.0723767,
    "lng": 115.7532906,
    "place_id": "ChIJ9XUYyk2hMioR7jIw4ptXzTE",
    "maps_url": "https://www.google.com/maps/place/?q=place_id:ChIJ9XUYyk2hMioR7jIw4ptXzTE"
  },
  {
    "name": "Boost Juice",
    "address": "Tenancy 1/2 Adelaide St, Fremantle WA 6160, Australia",
    "suburb": "Fremantle WA 6160",
    "state": "WA",
    "rating": 3.7,
    "reviews": 130,
    "lat": -32.0540818,
    "lng": 115.7473437,
    "place_id": "ChIJeQFsv3qhMioRy2ruM6Oh_fc",
    "maps_url": "https://www.google.com/maps/place/?q=place_id:ChIJeQFsv3qhMioRy2ruM6Oh_fc"
  },
  {
    "name": "Ocean Vibes Nutrition",
    "address": "4/3b Smart St, Mandurah WA 6210, Australia",
    "suburb": "Mandurah WA 6210",
    "state": "WA",
    "rating": 4.1,
    "reviews": 18,
    "lat": -32.5336369,
    "lng": 115.7199591,
    "place_id": "ChIJy7y6iTl_MioR6uBxhqbfB4o",
    "maps_url": "https://www.google.com/maps/place/?q=place_id:ChIJy7y6iTl_MioR6uBxhqbfB4o"
  },
  {
    "name": "Coco Loco Mandurah",
    "address": "38 Mandurah Terrace, Mandurah WA 6210, Australia",
    "suburb": "Mandurah WA 6210",
    "state": "WA",
    "rating": 3.9,
    "reviews": 34,
    "lat": -32.5324738,
    "lng": 115.7198893,
    "place_id": "ChIJd5ahXAt_MioRY0NzWZzAqpg",
    "maps_url": "https://www.google.com/maps/place/?q=place_id:ChIJd5ahXAt_MioRY0NzWZzAqpg"
  },
  {
    "name": "Boost Juice Mandurah",
    "address": "Unit 10/330 Pinjarra Rd, Mandurah WA 6210, Australia",
    "suburb": "Mandurah WA 6210",
    "state": "WA",
    "rating": 4.1,
    "reviews": 98,
    "lat": -32.5352406,
    "lng": 115.7417005,
    "place_id": "ChIJXQWSOEx5MioR0a8VG5CZJbA",
    "maps_url": "https://www.google.com/maps/place/?q=place_id:ChIJXQWSOEx5MioR0a8VG5CZJbA"
  },
  {
    "name": "Slurp on Victoria Street",
    "address": "133 Victoria St, Bunbury WA 6230, Australia",
    "suburb": "Bunbury WA 6230",
    "state": "WA",
    "rating": 4.9,
    "reviews": 34,
    "lat": -33.3254499,
    "lng": 115.6367526,
    "place_id": "ChIJcTab03gdLioREkmc3V2lcWo",
    "maps_url": "https://www.google.com/maps/place/?q=place_id:ChIJcTab03gdLioREkmc3V2lcWo"
  },
  {
    "name": "Bahlu Coffee & Acai Bar",
    "address": "62A Beach Rd, Bunbury WA 6230, Australia",
    "suburb": "Bunbury WA 6230",
    "state": "WA",
    "rating": 4.8,
    "reviews": 154,
    "lat": -33.3361874,
    "lng": 115.6344816,
    "place_id": "ChIJR5WOo7EdLioRDpcI4Xc2Lec",
    "maps_url": "https://www.google.com/maps/place/?q=place_id:ChIJR5WOo7EdLioRDpcI4Xc2Lec"
  },
  {
    "name": "Boost Juice Bunbury Forum",
    "address": "63 Sandridge Rd, East Bunbury WA 6230, Australia",
    "suburb": "East Bunbury WA 6230",
    "state": "WA",
    "rating": 4,
    "reviews": 25,
    "lat": -33.3367755,
    "lng": 115.6595711,
    "place_id": "ChIJS7TDIWMdLioR1Q6rJvOxFss",
    "maps_url": "https://www.google.com/maps/place/?q=place_id:ChIJS7TDIWMdLioR1Q6rJvOxFss"
  },
  {
    "name": "The Plant Organic Vitality Market & Wellness Bar",
    "address": "SHOP 1/20 Stephen St, Bunbury WA 6230, Australia",
    "suburb": "Bunbury WA 6230",
    "state": "WA",
    "rating": 4.6,
    "reviews": 102,
    "lat": -33.3260564,
    "lng": 115.6378266,
    "place_id": "ChIJB1bKvzgdLioR8O5n0iz1PE8",
    "maps_url": "https://www.google.com/maps/place/?q=place_id:ChIJB1bKvzgdLioR8O5n0iz1PE8"
  },
  {
    "name": "Mayde Health",
    "address": "Parks Centre Shopping Centre, Shop 5/1 Brittain Rd, Carey Park WA 6230, Australia",
    "suburb": "Shop 5/1 Brittain Rd",
    "state": "WA",
    "rating": 5,
    "reviews": 16,
    "lat": -33.3596867,
    "lng": 115.6457125,
    "place_id": "ChIJl3ba1JsdLioRCvJ4Ea_OvCY",
    "maps_url": "https://www.google.com/maps/place/?q=place_id:ChIJl3ba1JsdLioRCvJ4Ea_OvCY"
  },
  {
    "name": "Sipfit Studio",
    "address": "Unit 4/34 The Promenade, Australind WA 6233, Australia",
    "suburb": "Australind WA 6233",
    "state": "WA",
    "rating": 4.6,
    "reviews": 34,
    "lat": -33.2820458,
    "lng": 115.7426271,
    "place_id": "ChIJf7-EqI_9MSoReg7ULiLoBxI",
    "maps_url": "https://www.google.com/maps/place/?q=place_id:ChIJf7-EqI_9MSoReg7ULiLoBxI"
  },
  {
    "name": "Froth Craft Bunbury",
    "address": "12 Victoria St, Bunbury WA 6230, Australia",
    "suburb": "Bunbury WA 6230",
    "state": "WA",
    "rating": 4.6,
    "reviews": 1170,
    "lat": -33.3201484,
    "lng": 115.6371612,
    "place_id": "ChIJY3OsXI0dLioRglup9fFUkRI",
    "maps_url": "https://www.google.com/maps/place/?q=place_id:ChIJY3OsXI0dLioRglup9fFUkRI"
  },
  {
    "name": "Milky Lane Bunbury",
    "address": "11 Bonnefoi Blvd, Bunbury WA 6230, Australia",
    "suburb": "Bunbury WA 6230",
    "state": "WA",
    "rating": 4.7,
    "reviews": 1306,
    "lat": -33.318279,
    "lng": 115.639669,
    "place_id": "ChIJuZXotcsdLioRR8KtBtUyBRM",
    "maps_url": "https://www.google.com/maps/place/?q=place_id:ChIJuZXotcsdLioRR8KtBtUyBRM"
  },
  {
    "name": "Boost",
    "address": "Shop 44, Bunbury Centrepoint Shopping Centre, 60 Blair St, Bunbury WA 6230, Australia",
    "suburb": "Bunbury Centrepoint Shopping Centre",
    "state": "WA",
    "rating": 3.1,
    "reviews": 25,
    "lat": -33.3259556,
    "lng": 115.640289,
    "place_id": "ChIJm8-J60AdLioRPyeJfQG5ua8",
    "maps_url": "https://www.google.com/maps/place/?q=place_id:ChIJm8-J60AdLioRPyeJfQG5ua8"
  },