[
  {
    "name": "Open Sparring Muay Thai Sydney & BJJ Sydney",
    "address": "Lower Basement, 27 Park St, Sydney NSW 2000, Australia",
    "suburb": "27 Park St",
    "state": "NSW",
    "rating": 5,
    "reviews": 167,
    "lat": -33.8733369,
    "lng": 151.2087883,
    "place_id": "ChIJ22P0vYWvEmsRzENZcbJLUxA",
    "maps_url": "https://www.google.com/maps/place/?q=place_id:ChIJ22P0vYWvEmsRzENZcbJLUxA"
  },
  {
    "name": "Ultimate Fitness Centre - 305 Kent & 120 Sussex St Sydney",
    "address": "Ground Floor/305 Kent St, Sydney NSW 2000, Australia",
    "suburb": "Sydney NSW 2000",
    "state": "NSW",
    "rating": 4.9,
    "reviews": 72,
    "lat": -33.8671257,
    "lng": 151.2041007,
    "place_id": "ChIJzfxaU0euEmsRvPruGlJZEKo",
    "maps_url": "https://www.google.com/maps/place/?q=place_id:ChIJzfxaU0euEmsRvPruGlJZEKo"
  },
  {
    "name": "UFC GYM Signature",
    "address": "580 George St, Sydney NSW 2000, Australia",
    "suburb": "Sydney NSW 2000",
    "state": "NSW",
    "rating": 4.3,
    "reviews": 323,
    "lat": -33.8747966,
    "lng": 151.2071479,
    "place_id": "ChIJI8Lnl8yvEmsRMutpwnTj9sA",
    "maps_url": "https://www.google.com/maps/place/?q=place_id:ChIJI8Lnl8yvEmsRMutpwnTj9sA"
  },
  {
    "name": "Garage Jiu Jitsu CBD",
    "address": "Level 1/76-80 Clarence St, Sydney NSW 2000, Australia",
    "suburb": "Sydney NSW 2000",
    "state": "NSW",
    "rating": 5,
    "reviews": 72,
    "lat": -33.8672924,
    "lng": 151.2053106,
    "place_id": "ChIJh6_282OvEmsRDuZgiprSn68",
    "maps_url": "https://www.google.com/maps/place/?q=place_id:ChIJh6_282OvEmsRDuZgiprSn68"
  },
  {
    "name": "Kick Punch Submit",
    "address": "33 Botany Rd, Waterloo NSW 2017, Australia",
    "suburb": "Waterloo NSW 2017",
    "state": "NSW",
    "rating": 4.9,
    "reviews": 93,
    "lat": -33.8960934,
    "lng": 151.1993278,
    "place_id": "ChIJdVEaRr2tEmsRjjRqhrDBjmE",
    "maps_url": "https://www.google.com/maps/place/?q=place_id:ChIJdVEaRr2tEmsRjjRqhrDBjmE"
  },
  {
    "name": "Fight Gym",
    "address": "Ground Floor/305 Kent St, Sydney NSW 2000, Australia",
    "suburb": "Sydney NSW 2000",
    "state": "NSW",
    "rating": 5,
    "reviews": 2,
    "lat": -33.8671257,
    "lng": 151.2041007,
    "place_id": "ChIJWZbBU0euEmsRDgDUfWgQqog",
    "maps_url": "https://www.google.com/maps/place/?q=place_id:ChIJWZbBU0euEmsRDgDUfWgQqog"
  },
  {
    "name": "Higher Jiu Jitsu",
    "address": "Riley St &, Cathedral St, Woolloomooloo NSW 2011, Australia",
    "suburb": "Cathedral St",
    "state": "NSW",
    "rating": 5,
    "reviews": 385,
    "lat": -33.8723262,
    "lng": 151.2156402,
    "place_id": "ChIJf97vfRSuEmsR_I1FHPjoosM",
    "maps_url": "https://www.google.com/maps/place/?q=place_id:ChIJf97vfRSuEmsR_I1FHPjoosM"
  },
  {
    "name": "Cortex MMA",
    "address": "21 McCauley St, Alexandria NSW 2015, Australia",
    "suburb": "Alexandria NSW 2015",
    "state": "NSW",
    "rating": 5,
    "reviews": 84,
    "lat": -33.9034287,
    "lng": 151.1985196,
    "place_id": "ChIJv0QDkkyxEmsRu1Wd7kxXdzM",
    "maps_url": "https://www.google.com/maps/place/?q=place_id:ChIJv0QDkkyxEmsRu1Wd7kxXdzM"
  },
  {
    "name": "Lockeroom Gym Personal Trainers Bridge Street",
    "address": "38-42 Bridge St, Sydney NSW 2000, Australia",
    "suburb": "Sydney NSW 2000",
    "state": "NSW",
    "rating": 5,
    "reviews": 244,
    "lat": -33.86337630000001,
    "lng": 151.2106531,
    "place_id": "ChIJd8TxpmSvEmsRZ772fzXP6R8",
    "maps_url": "https://www.google.com/maps/place/?q=place_id:ChIJd8TxpmSvEmsRZ772fzXP6R8"
  },
  {
    "name": "Singhaganta Muaythai Gym",
    "address": "Level 3/39-41 Goulburn St, Haymarket NSW 2000, Australia",
    "suburb": "Haymarket NSW 2000",
    "state": "NSW",
    "rating": 5,
    "reviews": 40,
    "lat": -33.8778985,
    "lng": 151.2052704,
    "place_id": "ChIJ7TkrdUyvEmsRqjHppFe0f6c",
    "maps_url": "https://www.google.com/maps/place/?q=place_id:ChIJ7TkrdUyvEmsRqjHppFe0f6c"
  },
  {
    "name": "Igor MMA Sydney",
    "address": "32 Ebley St, Bondi Junction NSW 2022, Australia",
    "suburb": "Bondi Junction NSW 2022",
    "state": "NSW",
    "rating": 4.9,
    "reviews": 65,
    "lat": -33.8928833,
    "lng": 151.2463836,
    "place_id": "ChIJi85HsfCtEmsRS13nFcL6tvg",
    "maps_url": "https://www.google.com/maps/place/?q=place_id:ChIJi85HsfCtEmsRS13nFcL6tvg"
  },
  {
    "name": "Straight Blast Australia",
    "address": "1/689 Parramatta Rd, Leichhardt NSW 2040, Australia",
    "suburb": "Leichhardt NSW 2040",
    "state": "NSW",
    "rating": 5,
    "reviews": 127,
    "lat": -33.889701,
    "lng": 151.146535,
    "place_id": "ChIJCeZ7DAywEmsRIMjbCC5TBao",
    "maps_url": "https://www.google.com/maps/place/?q=place_id:ChIJCeZ7DAywEmsRIMjbCC5TBao"
  },
  {
    "name": "International Wing Chun Academy",
    "address": "262 Pitt St, Sydney NSW 2000, Australia",
    "suburb": "Sydney NSW 2000",
    "state": "NSW",
    "rating": 4.8,
    "reviews": 142,
    "lat": -33.8734475,
    "lng": 151.2082862,
    "place_id": "ChIJaa-OnzyuEmsRd6GNQ_RINqo",
    "maps_url": "https://www.google.com/maps/place/?q=place_id:ChIJaa-OnzyuEmsRd6GNQ_RINqo"
  },
  {
    "name": "JWK Martial Arts",
    "address": "Level 1/232/236 Cleveland St, Chippendale NSW 2008, Australia",
    "suburb": "Chippendale NSW 2008",
    "state": "NSW",
    "rating": 4.9,
    "reviews": 76,
    "lat": -33.8886801,
    "lng": 151.2007341,
    "place_id": "ChIJ-yCu-yeuEmsR_v53M1ptsMU",
    "maps_url": "https://www.google.com/maps/place/?q=place_id:ChIJ-yCu-yeuEmsR_v53M1ptsMU"
  },
  {
    "name": "Legacy Jiu Jitsu",
    "address": "232 Cleveland St, Chippendale NSW 2008, Australia",
    "suburb": "Chippendale NSW 2008",
    "state": "NSW",
    "rating": 5,
    "reviews": 105,
    "lat": -33.8886801,
    "lng": 151.2007341,
    "place_id": "ChIJY_yjadixEmsRD1_EeOuEiiI",
    "maps_url": "https://www.google.com/maps/place/?q=place_id:ChIJY_yjadixEmsRD1_EeOuEiiI"
  },
  {
    "name": "Modern Combat Academy - Mixed Martial Arts",
    "address": "Level 1/131 Alexander St, Crows Nest NSW 2065, Australia",
    "suburb": "Crows Nest NSW 2065",
    "state": "NSW",
    "rating": 5,
    "reviews": 128,
    "lat": -33.8243372,
    "lng": 151.2029362,
    "place_id": "ChIJ50IVbiuvEmsRwBNFGToJ1dI",
    "maps_url": "https://www.google.com/maps/place/?q=place_id:ChIJ50IVbiuvEmsRwBNFGToJ1dI"
  },
  {
    "name": "Power Core MMA Gym",
    "address": "7/394 Marrickville Rd, Marrickville NSW 2204, Australia",
    "suburb": "Marrickville NSW 2204",
    "state": "NSW",
    "rating": 4.9,
    "reviews": 68,
    "lat": -33.908863,
    "lng": 151.152023,
    "place_id": "ChIJEUBYy2SwEmsRTIvDwk5Bki8",
    "maps_url": "https://www.google.com/maps/place/?q=place_id:ChIJEUBYy2SwEmsRTIvDwk5Bki8"
  },
  {
    "name": "Sydney Uni Muay Thai (SUMT)",
    "address": "Cnr Codrington St and, Inside Sydney Uni Sport & Aquatic Centre, Darlington Ln, Darlington NSW 2008, Australia",
    "suburb": "Inside Sydney Uni Sport & Aquatic Centre",
    "state": "NSW",
    "rating": 4.6,
    "reviews": 9,
    "lat": -33.8911153,
    "lng": 151.1917475,
    "place_id": "ChIJm_sh5t6xEmsRHogrJpA1RyU",
    "maps_url": "https://www.google.com/maps/place/?q=place_id:ChIJm_sh5t6xEmsRHogrJpA1RyU"
  },
  {
    "name": "Team Perosh Mixed Martial Arts: MMA, BJJ, and Muay Thai Kickboxing for Adults & Kids",
    "address": "1/97 Queens Rd, Five Dock NSW 2046, Australia",
    "suburb": "Five Dock NSW 2046",
    "state": "NSW",
    "rating": 4.9,
    "reviews": 154,
    "lat": -33.869101,
    "lng": 151.116819,
    "place_id": "ChIJq1IM4C2lEmsR7snFOsfofQg",
    "maps_url": "https://www.google.com/maps/place/?q=place_id:ChIJq1IM4C2lEmsR7snFOsfofQg"
  },
  {
    "name": "Marrickville Martial Arts Club",
    "address": "201-203 Victoria Rd, Marrickville NSW 2204, Australia",
    "suburb": "Marrickville NSW 2204",
    "state": "NSW",
    "rating": 5,
    "reviews": 45,
    "lat": -33.9094538,
    "lng": 151.1620754,
    "place_id": "ChIJLeH5UMKxEmsRo6OV-6uCSR4",
    "maps_url": "https://www.google.com/maps/place/?q=place_id:ChIJLeH5UMKxEmsRo6OV-6uCSR4"
  },
  {
    "name": "SJJA Parramatta",
    "address": "G3/460 Church St, Parramatta NSW 2150, Australia",
    "suburb": "Parramatta NSW 2150",
    "state": "NSW",
    "rating": 4.9,
    "reviews": 126,
    "lat": -33.8053867,
    "lng": 151.006294,
    "place_id": "ChIJW7IjlWqjEmsRMS278KsPpJA",
    "maps_url": "https://www.google.com/maps/place/?q=place_id:ChIJW7IjlWqjEmsRMS278KsPpJA"
  },
  {
    "name": "Legacy BJJ Parramatta",
    "address": "253 Victoria Rd, Rydalmere NSW 2116, Australia",
    "suburb": "Rydalmere NSW 2116",
    "state": "NSW",
    "rating": 5,
    "reviews": 160,
    "lat": -33.8104777,
    "lng": 151.0315571,
    "place_id": "ChIJ6WCDuQejEmsRBWoeeGEzC7w",
    "maps_url": "https://www.google.com/maps/place/?q=place_id:ChIJ6WCDuQejEmsRBWoeeGEzC7w"
  },
  {
    "name": "TRG The Roman Gladiators",
    "address": "6/562 Church St, North Parramatta NSW 2151, Australia",
    "suburb": "North Parramatta NSW 2151",
    "state": "NSW",
    "rating": 5,
    "reviews": 93,
    "lat": -33.7981089,
    "lng": 151.0031618,
    "place_id": "ChIJGy8cFxmhEmsRzZig5AEHnHs",
    "maps_url": "https://www.google.com/maps/place/?q=place_id:ChIJGy8cFxmhEmsRzZig5AEHnHs"
  },
  {
    "name": "Parramatta Jiu Jitsu Academy",
    "address": "UNIT 10 148 James Ruse drive Rosehill, Entry via, River Rd W, Parramatta NSW 2150, Australia",
    "suburb": "Entry via",
    "state": "NSW",
    "rating": 5,
    "reviews": 129,
    "lat": -33.8149679,
    "lng": 151.0220913,
    "place_id": "ChIJydfjkSKjEmsRvRfbC0e-5F4",
    "maps_url": "https://www.google.com/maps/place/?q=place_id:ChIJydfjkSKjEmsRvRfbC0e-5F4"
  },
  {
    "name": "Apex BJJ",
    "address": "21 Fox St, Holroyd NSW 2142, Australia",
    "suburb": "Holroyd NSW 2142",
    "state": "NSW",
    "rating": 5,
    "reviews": 88,
    "lat": -33.8296376,
    "lng": 150.9965152,
    "place_id": "ChIJPX3lB_mjEmsRAQvO6uqFVxk",
    "maps_url": "https://www.google.com/maps/place/?q=place_id:ChIJPX3lB_mjEmsRAQvO6uqFVxk"
  },
  {
    "name": "Family Self Defence Parramatta",
    "address": "Unit 7/552-560 Church St, North Parramatta NSW 2151, Australia",
    "suburb": "North Parramatta NSW 2151",
    "state": "NSW",
    "rating": 4.8,
    "reviews": 82,
    "lat": -33.7979864,
    "lng": 151.0034296,
    "place_id": "ChIJK-CBKhCjEmsR8kZ6byvwozo",
    "maps_url": "https://www.google.com/maps/place/?q=place_id:ChIJK-CBKhCjEmsR8kZ6byvwozo"
  },
  {
    "name": "Bulldog Gym Parramatta",
    "address": "1 Windsor Rd, North Rocks NSW 2151, Australia",
    "suburb": "North Rocks NSW 2151",
    "state": "NSW",
    "rating": 4.4,
    "reviews": 70,
    "lat": -33.792152,
    "lng": 150.999533,
    "place_id": "ChIJXSU1CXGjEmsRVKcGtGYDa6w",
    "maps_url": "https://www.google.com/maps/place/?q=place_id:ChIJXSU1CXGjEmsRVKcGtGYDa6w"
  },
  {
    "name": "Crunch Fitness Parramatta",
    "address": "292 Church St, Parramatta NSW 2150, Australia",
    "suburb": "Parramatta NSW 2150",
    "state": "NSW",
    "rating": 4.5,
    "reviews": 1424,
    "lat": -33.8126566,
    "lng": 151.0040108,
    "place_id": "ChIJRQ6C4h6jEmsRvXuKKhKrgVg",
    "maps_url": "https://www.google.com/maps/place/?q=place_id:ChIJRQ6C4h6jEmsRvXuKKhKrgVg"
  },
  {
    "name": "Payak Muay Thai Parramatta",
    "address": "253 Victoria Rd, Rydalmere NSW 2116, Australia",
    "suburb": "Rydalmere NSW 2116",
    "state": "NSW",
    "rating": 5,
    "reviews": 2,
    "lat": -33.8104777,
    "lng": 151.0315571,
    "place_id": "ChIJtyXRyYijEmsRH8UME_X8Ol8",
    "maps_url": "https://www.google.com/maps/place/?q=place_id:ChIJtyXRyYijEmsRH8UME_X8Ol8"
  },
  {
    "name": "Top Martial Arts Academy - Rosehill",
    "address": "31 Virginia St, Rosehill NSW 2142, Australia",
    "suburb": "Rosehill NSW 2142",
    "state": "NSW",
    "rating": 5,
    "reviews": 3,
    "lat": -33.8239101,
    "lng": 151.018914,
    "place_id": "ChIJO58ZJwCjEmsRdNS5LfgIFio",
    "maps_url": "https://www.google.com/maps/place/?q=place_id:ChIJO58ZJwCjEmsRdNS5LfgIFio"
  },
  {
    "name": "Dynamic Self Defence",
    "address": "90 Alfred St, Rosehill NSW 2142, Australia",
    "suburb": "Rosehill NSW 2142",
    "state": "NSW",
    "rating": 4.6,
    "reviews": 34,
    "lat": -33.825641,
    "lng": 151.015602,
    "place_id": "ChIJNbk3mDujEmsRWPgGEe2p08c",
    "maps_url": "https://www.google.com/maps/place/?q=place_id:ChIJNbk3mDujEmsRWPgGEe2p08c"
  },
  {
    "name": "Grappling Bros Rydalmere",
    "address": "90 South St, Rydalmere NSW 2116, Australia",
    "suburb": "Rydalmere NSW 2116",
    "state": "NSW",
    "rating": 5,
    "reviews": 39,
    "lat": -33.8160278,
    "lng": 151.0442698,
    "place_id": "ChIJoW3fYXSjEmsRINUzg8VpPEQ",
    "maps_url": "https://www.google.com/maps/place/?q=place_id:ChIJoW3fYXSjEmsRINUzg8VpPEQ"
  },
  {
    "name": "Club Lime Parramatta",
    "address": "Westfield Parramatta, Shop M9/15-19 Aird St, Parramatta NSW 2150, Australia",
    "suburb": "Shop M9/15-19 Aird St",
    "state": "NSW",
    "rating": 4,
    "reviews": 156,
    "lat": -33.8173081,
    "lng": 151.0001627,
    "place_id": "ChIJc3JnlkKjEmsRlqcxM7nimHo",
    "maps_url": "https://www.google.com/maps/place/?q=place_id:ChIJc3JnlkKjEmsRlqcxM7nimHo"
  },
  {
    "name": "MUSAS STRIKING ACADEMY",
    "address": "26 Bridge St, Rydalmere NSW 2116, Australia",
    "suburb": "Rydalmere NSW 2116",
    "state": "NSW",
    "rating": 5,
    "reviews": 4,
    "lat": -33.8118894,
    "lng": 151.0310156,
    "place_id": "ChIJD4lgAgCjEmsRyWdcBYA4m80",
    "maps_url": "https://www.google.com/maps/place/?q=place_id:ChIJD4lgAgCjEmsRyWdcBYA4m80"
  },
  {
    "name": "Top Martial Arts Academy - Australia",
    "address": "43 Good St, Granville NSW 2142, Australia",
    "suburb": "Granville NSW 2142",
    "state": "NSW",
    "rating": 5,
    "reviews": 36,
    "lat": -33.8310045,
    "lng": 151.0122888,
    "place_id": "ChIJx_MqcmqjEmsRpKmmRaN9Zhw",
    "maps_url": "https://www.google.com/maps/place/?q=place_id:ChIJx_MqcmqjEmsRpKmmRaN9Zhw"
  },
  {
    "name": "Maneema Muay Thai",
    "address": "Level 1/105 Parramatta Rd, Camperdown NSW 2050, Australia",
    "suburb": "Camperdown NSW 2050",
    "state": "NSW",
    "rating": 5,
    "reviews": 116,
    "lat": -33.8871306,
    "lng": 151.1763251,
    "place_id": "ChIJB76qqwmxEmsR1H7TTUbY22E",
    "maps_url": "https://www.google.com/maps/place/?q=place_id:ChIJB76qqwmxEmsR1H7TTUbY22E"
  },
  {
    "name": "Power with Purpose Taekwondo Parramatta",
    "address": "Railway St, Parramatta NSW 2150, Australia",
    "suburb": "Parramatta NSW 2150",
    "state": "NSW",
    "rating": 5,
    "reviews": 7,
    "lat": -33.8238936,
    "lng": 150.9910224,
    "place_id": "ChIJYbxTYdCiEmsRwkZhtdNsM0Q",
    "maps_url": "https://www.google.com/maps/place/?q=place_id:ChIJYbxTYdCiEmsRwkZhtdNsM0Q"
  },
  {
    "name": "Movement Martial Arts",
    "address": "Suite 1.05/68 Waterloo Rd, Macquarie Park NSW 2113, Australia",
    "suburb": "Macquarie Park NSW 2113",
    "state": "NSW",
    "rating": 4.9,
    "reviews": 314,
    "lat": -33.7811942,
    "lng": 151.1219519,
    "place_id": "ChIJjdA5ZQimEmsRXJRgJr7gvDI",
    "maps_url": "https://www.google.com/maps/place/?q=place_id:ChIJjdA5ZQimEmsRXJRgJr7gvDI"
  },
  {
    "name": "Eye Of The Eagle Martial Arts",
    "address": "151 Burnett St, Mays Hill NSW 2145, Australia",
    "suburb": "Mays Hill NSW 2145",
    "state": "NSW",
    "rating": 5,
    "reviews": 10,
    "lat": -33.8217136,
    "lng": 150.9900527,
    "place_id": "ChIJ0drsgtiiEmsRvR6itic-Ors",
    "maps_url": "https://www.google.com/maps/place/?q=place_id:ChIJ0drsgtiiEmsRvR6itic-Ors"
  },
  {
    "name": "UFC GYM Wetherill Park",
    "address": "61/1183 The Horsley Dr, Wetherill Park NSW 2164, Australia",
    "suburb": "Wetherill Park NSW 2164",
    "state": "NSW",
    "rating": 4.3,
    "reviews": 279,
    "lat": -33.8494051,
    "lng": 150.8978259,
    "place_id": "ChIJOVKOnAKXEmsRJivYc9_SvBw",
    "maps_url": "https://www.google.com/maps/place/?q=place_id:ChIJOVKOnAKXEmsRJivYc9_SvBw"
  },
  {
    "name": "Newcastle Mixed Martial Arts",
    "address": "4 Margaret St, Cardiff NSW 2285, Australia",
    "suburb": "Cardiff NSW 2285",
    "state": "NSW",
    "rating": 5,
    "reviews": 635,
    "lat": -32.9408643,
    "lng": 151.661367,
    "place_id": "ChIJUzzkkcc_c2sREXFO2mv6C-I",
    "maps_url": "https://www.google.com/maps/place/?q=place_id:ChIJUzzkkcc_c2sREXFO2mv6C-I"
  },
  {
    "name": "Alpha MMA",
    "address": "57 Munibung Rd, Cardiff NSW 2285, Australia",
    "suburb": "Cardiff NSW 2285",
    "state": "NSW",
    "rating": 5,
    "reviews": 29,
    "lat": -32.9424832,
    "lng": 151.6425437,
    "place_id": "ChIJx3vBqzA8c2sREPtkzjmqmyc",
    "maps_url": "https://www.google.com/maps/place/?q=place_id:ChIJx3vBqzA8c2sREPtkzjmqmyc"
  },
  {
    "name": "ZMA Academy Newcastle",
    "address": "63 Kenibea Ave, Kahibah NSW 2290, Australia",
    "suburb": "Kahibah NSW 2290",
    "state": "NSW",
    "rating": 5,
    "reviews": 17,
    "lat": -32.9649691,
    "lng": 151.7067776,
    "place_id": "ChIJ6-02BiIWc2sR-7FFOy2KDfU",
    "maps_url": "https://www.google.com/maps/place/?q=place_id:ChIJ6-02BiIWc2sR-7FFOy2KDfU"
  },
  {
    "name": "Warrior World Gym",
    "address": "Unit 49/2 Templar Pl, Bennetts Green NSW 2290, Australia",
    "suburb": "Bennetts Green NSW 2290",
    "state": "NSW",
    "rating": 4.9,
    "reviews": 13,
    "lat": -32.9995159,
    "lng": 151.6915151,
    "place_id": "ChIJyeocH349c2sRnU2EhARehp8",
    "maps_url": "https://www.google.com/maps/place/?q=place_id:ChIJyeocH349c2sRnU2EhARehp8"
  },
  {
    "name": "Gracie Barra Newcastle City",
    "address": "Shop 1/187 King St, Newcastle NSW 2300, Australia",
    "suburb": "Newcastle NSW 2300",
    "state": "NSW",
    "rating": 5,
    "reviews": 83,
    "lat": -32.9272114,
    "lng": 151.7761928,
    "place_id": "ChIJW8bOd2YUc2sRBU34U0gWY1I",
    "maps_url": "https://www.google.com/maps/place/?q=place_id:ChIJW8bOd2YUc2sRBU34U0gWY1I"
  },
  {
    "name": "Third Eye Muay Thai",
    "address": "13 Rosegum Rd, Warabrook NSW 2304, Australia",
    "suburb": "Warabrook NSW 2304",
    "state": "NSW",
    "rating": 5,
    "reviews": 105,
    "lat": -32.8894925,
    "lng": 151.7149517,
    "place_id": "ChIJeZ40jCIVc2sRDpzMjvSoBdg",
    "maps_url": "https://www.google.com/maps/place/?q=place_id:ChIJeZ40jCIVc2sRDpzMjvSoBdg"
  },
  {
    "name": "Soul Fighters Jiu Jitsu Newcastle",
    "address": "235 Darby St, Cooks Hill NSW 2300, Australia",
    "suburb": "Cooks Hill NSW 2300",
    "state": "NSW",
    "rating": 5,
    "reviews": 30,
    "lat": -32.9358853,
    "lng": 151.7683117,
    "place_id": "ChIJ_U3Q49cVc2sRuBK_S7Pnpmw",
    "maps_url": "https://www.google.com/maps/place/?q=place_id:ChIJ_U3Q49cVc2sRuBK_S7Pnpmw"
  },
  {
    "name": "Northsouth Jiu Jitsu Newcastle",
    "address": "1/100 Munibung Rd, Cardiff NSW 2285, Australia",
    "suburb": "Cardiff NSW 2285",
    "state": "NSW",
    "rating": 5,
    "reviews": 43,
    "lat": -32.9415846,
    "lng": 151.6379213,
    "place_id": "ChIJrSNEVb49c2sR9TNRd1cvF4Q",
    "maps_url": "https://www.google.com/maps/place/?q=place_id:ChIJrSNEVb49c2sR9TNRd1cvF4Q"
  },
  {
    "name": "Bro FIT Newcastle",
    "address": "4 Pambalong Dr, Mayfield West NSW 2304, Australia",
    "suburb": "Mayfield West NSW 2304",
    "state": "NSW",
    "rating": 5,
    "reviews": 64,
    "lat": -32.8790297,
    "lng": 151.7214816,
    "place_id": "ChIJFwIYLEcVc2sREOoEDDCrw_0",
    "maps_url": "https://www.google.com/maps/place/?q=place_id:ChIJFwIYLEcVc2sREOoEDDCrw_0"
  },
  {
    "name": "Ronin JiuJitsu Newcastle",
    "address": "19 Broadmeadow Rd, Broadmeadow NSW 2292, Australia",
    "suburb": "Broadmeadow NSW 2292",
    "state": "NSW",
    "rating": 5,
    "reviews": 24,
    "lat": -32.9128634,
    "lng": 151.7333003,
    "place_id": "ChIJTzJKkRAVc2sRSKdSPhbfNOc",
    "maps_url": "https://www.google.com/maps/place/?q=place_id:ChIJTzJKkRAVc2sRSKdSPhbfNOc"
  },
  {
    "name": "Gunyah Underground - Nyushido MMA",
    "address": "644 Pacific Hwy, Belmont NSW 2282, Australia",
    "suburb": "Belmont NSW 2282",
    "state": "NSW",
    "rating": 5,
    "reviews": 3,
    "lat": -33.0397671,
    "lng": 151.6582592,
    "place_id": "ChIJQ9Tp0I0jc2sRjuuNwxLYA0Q",
    "maps_url": "https://www.google.com/maps/place/?q=place_id:ChIJQ9Tp0I0jc2sRjuuNwxLYA0Q"
  },
  {
    "name": "Satori Muay Thai",
    "address": "5/43 Station St, Waratah NSW 2298, Australia",
    "suburb": "Waratah NSW 2298",
    "state": "NSW",
    "rating": 5,
    "reviews": 38,
    "lat": -32.9027271,
    "lng": 151.7276461,
    "place_id": "ChIJDfMpXuYVc2sRwfWHqhU-ugE",
    "maps_url": "https://www.google.com/maps/place/?q=place_id:ChIJDfMpXuYVc2sRwfWHqhU-ugE"
  },
  {
    "name": "Newcastle Karate",
    "address": "77 Munibung Rd, Cardiff NSW 2285, Australia",
    "suburb": "Cardiff NSW 2285",
    "state": "NSW",
    "rating": 4.8,
    "reviews": 178,
    "lat": -32.942622,
    "lng": 151.6408807,
    "place_id": "ChIJH9XIGDo8c2sRkJMiMhNr4cg",
    "maps_url": "https://www.google.com/maps/place/?q=place_id:ChIJH9XIGDo8c2sRkJMiMhNr4cg"
  },
  {
    "name": "Steel City Boxing Newcastle",
    "address": "54 Clyde St, Hamilton North NSW 2292, Australia",
    "suburb": "Hamilton North NSW 2292",
    "state": "NSW",
    "rating": 4.9,
    "reviews": 32,
    "lat": -32.9118793,
    "lng": 151.7367396,
    "place_id": "ChIJm97HJ6YVc2sRiNAt9udMx40",
    "maps_url": "https://www.google.com/maps/place/?q=place_id:ChIJm97HJ6YVc2sRiNAt9udMx40"
  },
  {
    "name": "Fighters Den",
    "address": "30 Templar Pl, Bennetts Green NSW 2290, Australia",
    "suburb": "Bennetts Green NSW 2290",
    "state": "NSW",
    "rating": 5,
    "reviews": 12,
    "lat": -32.9965382,
    "lng": 151.6932248,
    "place_id": "ChIJtRB5lts9c2sR0s2fMxJalrM",
    "maps_url": "https://www.google.com/maps/place/?q=place_id:ChIJtRB5lts9c2sR0s2fMxJalrM"
  },
  {
    "name": "Guerrilla Jiu-Jitsu Newcastle",
    "address": "Unit 3/11 Laurio Pl, Mayfield West NSW 2304, Australia",
    "suburb": "Mayfield West NSW 2304",
    "state": "NSW",
    "rating": 5,
    "reviews": 20,
    "lat": -32.8796073,
    "lng": 151.7289593,
    "place_id": "ChIJUTtduiIVc2sRUlLpjahz2SQ",
    "maps_url": "https://www.google.com/maps/place/?q=place_id:ChIJUTtduiIVc2sRUlLpjahz2SQ"
  },
  {
    "name": "Flux Jiu Jitsu",
    "address": "Unit 4/130 Bulls Garden Rd, Gateshead NSW 2290, Australia",
    "suburb": "Gateshead NSW 2290",
    "state": "NSW",
    "rating": 5,
    "reviews": 28,
    "lat": -32.9873212,
    "lng": 151.6968256,
    "place_id": "ChIJOdBGl-4Xc2sRBPuBq_F6T2E",
    "maps_url": "https://www.google.com/maps/place/?q=place_id:ChIJOdBGl-4Xc2sRBPuBq_F6T2E"
  },
  {
    "name": "Hunter Valley Martial Arts Centre",
    "address": "3d/321 Hillsborough Rd, Warners Bay NSW 2282, Australia",
    "suburb": "Warners Bay NSW 2282",
    "state": "NSW",
    "rating": 4.9,
    "reviews": 201,
    "lat": -32.9629676,
    "lng": 151.6591907,
    "place_id": "ChIJOUQi8a09c2sR0MRQ-WM4LmA",
    "maps_url": "https://www.google.com/maps/place/?q=place_id:ChIJOUQi8a09c2sR0MRQ-WM4LmA"
  },
  {
    "name": "Fighting Arts Belmont",
    "address": "390 Pacific Hwy, Belmont North NSW 2280, Australia",
    "suburb": "Belmont North NSW 2280",
    "state": "NSW",
    "rating": 5,
    "reviews": 20,
    "lat": -33.023758,
    "lng": 151.663085,
    "place_id": "ChIJP4quFGkjc2sRvE9MWmaMd9E",
    "maps_url": "https://www.google.com/maps/place/?q=place_id:ChIJP4quFGkjc2sRvE9MWmaMd9E"
  },
  {
    "name": "Nova Martial Arts",
    "address": "69 Camfield Dr, Heatherbrae NSW 2324, Australia",
    "suburb": "Heatherbrae NSW 2324",
    "state": "NSW",
    "rating": 4.9,
    "reviews": 51,
    "lat": -32.7856573,
    "lng": 151.7492847,
    "place_id": "ChIJgfb4A_xrc2sRIkth7YyF1uo",
    "maps_url": "https://www.google.com/maps/place/?q=place_id:ChIJgfb4A_xrc2sRIkth7YyF1uo"
  },
  {
    "name": "Reflex Centre Martial Arts & Fitness",
    "address": "32 Auburn St, Wollongong NSW 2500, Australia",
    "suburb": "Wollongong NSW 2500",
    "state": "NSW",
    "rating": 4.9,
    "reviews": 36,
    "lat": -34.428957,
    "lng": 150.8890013,
    "place_id": "ChIJueU-sbwZE2sRvWbMkmmpxMg",
    "maps_url": "https://www.google.com/maps/place/?q=place_id:ChIJueU-sbwZE2sRvWbMkmmpxMg"
  },
  {
    "name": "FREESTYLE MMA",
    "address": "156 Shellharbour Rd, Port Kembla NSW 2505, Australia",
    "suburb": "Port Kembla NSW 2505",
    "state": "NSW",
    "rating": 4.9,
    "reviews": 44,
    "lat": -34.4925421,
    "lng": 150.8927272,
    "place_id": "ChIJ8w5MOqkWE2sRLQHmuNUIaIA",
    "maps_url": "https://www.google.com/maps/place/?q=place_id:ChIJ8w5MOqkWE2sRLQHmuNUIaIA"
  },
  {
    "name": "Synergy Method Wollongong",
    "address": "71 Kenny St, Wollongong NSW 2500, Australia",
    "suburb": "Wollongong NSW 2500",
    "state": "NSW",
    "rating": 5,
    "reviews": 94,
    "lat": -34.4317372,
    "lng": 150.8916149,
    "place_id": "ChIJ__-vsaQZE2sRwGKhv6eOw2s",
    "maps_url": "https://www.google.com/maps/place/?q=place_id:ChIJ__-vsaQZE2sRwGKhv6eOw2s"
  },
  {
    "name": "ADAPT Martial Arts Academy",
    "address": "234 Corrimal St, Wollongong NSW 2500, Australia",
    "suburb": "Wollongong NSW 2500",
    "state": "NSW",
    "rating": 5,
    "reviews": 33,
    "lat": -34.435632,
    "lng": 150.897512,
    "place_id": "ChIJs-i078AZE2sR9VnQwyz2UP8",
    "maps_url": "https://www.google.com/maps/place/?q=place_id:ChIJs-i078AZE2sR9VnQwyz2UP8"
  },
  {
    "name": "FREESTYLE MMA Performance Centre",
    "address": "156 Shellharbour Rd, Port Kembla NSW 2505, Australia",
    "suburb": "Port Kembla NSW 2505",
    "state": "NSW",
    "rating": 5,
    "reviews": 16,
    "lat": -34.4925893,
    "lng": 150.8927293,
    "place_id": "ChIJa85Vi3AXE2sR63qaHWCwqz0",
    "maps_url": "https://www.google.com/maps/place/?q=place_id:ChIJa85Vi3AXE2sR63qaHWCwqz0"
  },
  {
    "name": "FIGHTWORKS",
    "address": "Unit 5/3B Edney Ln, Spring Hill NSW 2500, Australia",
    "suburb": "Spring Hill NSW 2500",
    "state": "NSW",
    "rating": 5,
    "reviews": 16,
    "lat": -34.4438256,
    "lng": 150.8643553,
    "place_id": "ChIJF499MykZE2sRH85Lk7M_wiU",
    "maps_url": "https://www.google.com/maps/place/?q=place_id:ChIJF499MykZE2sRH85Lk7M_wiU"
  },
  {
    "name": "Grappling Bros Wollongong - GFTeam NSW",
    "address": "263 Keira St, via, Burelli St, Wollongong NSW 2500, Australia",
    "suburb": "via",
    "state": "NSW",
    "rating": 5,
    "reviews": 29,
    "lat": -34.4275187,
    "lng": 150.8932106,
    "place_id": "ChIJ4-WK_g4ZE2sReK-cfkrHkAE",
    "maps_url": "https://www.google.com/maps/place/?q=place_id:ChIJ4-WK_g4ZE2sReK-cfkrHkAE"
  },
  {
    "name": "ADAPT BOXING ACADEMY",
    "address": "Unit 3/30 Swan St, Wollongong NSW 2500, Australia",
    "suburb": "Wollongong NSW 2500",
    "state": "NSW",
    "rating": 5,
    "reviews": 9,
    "lat": -34.4351544,
    "lng": 150.8969355,
    "place_id": "ChIJbWXsrtYZE2sRXmiGNv-qR5w",
    "maps_url": "https://www.google.com/maps/place/?q=place_id:ChIJbWXsrtYZE2sRXmiGNv-qR5w"
  },
  {
    "name": "Groundworks BJJ & MMA Centre Shellharbour - Illawarra - Wollongong",
    "address": "23A Sunset Ave, Barrack Heights NSW 2528, Australia",
    "suburb": "Barrack Heights NSW 2528",
    "state": "NSW",
    "rating": 5,
    "reviews": 54,
    "lat": -34.560436,
    "lng": 150.856783,
    "place_id": "ChIJe_AB74gTE2sRwqFxEYFYW9s",
    "maps_url": "https://www.google.com/maps/place/?q=place_id:ChIJe_AB74gTE2sRwqFxEYFYW9s"
  },
  {
    "name": "Fighters Guild MMA",
    "address": "145/149 King St, Warrawong NSW 2502, Australia",
    "suburb": "Warrawong NSW 2502",
    "state": "NSW",
    "rating": 5,
    "reviews": 22,
    "lat": -34.4961503,
    "lng": 150.8906676,
    "place_id": "ChIJkdmtz6ofE2sRXG0eF3dC6zU",
    "maps_url": "https://www.google.com/maps/place/?q=place_id:ChIJkdmtz6ofE2sRXG0eF3dC6zU"
  },
  {
    "name": "Modern Musashi Brazilian Jiu Jitsu Wollongong",
    "address": "Unit 2/214 Corrimal St, Wollongong NSW 2500, Australia",
    "suburb": "Wollongong NSW 2500",
    "state": "NSW",
    "rating": 4.9,
    "reviews": 110,
    "lat": -34.4340906,
    "lng": 150.8977379,
    "place_id": "ChIJo6CEXxcZE2sRqJSSbPGeoLQ",
    "maps_url": "https://www.google.com/maps/place/?q=place_id:ChIJo6CEXxcZE2sRqJSSbPGeoLQ"
  },
  {
    "name": "UBX Wollongong",
    "address": "78 Swan St, Wollongong NSW 2500, Australia",
    "suburb": "Wollongong NSW 2500",
    "state": "NSW",
    "rating": 5,
    "reviews": 31,
    "lat": -34.4345861,
    "lng": 150.8895147,
    "place_id": "ChIJVb6vvksZE2sRj5p804SidbA",
    "maps_url": "https://www.google.com/maps/place/?q=place_id:ChIJVb6vvksZE2sRj5p804SidbA"
  },
  {
    "name": "GKR Karate Wollongong",
    "address": "398 Keira St, Wollongong NSW 2500, Australia",
    "suburb": "Wollongong NSW 2500",
    "state": "NSW",
    "rating": 5,
    "reviews": 141,
    "lat": -34.4384572,
    "lng": 150.8908324,
    "place_id": "ChIJ80Lm_x4ZE2sRJZ2H07U-AqU",
    "maps_url": "https://www.google.com/maps/place/?q=place_id:ChIJ80Lm_x4ZE2sRJZ2H07U-AqU"
  },
  {
    "name": "Sitshoothon Muay Thai / Boxing Academy",
    "address": "1/3 Hargraves Ave, Albion Park Rail NSW 2527, Australia",
    "suburb": "Albion Park Rail NSW 2527",
    "state": "NSW",
    "rating": 4.9,
    "reviews": 36,
    "lat": -34.5571231,
    "lng": 150.7920098,
    "place_id": "ChIJQ5ACtIQTE2sR4tcdASsJD6U",
    "maps_url": "https://www.google.com/maps/place/?q=place_id:ChIJQ5ACtIQTE2sR4tcdASsJD6U"
  },
  {
    "name": "Boxing with Lauri",
    "address": "143 Gipps Rd, Keiraville NSW 2500, Australia",
    "suburb": "Keiraville NSW 2500",
    "state": "NSW",
    "rating": 5,
    "reviews": 69,
    "lat": -34.4162118,
    "lng": 150.8777008,
    "place_id": "ChIJuS_w1CgRE2sRbCXzTQOgS4U",
    "maps_url": "https://www.google.com/maps/place/?q=place_id:ChIJuS_w1CgRE2sRbCXzTQOgS4U"
  },
  {
    "name": "First 2 Strike Freestyle Martial Arts",
    "address": "25 O'Briens Rd, Figtree NSW 2525, Australia",
    "suburb": "Figtree NSW 2525",
    "state": "NSW",
    "rating": 4.7,
    "reviews": 28,
    "lat": -34.435499,
    "lng": 150.8476089,
    "place_id": "ChIJzXJxLCkZE2sRPM07v468DZw",
    "maps_url": "https://www.google.com/maps/place/?q=place_id:ChIJzXJxLCkZE2sRPM07v468DZw"
  },
  {
    "name": "Black Diamond Boxing",
    "address": "50 Montague St, North Wollongong NSW 2500, Australia",
    "suburb": "North Wollongong NSW 2500",
    "state": "NSW",
    "rating": 4.8,
    "reviews": 25,
    "lat": -34.4005171,
    "lng": 150.8951661,
    "place_id": "ChIJDQI1xzEZE2sRGvgj_zJb8V4",
    "maps_url": "https://www.google.com/maps/place/?q=place_id:ChIJDQI1xzEZE2sRGvgj_zJb8V4"
  },
  {
    "name": "Gracie Barra Shellharbour",
    "address": "1/33-37 Durgadin Dr, Albion Park Rail NSW 2527, Australia",
    "suburb": "Albion Park Rail NSW 2527",
    "state": "NSW",
    "rating": 5,
    "reviews": 151,
    "lat": -34.574733,
    "lng": 150.81688,
    "place_id": "ChIJCTDxpR0TE2sRf9M6YzTBa1c",
    "maps_url": "https://www.google.com/maps/place/?q=place_id:ChIJCTDxpR0TE2sRf9M6YzTBa1c"
  },
  {
    "name": "Oni Combat Academy (& Oni Fight Team)",
    "address": "40/5-11 Waynote Pl, Unanderra NSW 2526, Australia",
    "suburb": "Unanderra NSW 2526",
    "state": "NSW",
    "rating": 5,
    "reviews": 22,
    "lat": -34.46095,
    "lng": 150.865298,
    "place_id": "ChIJh6MP930XE2sRXNA_T8PR9cg",
    "maps_url": "https://www.google.com/maps/place/?q=place_id:ChIJh6MP930XE2sRXNA_T8PR9cg"
  },
  {
    "name": "Shaolin Warrior Martial Arts",
    "address": "shop 1/497 Crown St, Wollongong NSW 2500, Australia",
    "suburb": "Wollongong NSW 2500",
    "state": "NSW",
    "rating": 5,
    "reviews": 22,
    "lat": -34.4254484,
    "lng": 150.8732629,
    "place_id": "ChIJV6-MgpAZE2sRf4y4y1CTFBI",
    "maps_url": "https://www.google.com/maps/place/?q=place_id:ChIJV6-MgpAZE2sRf4y4y1CTFBI"
  },
  {
    "name": "Central Coast Mixed Martial Arts",
    "address": "Unit 3/13 Dell Rd, West Gosford NSW 2250, Australia",
    "suburb": "West Gosford NSW 2250",
    "state": "NSW",
    "rating": 4.9,
    "reviews": 17,
    "lat": -33.4137418,
    "lng": 151.3282599,
    "place_id": "ChIJM0zu7FE1DWsRlioTx8-exRU",
    "maps_url": "https://www.google.com/maps/place/?q=place_id:ChIJM0zu7FE1DWsRlioTx8-exRU"
  },
  {
    "name": "Gracie Elite Central Coast",
    "address": "Next to Gem Gymnastics Centre Gracie, 224 Penrose Cres, Erina NSW 2250, Australia",
    "suburb": "224 Penrose Cres",
    "state": "NSW",
    "rating": 4.9,
    "reviews": 72,
    "lat": -33.4351642,
    "lng": 151.389609,
    "place_id": "ChIJAUVr-nDKcmsRC2FKjnAVbvE",
    "maps_url": "https://www.google.com/maps/place/?q=place_id:ChIJAUVr-nDKcmsRC2FKjnAVbvE"
  },
  {
    "name": "Fite108 Muay Thai, Kickboxing & MMA",
    "address": "5/10 Bluegum Cl, Tuggerah NSW 2259, Australia",
    "suburb": "Tuggerah NSW 2259",
    "state": "NSW",
    "rating": 5,
    "reviews": 94,
    "lat": -33.2921749,
    "lng": 151.4197193,
    "place_id": "ChIJwYANj_3NcmsRnD0tObAEJ6Q",
    "maps_url": "https://www.google.com/maps/place/?q=place_id:ChIJwYANj_3NcmsRnD0tObAEJ6Q"
  },
  {
    "name": "THE PERFORMANCE CENTRE HQ",
    "address": "11-13 Arizona Rd, Charmhaven NSW 2263, Australia",
    "suburb": "Charmhaven NSW 2263",
    "state": "NSW",
    "rating": 4.8,
    "reviews": 86,
    "lat": -33.2424046,
    "lng": 151.494764,
    "place_id": "ChIJx032KIrZcmsROfuCXzvh6vA",
    "maps_url": "https://www.google.com/maps/place/?q=place_id:ChIJx032KIrZcmsROfuCXzvh6vA"
  },
  {
    "name": "Dynamis Muay Thai Central Coast",
    "address": "24 Tatura Ave, Gosford NSW 2250, Australia",
    "suburb": "Gosford NSW 2250",
    "state": "NSW",
    "rating": 5,
    "reviews": 61,
    "lat": -33.4103673,
    "lng": 151.3418686,
    "place_id": "ChIJRXpW9OrLcmsRa-8WCY-IgdU",
    "maps_url": "https://www.google.com/maps/place/?q=place_id:ChIJRXpW9OrLcmsRa-8WCY-IgdU"
  },
  {
    "name": "Garage Jiu Jitsu Central Coast",
    "address": "102/12 Pioneer Ave, Tuggerah NSW 2259, Australia",
    "suburb": "Tuggerah NSW 2259",
    "state": "NSW",
    "rating": 5,
    "reviews": 48,
    "lat": -33.3184146,
    "lng": 151.4248035,
    "place_id": "ChIJn31gBAnPcmsRpxoz7FUtMAM",
    "maps_url": "https://www.google.com/maps/place/?q=place_id:ChIJn31gBAnPcmsRpxoz7FUtMAM"
  },
  {
    "name": "Fight Factory Gosford",
    "address": "3/12 Dignity Cres, West Gosford NSW 2250, Australia",
    "suburb": "West Gosford NSW 2250",
    "state": "NSW",
    "rating": 5,
    "reviews": 24,
    "lat": -33.4183239,
    "lng": 151.3254042,
    "place_id": "ChIJWciv7zTLcmsRxeWeK8UA49U",
    "maps_url": "https://www.google.com/maps/place/?q=place_id:ChIJWciv7zTLcmsRxeWeK8UA49U"
  },
  {
    "name": "Legacy Gym - Weights Boxing Recovery",
    "address": "12 Bilinga Rd, Kincumber NSW 2251, Australia",
    "suburb": "Kincumber NSW 2251",
    "state": "NSW",
    "rating": 4.9,
    "reviews": 38,
    "lat": -33.4738705,
    "lng": 151.3899037,
    "place_id": "ChIJ7Xtn07m1cmsRAM-8pYd5rZk",
    "maps_url": "https://www.google.com/maps/place/?q=place_id:ChIJ7Xtn07m1cmsRAM-8pYd5rZk"
  },
  {
    "name": "Toro Fight and Fitness",
    "address": "Unit 9 & 10/2 London Dr, Wyong NSW 2259, Australia",
    "suburb": "Wyong NSW 2259",
    "state": "NSW",
    "rating": 5,
    "reviews": 30,
    "lat": -33.2654268,
    "lng": 151.4536948,
    "place_id": "ChIJ6cTSjyPPcmsR4KDB2PUoxNY",
    "maps_url": "https://www.google.com/maps/place/?q=place_id:ChIJ6cTSjyPPcmsR4KDB2PUoxNY"
  },
  {
    "name": "Gracie Barra Central Coast",
    "address": "1/12 Aston Rd, Erina NSW 2250, Australia",
    "suburb": "Erina NSW 2250",
    "state": "NSW",
    "rating": 5,
    "reviews": 65,
    "lat": -33.4335967,
    "lng": 151.3842254,
    "place_id": "ChIJBe5dYXrKcmsR4QximbRI_PY",
    "maps_url": "https://www.google.com/maps/place/?q=place_id:ChIJBe5dYXrKcmsR4QximbRI_PY"
  },
  {
    "name": "Kingdom Martial Arts",
    "address": "Floor 1/327-329 West St, Umina Beach NSW 2257, Australia",
    "suburb": "Umina Beach NSW 2257",
    "state": "NSW",
    "rating": 5,
    "reviews": 42,
    "lat": -33.5210482,
    "lng": 151.3179263,
    "place_id": "ChIJR8YX8I5LDWsRanL9YOl52_0",
    "maps_url": "https://www.google.com/maps/place/?q=place_id:ChIJR8YX8I5LDWsRanL9YOl52_0"
  },
  {
    "name": "Team Anaconda Central Coast - Brazilian Jiu Jitsu & MMA",
    "address": "80 Pacific Hwy, Doyalson NSW 2262, Australia",
    "suburb": "Doyalson NSW 2262",
    "state": "NSW",
    "rating": 5,
    "reviews": 29,
    "lat": -33.1974261,
    "lng": 151.5264345,
    "place_id": "ChIJxzFFfL7QcmsR_mKPqEFySmc",
    "maps_url": "https://www.google.com/maps/place/?q=place_id:ChIJxzFFfL7QcmsR_mKPqEFySmc"
  },
  {
    "name": "KMT Muay Thai Boxing Gym",
    "address": "Unit 3/12 Bowen Cres, West Gosford NSW 2250, Australia",
    "suburb": "West Gosford NSW 2250",
    "state": "NSW",
    "rating": 4.9,
    "reviews": 60,
    "lat": -33.4150651,
    "lng": 151.3294688,
    "place_id": "ChIJjwS4WbLKcmsROvBjBAFSYH8",
    "maps_url": "https://www.google.com/maps/place/?q=place_id:ChIJjwS4WbLKcmsROvBjBAFSYH8"
  },
  {
    "name": "Gracie Barra Tuggerah",
    "address": "Unit 8/55-57 Lake Rd, Tuggerah NSW 2259, Australia",
    "suburb": "Tuggerah NSW 2259",
    "state": "NSW",
    "rating": 5,
    "reviews": 60,
    "lat": -33.309516,
    "lng": 151.4287421,
    "place_id": "ChIJIbXN2gHOcmsRn63F-XhhOYc",
    "maps_url": "https://www.google.com/maps/place/?q=place_id:ChIJIbXN2gHOcmsRn63F-XhhOYc"
  },
  {
    "name": "Iconic Jiu Jitsu",
    "address": "15/2/4 Clare-Mace Cres, Berkeley Vale NSW 2261, Australia",
    "suburb": "Berkeley Vale NSW 2261",
    "state": "NSW",
    "rating": 5,
    "reviews": 56,
    "lat": -33.360682,
    "lng": 151.4435419,
    "place_id": "ChIJO3nqeh_JcmsRYk-EKOi3BNw",
    "maps_url": "https://www.google.com/maps/place/?q=place_id:ChIJO3nqeh_JcmsRYk-EKOi3BNw"
  },
  {
    "name": "Wu Xing Dao Kung Fu - MMA Central Coast",
    "address": "1/4 Brooks Ave, Wyoming NSW 2250, Australia",
    "suburb": "Wyoming NSW 2250",
    "state": "NSW",
    "rating": 5,
    "reviews": 49,
    "lat": -33.400342,
    "lng": 151.3470167,
    "place_id": "ChIJe6Yn19zKcmsRYLYQSxtzKEo",
    "maps_url": "https://www.google.com/maps/place/?q=place_id:ChIJe6Yn19zKcmsRYLYQSxtzKEo"
  },
  {
    "name": "For Life Martial Arts",
    "address": "3/15 Charlton St, Woy Woy NSW 2256, Australia",
    "suburb": "Woy Woy NSW 2256",
    "state": "NSW",
    "rating": 4.9,
    "reviews": 52,
    "lat": -33.4889322,
    "lng": 151.3230031,
    "place_id": "ChIJgaJONQbLcmsRSZ7jgSJ0TjM",
    "maps_url": "https://www.google.com/maps/place/?q=place_id:ChIJgaJONQbLcmsRSZ7jgSJ0TjM"
  },
  {
    "name": "Advance Grappling",
    "address": "2/1 Dulmison Ave, Wyong NSW 2259, Australia",
    "suburb": "Wyong NSW 2259",
    "state": "NSW",
    "rating": 4.5,
    "reviews": 34,
    "lat": -33.268725,
    "lng": 151.4410394,
    "place_id": "ChIJd3yjvXTRcmsRCa1wUP_225I",
    "maps_url": "https://www.google.com/maps/place/?q=place_id:ChIJd3yjvXTRcmsRCa1wUP_225I"
  },
  {
    "name": "Ground Control The Entrance",
    "address": "Unit 3/50-52 The Entrance Rd, The Entrance NSW 2261, Australia",
    "suburb": "The Entrance NSW 2261",
    "state": "NSW",
    "rating": 5,
    "reviews": 29,
    "lat": -33.3437598,
    "lng": 151.497188,
    "place_id": "ChIJbzKsl1nPcmsRVMg-o-qMrDw",
    "maps_url": "https://www.google.com/maps/place/?q=place_id:ChIJbzKsl1nPcmsRVMg-o-qMrDw"
  },
  {
    "name": "ENTERPRIZE BOXING & FITNESS",
    "address": "2/33 Arizona Rd, Charmhaven NSW 2263, Australia",
    "suburb": "Charmhaven NSW 2263",
    "state": "NSW",
    "rating": 5,
    "reviews": 2,
    "lat": -33.2404732,
    "lng": 151.4935437,
    "place_id": "ChIJmyAHNr7QcmsR4m6vPjRUZJ0",
    "maps_url": "https://www.google.com/maps/place/?q=place_id:ChIJmyAHNr7QcmsR4m6vPjRUZJ0"
  },
  {
    "name": "Sydney West Martial Arts",
    "address": "Skiptons Arcade, Shop 22 and 23/541 High St, Penrith NSW 2750, Australia",
    "suburb": "Shop 22 and 23/541 High St",
    "state": "NSW",
    "rating": 4.9,
    "reviews": 158,
    "lat": -33.7525681,
    "lng": 150.6942875,
    "place_id": "ChIJr9tiysOFEmsRhCFge3XYyRg",
    "maps_url": "https://www.google.com/maps/place/?q=place_id:ChIJr9tiysOFEmsRhCFge3XYyRg"
  },
  {
    "name": "Machete Muay Thai",
    "address": "Unit 2/57 Regentville Rd, Penrith NSW 2750, Australia",
    "suburb": "Penrith NSW 2750",
    "state": "NSW",
    "rating": 5,
    "reviews": 154,
    "lat": -33.7658484,
    "lng": 150.6819078,
    "place_id": "ChIJC5WQR7OFEmsRNE1--z82_RI",
    "maps_url": "https://www.google.com/maps/place/?q=place_id:ChIJC5WQR7OFEmsRNE1--z82_RI"
  },
  {
    "name": "KMA Penrith",
    "address": "12/37 York Rd, Penrith NSW 2750, Australia",
    "suburb": "Penrith NSW 2750",
    "state": "NSW",
    "rating": 5,
    "reviews": 25,
    "lat": -33.7652659,
    "lng": 150.6878401,
    "place_id": "ChIJ_ag1tFqPEmsR6G-diph2Evc",
    "maps_url": "https://www.google.com/maps/place/?q=place_id:ChIJ_ag1tFqPEmsR6G-diph2Evc"
  },
  {
    "name": "Pollet's Martial Arts Centre Penrith",
    "address": "25/29 Coombes Dr, Penrith NSW 2750, Australia",
    "suburb": "Penrith NSW 2750",
    "state": "NSW",
    "rating": 4.9,
    "reviews": 46,
    "lat": -33.7432412,
    "lng": 150.7024641,
    "place_id": "ChIJlYV_jkWPEmsRhzAGKG8UTrw",
    "maps_url": "https://www.google.com/maps/place/?q=place_id:ChIJlYV_jkWPEmsRhzAGKG8UTrw"
  },
  {
    "name": "Grappling Bros Penrith",
    "address": "Unit 3/2 Abel St, Jamisontown NSW 2750, Australia",
    "suburb": "Jamisontown NSW 2750",
    "state": "NSW",
    "rating": 5,
    "reviews": 38,
    "lat": -33.7661088,
    "lng": 150.6873212,
    "place_id": "ChIJK9FAPgiPEmsR3MZtCdZzDig",
    "maps_url": "https://www.google.com/maps/place/?q=place_id:ChIJK9FAPgiPEmsR3MZtCdZzDig"
  },
  {
    "name": "MSP Muay Thai Gym",
    "address": "5/51 York Rd, Jamisontown NSW 2750, Australia",
    "suburb": "Jamisontown NSW 2750",
    "state": "NSW",
    "rating": 4.9,
    "reviews": 144,
    "lat": -33.767073,
    "lng": 150.6878803,
    "place_id": "ChIJxxVNuJuPEmsRNqTeDRKDVZw",
    "maps_url": "https://www.google.com/maps/place/?q=place_id:ChIJxxVNuJuPEmsRNqTeDRKDVZw"
  },
  {
    "name": "UFA Martial Arts Academy",
    "address": "1st floor/55 York Rd, Penrith NSW 2750, Australia",
    "suburb": "Penrith NSW 2750",
    "state": "NSW",
    "rating": 5,
    "reviews": 31,
    "lat": -33.7674992,
    "lng": 150.6876242,
    "place_id": "ChIJk3_cEkWPEmsRUlWdOQY6RYY",
    "maps_url": "https://www.google.com/maps/place/?q=place_id:ChIJk3_cEkWPEmsRUlWdOQY6RYY"
  },
  {
    "name": "Gracie Barra Penrith",
    "address": "131 Coreen Ave, Penrith NSW 2750, Australia",
    "suburb": "Penrith NSW 2750",
    "state": "NSW",
    "rating": 5,
    "reviews": 35,
    "lat": -33.7439351,
    "lng": 150.6970644,
    "place_id": "ChIJ5VdRkdWFEmsR-6b2KNPegA4",
    "maps_url": "https://www.google.com/maps/place/?q=place_id:ChIJ5VdRkdWFEmsR-6b2KNPegA4"
  },
  {
    "name": "Bro Fit Penrith",
    "address": "U 3/37/39 York Rd, Jamisontown NSW 2750, Australia",
    "suburb": "Jamisontown NSW 2750",
    "state": "NSW",
    "rating": 5,
    "reviews": 16,
    "lat": -33.765553,
    "lng": 150.687788,
    "place_id": "ChIJvQQcHkqPEmsRgYfQ5bPWld8",
    "maps_url": "https://www.google.com/maps/place/?q=place_id:ChIJvQQcHkqPEmsRgYfQ5bPWld8"
  },
  {
    "name": "Emerald Dragon Martial Arts",
    "address": "Unit 1/53-55 Regentville Rd, Penrith NSW 2750, Australia",
    "suburb": "Penrith NSW 2750",
    "state": "NSW",
    "rating": 4.9,
    "reviews": 76,
    "lat": -33.7656968,
    "lng": 150.6822092,
    "place_id": "ChIJWVcQr0-PEmsRPfNSQU9aMI0",
    "maps_url": "https://www.google.com/maps/place/?q=place_id:ChIJWVcQr0-PEmsRPfNSQU9aMI0"
  },
  {
    "name": "Pinnacle Taekwondo Martial Arts in Penrith",
    "address": "3/11 Morello Terrace, Caddens NSW 2747, Australia",
    "suburb": "Caddens NSW 2747",
    "state": "NSW",
    "rating": 5,
    "reviews": 22,
    "lat": -33.7748817,
    "lng": 150.7267049,
    "place_id": "ChIJrZsRaLePEmsR-i-T_2rpAdU",
    "maps_url": "https://www.google.com/maps/place/?q=place_id:ChIJrZsRaLePEmsR-i-T_2rpAdU"
  },
  {
    "name": "Jabout Boxing Gym",
    "address": "15/31 Coombes Dr, Penrith NSW 2750, Australia",
    "suburb": "Penrith NSW 2750",
    "state": "NSW",
    "rating": 5,
    "reviews": 23,
    "lat": -33.7429061,
    "lng": 150.70354,
    "place_id": "ChIJr7rlGJSFEmsR0LlMiHNzV8U",
    "maps_url": "https://www.google.com/maps/place/?q=place_id:ChIJr7rlGJSFEmsR0LlMiHNzV8U"
  },
  {
    "name": "Shogun Martial Arts & Boxing Supplies",
    "address": "76 Regentville Rd, Jamisontown NSW 2750, Australia",
    "suburb": "Jamisontown NSW 2750",
    "state": "NSW",
    "rating": 4.7,
    "reviews": 141,
    "lat": -33.7683741,
    "lng": 150.6808178,
    "place_id": "ChIJjQrjaU6PEmsRPepl0ERD69M",
    "maps_url": "https://www.google.com/maps/place/?q=place_id:ChIJjQrjaU6PEmsRPepl0ERD69M"
  },
  {
    "name": "Western Combatives",
    "address": "Building BO Western Sydney University, Kingswood, Werrington NSW 2747, Australia",
    "suburb": "Kingswood",
    "state": "NSW",
    "rating": 4.1,
    "reviews": 14,
    "lat": -33.7662169,
    "lng": 150.7434287,
    "place_id": "ChIJ0YaFTm6FEmsRC5KdCrjZtZA",
    "maps_url": "https://www.google.com/maps/place/?q=place_id:ChIJ0YaFTm6FEmsRC5KdCrjZtZA"
  },
  {
    "name": "7 Strikes Martial Arts",
    "address": "172/190 Jamison Rd, Penrith NSW 2750, Australia",
    "suburb": "Penrith NSW 2750",
    "state": "NSW",
    "rating": 5,
    "reviews": 6,
    "lat": -33.7627334,
    "lng": 150.6996938,
    "place_id": "ChIJ7X40YVmPEmsRlYVLpGZTIYo",
    "maps_url": "https://www.google.com/maps/place/?q=place_id:ChIJ7X40YVmPEmsRlYVLpGZTIYo"
  },
  {
    "name": "Diamond Thai Boxing",
    "address": "Unit 1/13 Renshaw St, Cranebrook NSW 2749, Australia",
    "suburb": "Cranebrook NSW 2749",
    "state": "NSW",
    "rating": 5,
    "reviews": 40,
    "lat": -33.7297302,
    "lng": 150.7036894,
    "place_id": "ChIJZ593R06FEmsR0lHuZFItkHQ",
    "maps_url": "https://www.google.com/maps/place/?q=place_id:ChIJZ593R06FEmsR0lHuZFItkHQ"
  },
  {
    "name": "PCYC Penrith",
    "address": "100 Station St, Penrith NSW 2750, Australia",
    "suburb": "Penrith NSW 2750",
    "state": "NSW",
    "rating": 4.1,
    "reviews": 42,
    "lat": -33.7546421,
    "lng": 150.6943005,
    "place_id": "ChIJEwoMsfWFEmsRw9FUQQirLuo",
    "maps_url": "https://www.google.com/maps/place/?q=place_id:ChIJEwoMsfWFEmsRw9FUQQirLuo"
  },
  {
    "name": "King HIIT",
    "address": "Unit 1/10 Coombes Dr, Penrith NSW 2750, Australia",
    "suburb": "Penrith NSW 2750",
    "state": "NSW",
    "rating": 5,
    "reviews": 18,
    "lat": -33.7432863,
    "lng": 150.6977716,
    "place_id": "ChIJDRpf-veFEmsRwNNrJlLe9pk",
    "maps_url": "https://www.google.com/maps/place/?q=place_id:ChIJDRpf-veFEmsRwNNrJlLe9pk"
  },
  {
    "name": "GKR Karate",
    "address": "1B/61-79 Henry St, Penrith NSW 2750, Australia",
    "suburb": "Penrith NSW 2750",
    "state": "NSW",
    "rating": 5,
    "reviews": 420,
    "lat": -33.7528349,
    "lng": 150.7005606,
    "place_id": "ChIJGdlBouCFEmsRsGNnCUKXMGo",
    "maps_url": "https://www.google.com/maps/place/?q=place_id:ChIJGdlBouCFEmsRsGNnCUKXMGo"
  },
  {
    "name": "Northend Amateur Boxing Club",
    "address": "16/24 Borec Rd, Penrith NSW 2750, Australia",
    "suburb": "Penrith NSW 2750",
    "state": "NSW",
    "rating": 5,
    "reviews": 16,
    "lat": -33.7354717,
    "lng": 150.693132,
    "place_id": "ChIJJ0-uaTWFEmsR3vMj6oGTKL8",
    "maps_url": "https://www.google.com/maps/place/?q=place_id:ChIJJ0-uaTWFEmsR3vMj6oGTKL8"
  },
  {
    "name": "Full Force Gym",
    "address": "Level 1/40 Third Ave, Blacktown NSW 2148, Australia",
    "suburb": "Blacktown NSW 2148",
    "state": "NSW",
    "rating": 4.9,
    "reviews": 318,
    "lat": -33.7654164,
    "lng": 150.9087004,
    "place_id": "ChIJ20Wk7v2YEmsRoOFYyUiZEnw",
    "maps_url": "https://www.google.com/maps/place/?q=place_id:ChIJ20Wk7v2YEmsRoOFYyUiZEnw"
  },
  {
    "name": "Gracie Barra Blacktown City",
    "address": "1 Melissa Pl, Kings Park NSW 2148, Australia",
    "suburb": "Kings Park NSW 2148",
    "state": "NSW",
    "rating": 5,
    "reviews": 105,
    "lat": -33.7473037,
    "lng": 150.9088169,
    "place_id": "ChIJM8J9f-yZEmsRTvp5n8f6gck",
    "maps_url": "https://www.google.com/maps/place/?q=place_id:ChIJM8J9f-yZEmsRTvp5n8f6gck"
  },
  {
    "name": "Fight Rite Gym",
    "address": "17/1 Bowmans Rd, Kings Park NSW 2148, Australia",
    "suburb": "Kings Park NSW 2148",
    "state": "NSW",
    "rating": 5,
    "reviews": 48,
    "lat": -33.7461787,
    "lng": 150.900875,
    "place_id": "ChIJVUNsXNyYEmsRYYnG_Fkxj8I",
    "maps_url": "https://www.google.com/maps/place/?q=place_id:ChIJVUNsXNyYEmsRYYnG_Fkxj8I"
  },
  {
    "name": "Martial Arts Research Academy - MARA Prospect",
    "address": "3/22 Rowood Rd, Prospect NSW 2148, Australia",
    "suburb": "Prospect NSW 2148",
    "state": "NSW",
    "rating": 4.9,
    "reviews": 52,
    "lat": -33.8011512,
    "lng": 150.9210088,
    "place_id": "ChIJNRyd2xKYEmsRqPMGqiGuHVM",
    "maps_url": "https://www.google.com/maps/place/?q=place_id:ChIJNRyd2xKYEmsRqPMGqiGuHVM"
  },
  {
    "name": "Legends Brazilian Jiu Jitsu Blacktown Sydney",
    "address": "7/20 Valediction Rd, Kings Park NSW 2148, Australia",
    "suburb": "Kings Park NSW 2148",
    "state": "NSW",
    "rating": 5,
    "reviews": 18,
    "lat": -33.7443812,
    "lng": 150.9143826,
    "place_id": "ChIJIdBU4YGZEmsRw60sXEW1oMM",
    "maps_url": "https://www.google.com/maps/place/?q=place_id:ChIJIdBU4YGZEmsRw60sXEW1oMM"
  },
  {
    "name": "PCYC Blacktown",
    "address": "30 Second Ave, Blacktown NSW 2148, Australia",
    "suburb": "Blacktown NSW 2148",
    "state": "NSW",
    "rating": 4.4,
    "reviews": 26,
    "lat": -33.7665802,
    "lng": 150.9090655,
    "place_id": "ChIJbxF5df6YEmsRp_OWOK5oGo0",
    "maps_url": "https://www.google.com/maps/place/?q=place_id:ChIJbxF5df6YEmsRp_OWOK5oGo0"
  },
  {
    "name": "INRG MARTIAL ARTS & FITNESS GYM",
    "address": "Unit 19/36 Abbott Rd, Seven Hills NSW 2147, Australia",
    "suburb": "Seven Hills NSW 2147",
    "state": "NSW",
    "rating": 5,
    "reviews": 75,
    "lat": -33.7675207,
    "lng": 150.9542335,
    "place_id": "ChIJwW1KGZ6YEmsRKm6Dk8Y3IAw",
    "maps_url": "https://www.google.com/maps/place/?q=place_id:ChIJwW1KGZ6YEmsRKm6Dk8Y3IAw"
  },
  {
    "name": "187 Muay Thai Boxing & Fitness",
    "address": "Unit 17/1 Holbeche Rd, Arndell Park NSW 2148, Australia",
    "suburb": "Arndell Park NSW 2148",
    "state": "NSW",
    "rating": 5,
    "reviews": 17,
    "lat": -33.7873591,
    "lng": 150.8725947,
    "place_id": "ChIJ3XTyEQCZEmsRhWCtIfyjm0k",
    "maps_url": "https://www.google.com/maps/place/?q=place_id:ChIJ3XTyEQCZEmsRhWCtIfyjm0k"
  },
  {
    "name": "IMC Martial Arts Centre Prospect",
    "address": "1/18 Stoddart Rd, Prospect NSW 2148, Australia",
    "suburb": "Prospect NSW 2148",
    "state": "NSW",
    "rating": 4.8,
    "reviews": 49,
    "lat": -33.7998238,
    "lng": 150.9212542,
    "place_id": "ChIJWxRgjzmYEmsRKtJehluZ5RM",
    "maps_url": "https://www.google.com/maps/place/?q=place_id:ChIJWxRgjzmYEmsRKtJehluZ5RM"
  },
  {
    "name": "One 2 Boxing Club",
    "address": "Unit 2/55 Fourth Ave, Blacktown NSW 2148, Australia",
    "suburb": "Blacktown NSW 2148",
    "state": "NSW",
    "rating": 5,
    "reviews": 13,
    "lat": -33.7624517,
    "lng": 150.9064576,
    "place_id": "ChIJI5l7i7WZEmsRAg8U7RGY-r8",
    "maps_url": "https://www.google.com/maps/place/?q=place_id:ChIJI5l7i7WZEmsRAg8U7RGY-r8"
  },
  {
    "name": "Gracie Barra Prospect",
    "address": "3/11 Stoddart Rd, Prospect NSW 2148, Australia",
    "suburb": "Prospect NSW 2148",
    "state": "NSW",
    "rating": 5,
    "reviews": 25,
    "lat": -33.80053180000001,
    "lng": 150.9213818,
    "place_id": "ChIJ4fbVmMqZEmsRSTgMnIfsdbw",
    "maps_url": "https://www.google.com/maps/place/?q=place_id:ChIJ4fbVmMqZEmsRSTgMnIfsdbw"
  },
  {
    "name": "GKR Karate",
    "address": "Westpoint Shopping Centre, Shop 4000B Patrick St, Blacktown NSW 2148, Australia",
    "suburb": "Shop 4000B Patrick St",
    "state": "NSW",
    "rating": 4.9,
    "reviews": 241,
    "lat": -33.7701056,
    "lng": 150.9064571,
    "place_id": "ChIJredDR9aZEmsRu5H1KlTW0KE",
    "maps_url": "https://www.google.com/maps/place/?q=place_id:ChIJredDR9aZEmsRu5H1KlTW0KE"
  },
  {
    "name": "All Stars Gym",
    "address": "30 Second Ave, Blacktown NSW 2148, Australia",
    "suburb": "Blacktown NSW 2148",
    "state": "NSW",
    "rating": 5,
    "reviews": 3,
    "lat": -33.7665507,
    "lng": 150.9090492,
    "place_id": "ChIJrfZPyZqZEmsRu2MnBY3Vypk",
    "maps_url": "https://www.google.com/maps/place/?q=place_id:ChIJrfZPyZqZEmsRu2MnBY3Vypk"
  },
  {
    "name": "Alpha Jiu Jitsu Academy",
    "address": "7/20 Valediction Rd, Kings Park NSW 2148, Australia",
    "suburb": "Kings Park NSW 2148",
    "state": "NSW",
    "rating": 5,
    "reviews": 26,
    "lat": -33.7438197,
    "lng": 150.9132733,
    "place_id": "ChIJIeIcrcSYEmsRn3oOYhwL-vo",
    "maps_url": "https://www.google.com/maps/place/?q=place_id:ChIJIeIcrcSYEmsRn3oOYhwL-vo"
  },
  {
    "name": "Total Self Defence Academy Blacktown",
    "address": "Total Self Defence Academy Shelley Public School, 21 Hadrian Ave, Blacktown NSW 2148, Australia",
    "suburb": "21 Hadrian Ave",
    "state": "NSW",
    "rating": 5,
    "reviews": 1,
    "lat": -33.7881759,
    "lng": 150.9176521,
    "place_id": "ChIJyb0DNE-YEmsRM4gOw7I7WtY",
    "maps_url": "https://www.google.com/maps/place/?q=place_id:ChIJyb0DNE-YEmsRM4gOw7I7WtY"
  },
  {
    "name": "KMA Champion Martial Arts",
    "address": "2/227-229 George St, Liverpool NSW 2170, Australia",
    "suburb": "Liverpool NSW 2170",
    "state": "NSW",
    "rating": 4.9,
    "reviews": 101,
    "lat": -33.923456,
    "lng": 150.924621,
    "place_id": "ChIJmUOlVbmVEmsRJh1MlkgWTRg",
    "maps_url": "https://www.google.com/maps/place/?q=place_id:ChIJmUOlVbmVEmsRJh1MlkgWTRg"
  },
  {
    "name": "Australian Fight Academy",
    "address": "L1 Se3, 159-165 Northumberland St, Liverpool NSW 2170, Australia",
    "suburb": "159-165 Northumberland St",
    "state": "NSW",
    "rating": 5,
    "reviews": 13,
    "lat": -33.9214793,
    "lng": 150.9225566,
    "place_id": "ChIJS7c3loSVEmsRoqXqYuBeTTk",
    "maps_url": "https://www.google.com/maps/place/?q=place_id:ChIJS7c3loSVEmsRoqXqYuBeTTk"
  },
  {
    "name": "Gracie Barra Liverpool",
    "address": "Rooftop Level, Westfield Liverpool, Macquarie St, Liverpool NSW 2170, Australia",
    "suburb": "Westfield Liverpool",
    "state": "NSW",
    "rating": 5,
    "reviews": 54,
    "lat": -33.9192647,
    "lng": 150.9240801,
    "place_id": "ChIJDSwVAy-VEmsRGLOGByLcMLM",
    "maps_url": "https://www.google.com/maps/place/?q=place_id:ChIJDSwVAy-VEmsRGLOGByLcMLM"
  },
  {
    "name": "Kings Academy",
    "address": "331 Newbridge Rd, Chipping Norton NSW 2170, Australia",
    "suburb": "Chipping Norton NSW 2170",
    "state": "NSW",
    "rating": 4.8,
    "reviews": 107,
    "lat": -33.9295517,
    "lng": 150.9390988,
    "place_id": "ChIJk2jq7TyuEmsRqXqVFFaqvRc",
    "maps_url": "https://www.google.com/maps/place/?q=place_id:ChIJk2jq7TyuEmsRqXqVFFaqvRc"
  },
  {
    "name": "IMC Liverpool Martial Arts Centre",
    "address": "3/380-384 Hoxton Park Rd, Prestons NSW 2170, Australia",
    "suburb": "Prestons NSW 2170",
    "state": "NSW",
    "rating": 4.7,
    "reviews": 176,
    "lat": -33.92834060000001,
    "lng": 150.8791569,
    "place_id": "ChIJRYYRE4qUEmsReXcU3nSeH3Y",
    "maps_url": "https://www.google.com/maps/place/?q=place_id:ChIJRYYRE4qUEmsReXcU3nSeH3Y"
  },
  {
    "name": "The MMA Academy",
    "address": "17 Vulcan St, Liverpool L3 7BG, UK",
    "suburb": "Liverpool L3 7BG",
    "state": "NSW",
    "rating": 4.7,
    "reviews": 114,
    "lat": 53.41695499999999,
    "lng": -2.999054,
    "place_id": "ChIJXVL5cTUhe0gRwclRebZLO_U",
    "maps_url": "https://www.google.com/maps/place/?q=place_id:ChIJXVL5cTUhe0gRwclRebZLO_U"
  },
  {
    "name": "Absolute Fighting Arts Prestons",
    "address": "Unit 13, 46/48 Jedda Rd, Prestons NSW 2168, Australia",
    "suburb": "46/48 Jedda Rd",
    "state": "NSW",
    "rating": 5,
    "reviews": 39,
    "lat": -33.9356923,
    "lng": 150.8885812,
    "place_id": "ChIJqfu17POUEmsR0Y0X8G_b3AM",
    "maps_url": "https://www.google.com/maps/place/?q=place_id:ChIJqfu17POUEmsR0Y0X8G_b3AM"
  },
  {
    "name": "The Grappling Lab",
    "address": "1b/9 Lyn Parade, Prestons NSW 2170, Australia",
    "suburb": "Prestons NSW 2170",
    "state": "NSW",
    "rating": 5,
    "reviews": 179,
    "lat": -33.9305098,
    "lng": 150.8858259,
    "place_id": "ChIJpZ2H1meVEmsRzyaA002sZ1I",
    "maps_url": "https://www.google.com/maps/place/?q=place_id:ChIJpZ2H1meVEmsRzyaA002sZ1I"
  },
  {
    "name": "Hybrid Impact Training",
    "address": "6/43 Heathcote Rd, Moorebank NSW 2170, Australia",
    "suburb": "Moorebank NSW 2170",
    "state": "NSW",
    "rating": 4.4,
    "reviews": 47,
    "lat": -33.9387056,
    "lng": 150.9392271,
    "place_id": "ChIJiRJS3rqVEmsRTxkepDoHimI",
    "maps_url": "https://www.google.com/maps/place/?q=place_id:ChIJiRJS3rqVEmsRTxkepDoHimI"
  },
  {
    "name": "White Lotus Muay Thai",
    "address": "1 Maryvale Ave, Liverpool NSW 2170, Australia",
    "suburb": "Liverpool NSW 2170",
    "state": "NSW",
    "rating": 4.7,
    "reviews": 31,
    "lat": -33.9232612,
    "lng": 150.9038234,
    "place_id": "ChIJhymKJ0OVEmsRO9_eDyNWhd4",
    "maps_url": "https://www.google.com/maps/place/?q=place_id:ChIJhymKJ0OVEmsRO9_eDyNWhd4"
  },
  {
    "name": "Global Martial Arts",
    "address": "28/340 Hoxton Park Rd, Prestons NSW 2170, Australia",
    "suburb": "Prestons NSW 2170",
    "state": "NSW",
    "rating": 4.8,
    "reviews": 59,
    "lat": -33.9281147,
    "lng": 150.8836557,
    "place_id": "ChIJn75-b467EmsRIkF2zgO2Prg",
    "maps_url": "https://www.google.com/maps/place/?q=place_id:ChIJn75-b467EmsRIkF2zgO2Prg"
  },
  {
    "name": "Cabra Kai Academy",
    "address": "Unit 4 First Floor/175 Hume Hwy, Cabramatta NSW 2166, Australia",
    "suburb": "Cabramatta NSW 2166",
    "state": "NSW",
    "rating": 4.7,
    "reviews": 38,
    "lat": -33.8956996,
    "lng": 150.9545373,
    "place_id": "ChIJ8RjY-QuWEmsR8EQ_LZw9MWM",
    "maps_url": "https://www.google.com/maps/place/?q=place_id:ChIJ8RjY-QuWEmsR8EQ_LZw9MWM"
  },
  {
    "name": "The PIT Martial Arts Liverpool",
    "address": "3 Swain St, Moorebank NSW 2170, Australia",
    "suburb": "Moorebank NSW 2170",
    "state": "NSW",
    "rating": 5,
    "reviews": 1,
    "lat": -33.9319045,
    "lng": 150.9327567,
    "place_id": "ChIJ6zoNUo2VEmsRWwAwSx80lxw",
    "maps_url": "https://www.google.com/maps/place/?q=place_id:ChIJ6zoNUo2VEmsRWwAwSx80lxw"
  },
  {
    "name": "PCYC Liverpool",
    "address": "100 Cartwright Ave, Miller NSW 2168, Australia",
    "suburb": "Miller NSW 2168",
    "state": "NSW",
    "rating": 4.5,
    "reviews": 23,
    "lat": -33.9212772,
    "lng": 150.8878057,
    "place_id": "ChIJvb3p6lyUEmsR9bdsLJIUHF8",
    "maps_url": "https://www.google.com/maps/place/?q=place_id:ChIJvb3p6lyUEmsR9bdsLJIUHF8"
  },
  {
    "name": "Vamos Muay Thai",
    "address": "Ryeland St, Miller NSW 2168, Australia",
    "suburb": "Miller NSW 2168",
    "state": "NSW",
    "rating": 4.9,
    "reviews": 47,
    "lat": -33.9174051,
    "lng": 150.8748149,
    "place_id": "ChIJ07iWbleVEmsR1QRcotKk1Kw",
    "maps_url": "https://www.google.com/maps/place/?q=place_id:ChIJ07iWbleVEmsR1QRcotKk1Kw"
  },
  {
    "name": "Roots Brazilian Jiu Jitsu Liverpool",
    "address": "126 Terminus St, Liverpool NSW 2170, Australia",
    "suburb": "Liverpool NSW 2170",
    "state": "NSW",
    "rating": 5,
    "reviews": 1,
    "lat": -33.9268971,
    "lng": 150.9214714,
    "place_id": "ChIJn7sC3LqVEmsRJIDC_zMIqhE",
    "maps_url": "https://www.google.com/maps/place/?q=place_id:ChIJn7sC3LqVEmsRJIDC_zMIqhE"
  },
  {
    "name": "International Wing Chun Academy (Liverpool)",
    "address": "92 Memorial Ave, Liverpool NSW 2170, Australia",
    "suburb": "Liverpool NSW 2170",
    "state": "NSW",
    "rating": 4.5,
    "reviews": 19,
    "lat": -33.92437530000001,
    "lng": 150.9150539,
    "place_id": "ChIJyRCTKPaVEmsRQ8iPQ1yqqQo",
    "maps_url": "https://www.google.com/maps/place/?q=place_id:ChIJyRCTKPaVEmsRQ8iPQ1yqqQo"
  },
  {
    "name": "Alpha Unit Martial Arts",
    "address": "First Level, Level 1/156/158 Cabramatta Rd E, Cabramatta NSW 2166, Australia",
    "suburb": "Level 1/156/158 Cabramatta Rd E",
    "state": "NSW",
    "rating": 5,
    "reviews": 49,
    "lat": -33.8955162,
    "lng": 150.9391313,
    "place_id": "ChIJSblnBIqXEmsR1osF1UPK8DU",
    "maps_url": "https://www.google.com/maps/place/?q=place_id:ChIJSblnBIqXEmsR1osF1UPK8DU"
  },
  {
    "name": "Gracie Barra Campbelltown",
    "address": "3/185 Airds Rd, Leumeah NSW 2560, Australia",
    "suburb": "Leumeah NSW 2560",
    "state": "NSW",
    "rating": 5,
    "reviews": 37,
    "lat": -34.0489852,
    "lng": 150.8294962,
    "place_id": "ChIJjfw48ZDuEmsRsfS0-2bH7GY",
    "maps_url": "https://www.google.com/maps/place/?q=place_id:ChIJjfw48ZDuEmsRsfS0-2bH7GY"
  },
  {
    "name": "Jungle Boxing Club",
    "address": "Unit 3/15 Mill Rd, Campbelltown NSW 2560, Australia",
    "suburb": "Campbelltown NSW 2560",
    "state": "NSW",
    "rating": 5,
    "reviews": 15,
    "lat": -34.0526593,
    "lng": 150.8209795,
    "place_id": "ChIJrbvF4nPvEmsR-Oy_oZhMyus",
    "maps_url": "https://www.google.com/maps/place/?q=place_id:ChIJrbvF4nPvEmsR-Oy_oZhMyus"
  },
  {
    "name": "Wolflife Academy",
    "address": "1 Mount Erin Rd, Campbelltown NSW 2560, Australia",
    "suburb": "Campbelltown NSW 2560",
    "state": "NSW",
    "rating": 5,
    "reviews": 45,
    "lat": -34.05894079999999,
    "lng": 150.8051605,
    "place_id": "ChIJmZjerO7vEmsRb1-bkJEhAFk",
    "maps_url": "https://www.google.com/maps/place/?q=place_id:ChIJmZjerO7vEmsRb1-bkJEhAFk"
  },
  {
    "name": "CMA Martial Arts Centre",
    "address": "4/157 Airds Rd, Minto NSW 2566, Australia",
    "suburb": "Minto NSW 2566",
    "state": "NSW",
    "rating": 4.8,
    "reviews": 87,
    "lat": -34.042126,
    "lng": 150.830678,
    "place_id": "ChIJ23vRC5zuEmsRK7UVLsGVuzU",
    "maps_url": "https://www.google.com/maps/place/?q=place_id:ChIJ23vRC5zuEmsRK7UVLsGVuzU"
  },
  {
    "name": "BULLDOG GYM CAMPBELLTOWN",
    "address": "4/39 Stanley Rd, Ingleburn NSW 2565, Australia",
    "suburb": "Ingleburn NSW 2565",
    "state": "NSW",
    "rating": 5,
    "reviews": 17,
    "lat": -33.9964638,
    "lng": 150.8644791,
    "place_id": "ChIJmVJz5nzrEmsRDsM_Rerbil8",
    "maps_url": "https://www.google.com/maps/place/?q=place_id:ChIJmVJz5nzrEmsRDsM_Rerbil8"
  },
  {
    "name": "GMF Gym",
    "address": "8/185 Airds Rd, Leumeah NSW 2560, Australia",
    "suburb": "Leumeah NSW 2560",
    "state": "NSW",
    "rating": 4.9,
    "reviews": 70,
    "lat": -34.0485581,
    "lng": 150.829834,
    "place_id": "ChIJ37xt6fSUEmsRKDn--EDfIgk",
    "maps_url": "https://www.google.com/maps/place/?q=place_id:ChIJ37xt6fSUEmsRKDn--EDfIgk"
  },
  {
    "name": "UFC GYM Macarthur Square",
    "address": "Shop, L03/200 Gilchrist Dr, Campbelltown NSW 2560, Australia",
    "suburb": "L03/200 Gilchrist Dr",
    "state": "NSW",
    "rating": 4.2,
    "reviews": 198,
    "lat": -34.0729902,
    "lng": 150.7966138,
    "place_id": "ChIJyxCBFfnvEmsR2-TJkoZM72w",
    "maps_url": "https://www.google.com/maps/place/?q=place_id:ChIJyxCBFfnvEmsR2-TJkoZM72w"
  },
  {
    "name": "ONYX Brazilian Jiu Jitsu",
    "address": "2/42-44 Queen St, Campbelltown NSW 2560, Australia",
    "suburb": "Campbelltown NSW 2560",
    "state": "NSW",
    "rating": 4.9,
    "reviews": 49,
    "lat": -34.060245,
    "lng": 150.8205409,
    "place_id": "ChIJ4eSAtwrvEmsRtSttGp6fpe4",
    "maps_url": "https://www.google.com/maps/place/?q=place_id:ChIJ4eSAtwrvEmsRtSttGp6fpe4"
  },
  {
    "name": "UFC Gym",
    "address": "Level 1/25 Restwell St, Bankstown NSW 2200, Australia",
    "suburb": "Bankstown NSW 2200",
    "state": "NSW",
    "rating": 4.3,
    "reviews": 343,
    "lat": -33.9197502,
    "lng": 151.0345153,
    "place_id": "ChIJM7drUP69EmsRyjmeEbeH1cI",
    "maps_url": "https://www.google.com/maps/place/?q=place_id:ChIJM7drUP69EmsRyjmeEbeH1cI"
  },
  {
    "name": "Integrated Combat Centre - Martial Arts Bankstown",
    "address": "1/25 Hoskins Ave, Bankstown NSW 2200, Australia",
    "suburb": "Bankstown NSW 2200",
    "state": "NSW",
    "rating": 5,
    "reviews": 27,
    "lat": -33.931292,
    "lng": 151.03145,
    "place_id": "ChIJ551Jk_a_EmsRL2sS-PiHysc",
    "maps_url": "https://www.google.com/maps/place/?q=place_id:ChIJ551Jk_a_EmsRL2sS-PiHysc"
  },
  {
    "name": "Fightclub Bankstown",
    "address": "10 The Appian Way, Bankstown NSW 2200, Australia",
    "suburb": "Bankstown NSW 2200",
    "state": "NSW",
    "rating": 4.8,
    "reviews": 18,
    "lat": -33.9170173,
    "lng": 151.0353479,
    "place_id": "ChIJu2hhrRq8EmsRPA2v9WXk0yA",
    "maps_url": "https://www.google.com/maps/place/?q=place_id:ChIJu2hhrRq8EmsRPA2v9WXk0yA"
  },
  {
    "name": "Nitrixx Fitness",
    "address": "Unit 6/4 Brunker Rd, Chullora NSW 2190, Australia",
    "suburb": "Chullora NSW 2190",
    "state": "NSW",
    "rating": 4.6,
    "reviews": 77,
    "lat": -33.8996776,
    "lng": 151.0440687,
    "place_id": "ChIJ3Q_kDHe8EmsR4ly8hM1jxdE",
    "maps_url": "https://www.google.com/maps/place/?q=place_id:ChIJ3Q_kDHe8EmsR4ly8hM1jxdE"
  },
  {
    "name": "Bankstown Martial Arts",
    "address": "Unit 6/4 Brunker Rd, Chullora NSW 2190, Australia",
    "suburb": "Chullora NSW 2190",
    "state": "NSW",
    "rating": 4.8,
    "reviews": 28,
    "lat": -33.8997421,
    "lng": 151.0439553,
    "place_id": "ChIJD2hswnO8EmsRZWrkXvX9yeU",
    "maps_url": "https://www.google.com/maps/place/?q=place_id:ChIJD2hswnO8EmsRZWrkXvX9yeU"
  },
  {
    "name": "Eagles Gym",
    "address": "268 The Boulevarde, Punchbowl NSW 2196, Australia",
    "suburb": "Punchbowl NSW 2196",
    "state": "NSW",
    "rating": 4.9,
    "reviews": 35,
    "lat": -33.9260078,
    "lng": 151.0547697,
    "place_id": "ChIJP_57g967EmsR100IYyMhP9g",
    "maps_url": "https://www.google.com/maps/place/?q=place_id:ChIJP_57g967EmsR100IYyMhP9g"
  },
  {
    "name": "A's Dojo Martial Arts",
    "address": "Level 1/500 Hume Hwy, Yagoona NSW 2199, Australia",
    "suburb": "Yagoona NSW 2199",
    "state": "NSW",
    "rating": 5,
    "reviews": 93,
    "lat": -33.9071206,
    "lng": 151.0241778,
    "place_id": "ChIJc5Z9SRS8EmsRaM-wQG20Qsw",
    "maps_url": "https://www.google.com/maps/place/?q=place_id:ChIJc5Z9SRS8EmsRaM-wQG20Qsw"
  },
  {
    "name": "Forza Jiu Jitsu Bankstown",
    "address": "6 Chapel Rd, Bankstown NSW 2200, Australia",
    "suburb": "Bankstown NSW 2200",
    "state": "NSW",
    "rating": 5,
    "reviews": 56,
    "lat": -33.9333434,
    "lng": 151.0270323,
    "place_id": "ChIJ1S96aaW_EmsRz8LXbe3dM2s",
    "maps_url": "https://www.google.com/maps/place/?q=place_id:ChIJ1S96aaW_EmsRz8LXbe3dM2s"
  },
  {
    "name": "PMA Mixed Martial Arts",
    "address": "3 115/117 Fairford Rd, Padstow NSW 2211, Australia",
    "suburb": "Padstow NSW 2211",
    "state": "NSW",
    "rating": 4.8,
    "reviews": 45,
    "lat": -33.9433589,
    "lng": 151.0340355,
    "place_id": "ChIJ150wt7m-EmsRNZNMeRZsVg4",
    "maps_url": "https://www.google.com/maps/place/?q=place_id:ChIJ150wt7m-EmsRNZNMeRZsVg4"
  },
  {
    "name": "Blitz Martial Arts",
    "address": "19/380 Marion St, Condell Park NSW 2200, Australia",
    "suburb": "Condell Park NSW 2200",
    "state": "NSW",
    "rating": 5,
    "reviews": 26,
    "lat": -33.9170822,
    "lng": 151.0024062,
    "place_id": "ChIJvwwQGbW9EmsRSAa_lNk1qQM",
    "maps_url": "https://www.google.com/maps/place/?q=place_id:ChIJvwwQGbW9EmsRSAa_lNk1qQM"
  },
  {
    "name": "Integrated Combat Centre",
    "address": "17/12-14 Norman St, Peakhurst NSW 2210, Australia",
    "suburb": "Peakhurst NSW 2210",
    "state": "NSW",
    "rating": 5,
    "reviews": 317,
    "lat": -33.9638385,
    "lng": 151.0657996,
    "place_id": "ChIJTTsjKTu5EmsR-x6WAS3PESE",
    "maps_url": "https://www.google.com/maps/place/?q=place_id:ChIJTTsjKTu5EmsR-x6WAS3PESE"
  },
  {
    "name": "Black Tiger Martial Arts",
    "address": "16/175 Canterbury Rd, Bankstown NSW 2200, Australia",
    "suburb": "Bankstown NSW 2200",
    "state": "NSW",
    "rating": 3,
    "reviews": 2,
    "lat": -33.9336224,
    "lng": 151.0288246,
    "place_id": "ChIJY0TvQxq8EmsR9ZogZNdVDpE",
    "maps_url": "https://www.google.com/maps/place/?q=place_id:ChIJY0TvQxq8EmsR9ZogZNdVDpE"
  },
  {
    "name": "PCYC Bankstown",
    "address": "Cnr French Ave &, Meredith St, Bankstown NSW 2200, Australia",
    "suburb": "Meredith St",
    "state": "NSW",
    "rating": 4.3,
    "reviews": 28,
    "lat": -33.9131173,
    "lng": 151.0322579,
    "place_id": "ChIJwVPQAxG8EmsRPgI-e8kGwzk",
    "maps_url": "https://www.google.com/maps/place/?q=place_id:ChIJwVPQAxG8EmsRPgI-e8kGwzk"
  },
  {
    "name": "KMA Bankstown",
    "address": "461 Chapel Rd, Bankstown NSW 2200, Australia",
    "suburb": "Bankstown NSW 2200",
    "state": "NSW",
    "rating": 5,
    "reviews": 3,
    "lat": -33.9133088,
    "lng": 151.0346787,
    "place_id": "ChIJR6gDbiW9EmsRa8qhNzJ5H34",
    "maps_url": "https://www.google.com/maps/place/?q=place_id:ChIJR6gDbiW9EmsRa8qhNzJ5H34"
  },
  {
    "name": "Black Wolf Boxing Academy",
    "address": "2/11 Davies Rd, Padstow NSW 2211, Australia",
    "suburb": "Padstow NSW 2211",
    "state": "NSW",
    "rating": 5,
    "reviews": 1,
    "lat": -33.946655,
    "lng": 151.0382204,
    "place_id": "ChIJmREjvfC_EmsRx0SE0CsEiSM",
    "maps_url": "https://www.google.com/maps/place/?q=place_id:ChIJmREjvfC_EmsRx0SE0CsEiSM"
  },
  {
    "name": "Bankstown Martial Arts - Revesby",
    "address": "41/21 Marigold St, Revesby NSW 2212, Australia",
    "suburb": "Revesby NSW 2212",
    "state": "NSW",
    "rating": null,
    "reviews": 0,
    "lat": -33.9354682,
    "lng": 150.9996525,
    "place_id": "ChIJWZrqTDS_EmsR_dewPNOsSqA",
    "maps_url": "https://www.google.com/maps/place/?q=place_id:ChIJWZrqTDS_EmsR_dewPNOsSqA"
  },
  {
    "name": "Bankstown Sports Club",
    "address": "8 Greenfield Parade, Bankstown NSW 2200, Australia",
    "suburb": "Bankstown NSW 2200",
    "state": "NSW",
    "rating": 4.3,
    "reviews": 4778,
    "lat": -33.9199389,
    "lng": 151.0338791,
    "place_id": "ChIJxS7BDBu8EmsRyUpag-3xTZU",
    "maps_url": "https://www.google.com/maps/place/?q=place_id:ChIJxS7BDBu8EmsRyUpag-3xTZU"
  },
  {
    "name": "BroFit Bankstown",
    "address": "6/60 Allingham St, Condell Park NSW 2200, Australia",
    "suburb": "Condell Park NSW 2200",
    "state": "NSW",
    "rating": 5,
    "reviews": 10,
    "lat": -33.9198321,
    "lng": 150.998146,
    "place_id": "ChIJLygO5C2_EmsRr41jngyaRB4",
    "maps_url": "https://www.google.com/maps/place/?q=place_id:ChIJLygO5C2_EmsRr41jngyaRB4"
  },
  {
    "name": "Crunch Fitness Bankstown",
    "address": "Bankstown Central Shopping Centre, level 3 Rickard Rd, Bankstown NSW 2200, Australia",
    "suburb": "level 3 Rickard Rd",
    "state": "NSW",
    "rating": 4.3,
    "reviews": 811,
    "lat": -33.9163857,
    "lng": 151.0395228,
    "place_id": "ChIJZ47GdA-8EmsRffBGb-QHruM",
    "maps_url": "https://www.google.com/maps/place/?q=place_id:ChIJZ47GdA-8EmsRffBGb-QHruM"
  },
  {
    "name": "Cyber X Martial Arts evolution begins here... (Bankstown Taekwondo Academy School)",
    "address": "Bankstown Senior Citizens Centre, 7 West Terrace, Bankstown NSW 2200, Australia",
    "suburb": "7 West Terrace",
    "state": "NSW",
    "rating": 4.8,
    "reviews": 6,
    "lat": -33.9190774,
    "lng": 151.0365182,
    "place_id": "ChIJwVPQAxG8EmsRByqr-4klFIo",
    "maps_url": "https://www.google.com/maps/place/?q=place_id:ChIJwVPQAxG8EmsRByqr-4klFIo"
  },
  {
    "name": "Legacy BJJ Chatswood",
    "address": "19b/390 Eastern Valley Way, Chatswood NSW 2067, Australia",
    "suburb": "Chatswood NSW 2067",
    "state": "NSW",
    "rating": 4.9,
    "reviews": 68,
    "lat": -33.7831571,
    "lng": 151.1966015,
    "place_id": "ChIJfdyAla6vEmsRghEYdHrfdRg",
    "maps_url": "https://www.google.com/maps/place/?q=place_id:ChIJfdyAla6vEmsRghEYdHrfdRg"
  },
  {
    "name": "SGC MMA",
    "address": "6 McCabe Pl, Chatswood NSW 2067, Australia",
    "suburb": "Chatswood NSW 2067",
    "state": "NSW",
    "rating": 5,
    "reviews": 35,
    "lat": -33.7894363,
    "lng": 151.2019786,
    "place_id": "ChIJ9XWVlOGpEmsRbaA3PqjnmEU",
    "maps_url": "https://www.google.com/maps/place/?q=place_id:ChIJ9XWVlOGpEmsRbaA3PqjnmEU"
  },
  {
    "name": "Equinox Martial Arts Academy",
    "address": "18/390 Eastern Valley Way, Chatswood NSW 2067, Australia",
    "suburb": "Chatswood NSW 2067",
    "state": "NSW",
    "rating": 5,
    "reviews": 201,
    "lat": -33.7830249,
    "lng": 151.1967726,
    "place_id": "ChIJQ-K346SpEmsRPzFLeTyUM30",
    "maps_url": "https://www.google.com/maps/place/?q=place_id:ChIJQ-K346SpEmsRPzFLeTyUM30"
  },
  {
    "name": "Invictus Health Club",
    "address": "544 Pacific Hwy, Chatswood NSW 2067, Australia",
    "suburb": "Chatswood NSW 2067",
    "state": "NSW",
    "rating": 4.8,
    "reviews": 77,
    "lat": -33.8046077,
    "lng": 151.1790915,
    "place_id": "ChIJ-_7WXEyvEmsRutpIrOXEr10",
    "maps_url": "https://www.google.com/maps/place/?q=place_id:ChIJ-_7WXEyvEmsRutpIrOXEr10"
  },
  {
    "name": "Quantum Martial Arts Chatswood",
    "address": "C/- Dougherty Community Centre, 7 Victor St, Chatswood NSW 2067, Australia",
    "suburb": "7 Victor St",
    "state": "NSW",
    "rating": 4.8,
    "reviews": 40,
    "lat": -33.7990051,
    "lng": 151.1831806,
    "place_id": "ChIJ90r2wdSoEmsRwzi_GNW57No",
    "maps_url": "https://www.google.com/maps/place/?q=place_id:ChIJ90r2wdSoEmsRwzi_GNW57No"
  },
  {
    "name": "SJJA Chatswood",
    "address": "LEVEL 1 13/15 Smith St, Chatswood NSW 2067, Australia",
    "suburb": "Chatswood NSW 2067",
    "state": "NSW",
    "rating": 5,
    "reviews": 32,
    "lat": -33.786704,
    "lng": 151.19736,
    "place_id": "ChIJ84jbPmapEmsRncN5_HqdR_c",
    "maps_url": "https://www.google.com/maps/place/?q=place_id:ChIJ84jbPmapEmsRncN5_HqdR_c"
  },
  {
    "name": "JWK North Shore",
    "address": "19b/390 Eastern Valley Way, Chatswood NSW 2067, Australia",
    "suburb": "Chatswood NSW 2067",
    "state": "NSW",
    "rating": 5,
    "reviews": 23,
    "lat": -33.7831864,
    "lng": 151.1969024,
    "place_id": "ChIJEYdpJq-pEmsRKufAYLRDqrY",
    "maps_url": "https://www.google.com/maps/place/?q=place_id:ChIJEYdpJq-pEmsRKufAYLRDqrY"
  },
  {
    "name": "Wyllie Martial Arts",
    "address": "94 Penshurst St, Willoughby NSW 2068, Australia",
    "suburb": "Willoughby NSW 2068",
    "state": "NSW",
    "rating": 5,
    "reviews": 103,
    "lat": -33.8018713,
    "lng": 151.1982464,
    "place_id": "ChIJ08-AeDKpEmsR39pqAmyU5vs",
    "maps_url": "https://www.google.com/maps/place/?q=place_id:ChIJ08-AeDKpEmsR39pqAmyU5vs"
  },
  {
    "name": "Prodigy MMA",
    "address": "Level 2/36 Dickson Ave, Artarmon NSW 2064, Australia",
    "suburb": "Artarmon NSW 2064",
    "state": "NSW",
    "rating": 4.7,
    "reviews": 46,
    "lat": -33.8160271,
    "lng": 151.1846501,
    "place_id": "ChIJtYdrOCGvEmsRHQ5tKG2t3bg",
    "maps_url": "https://www.google.com/maps/place/?q=place_id:ChIJtYdrOCGvEmsRHQ5tKG2t3bg"
  },
  {
    "name": "Crunch Fitness Chatswood",
    "address": "Chatswood Central, Level 1 1/5 Railway St, Chatswood NSW 2067, Australia",
    "suburb": "Level 1 1/5 Railway St",
    "state": "NSW",
    "rating": 4.2,
    "reviews": 1023,
    "lat": -33.7962742,
    "lng": 151.1806245,
    "place_id": "ChIJP9yLjNOoEmsROn5OZwn6pyo",
    "maps_url": "https://www.google.com/maps/place/?q=place_id:ChIJP9yLjNOoEmsROn5OZwn6pyo"
  },
  {
    "name": "KOPD Boxing",
    "address": "18/390 Eastern Valley Way, Chatswood NSW 2067, Australia",
    "suburb": "Chatswood NSW 2067",
    "state": "NSW",
    "rating": 5,
    "reviews": 38,
    "lat": -33.7829739,
    "lng": 151.1966757,
    "place_id": "ChIJnUCNpiKpEmsRc0Ldq-Vj05k",
    "maps_url": "https://www.google.com/maps/place/?q=place_id:ChIJnUCNpiKpEmsRc0Ldq-Vj05k"
  },
  {
    "name": "Training Grounds",
    "address": "460 Pacific Hwy, St Leonards NSW 2065, Australia",
    "suburb": "St Leonards NSW 2065",
    "state": "NSW",
    "rating": 4.9,
    "reviews": 105,
    "lat": -33.82466480000001,
    "lng": 151.1975407,
    "place_id": "ChIJ_____-iuEmsRVe8Qzgmlo7M",
    "maps_url": "https://www.google.com/maps/place/?q=place_id:ChIJ_____-iuEmsRVe8Qzgmlo7M"
  },
  {
    "name": "RISE Muay Thai Fitness",
    "address": "312A High St, Chatswood NSW 2067, Australia",
    "suburb": "Chatswood NSW 2067",
    "state": "NSW",
    "rating": 5,
    "reviews": 7,
    "lat": -33.7869492,
    "lng": 151.1962957,
    "place_id": "ChIJ3cz-HwmpEmsROi6tYm2tOlc",
    "maps_url": "https://www.google.com/maps/place/?q=place_id:ChIJ3cz-HwmpEmsROi6tYm2tOlc"
  },
  {
    "name": "White Wolf Dojo",
    "address": "St Barnabas Anglican Church hall, 81 Macquarie St, Roseville NSW 2069, Australia",
    "suburb": "81 Macquarie St",
    "state": "NSW",
    "rating": 5,
    "reviews": 44,
    "lat": -33.786904,
    "lng": 151.1893649,
    "place_id": "ChIJkyVLG0mpEmsR-t-3fLinOrY",
    "maps_url": "https://www.google.com/maps/place/?q=place_id:ChIJkyVLG0mpEmsR-t-3fLinOrY"
  },
  {
    "name": "Combat Cartel",
    "address": "9 Sirius Rd, Lane Cove West NSW 2066, Australia",
    "suburb": "Lane Cove West NSW 2066",
    "state": "NSW",
    "rating": 4.8,
    "reviews": 41,
    "lat": -33.80846,
    "lng": 151.1460874,
    "place_id": "ChIJr0ZjOTmvEmsRJ7RL2F68qtA",
    "maps_url": "https://www.google.com/maps/place/?q=place_id:ChIJr0ZjOTmvEmsRJ7RL2F68qtA"
  },
  {
    "name": "Foundations SD",
    "address": "Ground floor, Tower A/799 Pacific Hwy, Chatswood NSW 2067, Australia",
    "suburb": "Tower A/799 Pacific Hwy",
    "state": "NSW",
    "rating": 5,
    "reviews": 35,
    "lat": -33.7978796,
    "lng": 151.1791974,
    "place_id": "ChIJKQaDUEqpEmsRVMrbQF38LZ0",
    "maps_url": "https://www.google.com/maps/place/?q=place_id:ChIJKQaDUEqpEmsRVMrbQF38LZ0"
  },
  {
    "name": "International Wing Chun Academy (Chatswood)",
    "address": "120 Fullers Rd, Chatswood West NSW 2067, Australia",
    "suburb": "Chatswood West NSW 2067",
    "state": "NSW",
    "rating": 5,
    "reviews": 1,
    "lat": -33.796178,
    "lng": 151.166424,
    "place_id": "ChIJNf0-KcuoEmsRTQ9FIHcYmUg",
    "maps_url": "https://www.google.com/maps/place/?q=place_id:ChIJNf0-KcuoEmsRTQ9FIHcYmUg"
  },
  {
    "name": "SJJA Crows Nest",
    "address": "51 Hume St, Crows Nest NSW 2065, Australia",
    "suburb": "Crows Nest NSW 2065",
    "state": "NSW",
    "rating": 4.9,
    "reviews": 216,
    "lat": -33.8248709,
    "lng": 151.2002343,
    "place_id": "ChIJSRJGQeiuEmsRWxJDbeYhGd0",
    "maps_url": "https://www.google.com/maps/place/?q=place_id:ChIJSRJGQeiuEmsRWxJDbeYhGd0"
  },
  {
    "name": "Carioti MMA",
    "address": "53 Jersey St, Hornsby NSW 2077, Australia",
    "suburb": "Hornsby NSW 2077",
    "state": "NSW",
    "rating": 4.9,
    "reviews": 161,
    "lat": -33.6985645,
    "lng": 151.0985169,
    "place_id": "ChIJQzytEh2nEmsRDhm_jRkKY_E",
    "maps_url": "https://www.google.com/maps/place/?q=place_id:ChIJQzytEh2nEmsRDhm_jRkKY_E"
  },
  {
    "name": "SKM Martial Arts",
    "address": "2/1 Leighton Pl, Hornsby NSW 2077, Australia",
    "suburb": "Hornsby NSW 2077",
    "state": "NSW",
    "rating": 5,
    "reviews": 28,
    "lat": -33.697121,
    "lng": 151.111603,
    "place_id": "ChIJD0zp1YOnEmsRP2iuxKel1D8",
    "maps_url": "https://www.google.com/maps/place/?q=place_id:ChIJD0zp1YOnEmsRP2iuxKel1D8"
  },
  {
    "name": "SJJA Hornsby",
    "address": "2/104 George St, Hornsby NSW 2077, Australia",
    "suburb": "Hornsby NSW 2077",
    "state": "NSW",
    "rating": 5,
    "reviews": 46,
    "lat": -33.7007835,
    "lng": 151.1002126,
    "place_id": "ChIJq5Zc-8mnEmsRqehcaf4DG44",
    "maps_url": "https://www.google.com/maps/place/?q=place_id:ChIJq5Zc-8mnEmsRqehcaf4DG44"
  },
  {
    "name": "Gracie Barra Hornsby",
    "address": "2/138-140 George St, Hornsby NSW 2077, Australia",
    "suburb": "Hornsby NSW 2077",
    "state": "NSW",
    "rating": 4.9,
    "reviews": 68,
    "lat": -33.69903,
    "lng": 151.100625,
    "place_id": "ChIJx2FMR4enEmsRfp434tbeegA",
    "maps_url": "https://www.google.com/maps/place/?q=place_id:ChIJx2FMR4enEmsRfp434tbeegA"
  },
  {
    "name": "Black Belt Martial Arts Hornsby",
    "address": "Suite 8, Level 1/6-18 Bridge Rd, Hornsby NSW 2077, Australia",
    "suburb": "Level 1/6-18 Bridge Rd",
    "state": "NSW",
    "rating": 4.8,
    "reviews": 130,
    "lat": -33.6977653,
    "lng": 151.1013793,
    "place_id": "ChIJJ23_IYenEmsRYUfMHHxdVsY",
    "maps_url": "https://www.google.com/maps/place/?q=place_id:ChIJJ23_IYenEmsRYUfMHHxdVsY"
  },
  {
    "name": "PCYC Hornsby / Ku-ring-gai",
    "address": "1 Park Ln, Waitara NSW 2077, Australia",
    "suburb": "Waitara NSW 2077",
    "state": "NSW",
    "rating": 3.6,
    "reviews": 126,
    "lat": -33.7089999,
    "lng": 151.1059711,
    "place_id": "ChIJF-ZCy4anEmsR6b15zUDp05c",
    "maps_url": "https://www.google.com/maps/place/?q=place_id:ChIJF-ZCy4anEmsR6b15zUDp05c"
  },
  {
    "name": "Braddah Jiu Jitsu Thornleigh",
    "address": "Unit 4/258 Pennant Hills Rd, Thornleigh NSW 2120, Australia",
    "suburb": "Thornleigh NSW 2120",
    "state": "NSW",
    "rating": 5,
    "reviews": 60,
    "lat": -33.7313781,
    "lng": 151.0799505,
    "place_id": "ChIJW8AhNBqnEmsRc_Wv6YycCM4",
    "maps_url": "https://www.google.com/maps/place/?q=place_id:ChIJW8AhNBqnEmsRc_Wv6YycCM4"
  },
  {
    "name": "Control Martial Arts",
    "address": "A17/2-4 Central Ave, Thornleigh NSW 2120, Australia",
    "suburb": "Thornleigh NSW 2120",
    "state": "NSW",
    "rating": 5,
    "reviews": 69,
    "lat": -33.7300638,
    "lng": 151.0814505,
    "place_id": "ChIJyesDWoynEmsRSF--8tiYzXM",
    "maps_url": "https://www.google.com/maps/place/?q=place_id:ChIJyesDWoynEmsRSF--8tiYzXM"
  },
  {
    "name": "The Wrestling Room",
    "address": "53 Jersey St, Hornsby NSW 2077, Australia",
    "suburb": "Hornsby NSW 2077",
    "state": "NSW",
    "rating": 5,
    "reviews": 1,
    "lat": -33.6985611,
    "lng": 151.0984708,
    "place_id": "ChIJo_FAtxinEmsRTSPshAsh2EA",
    "maps_url": "https://www.google.com/maps/place/?q=place_id:ChIJo_FAtxinEmsRTSPshAsh2EA"
  },
  {
    "name": "Hornsby Karate",
    "address": "52 Ida St, Hornsby NSW 2077, Australia",
    "suburb": "Hornsby NSW 2077",
    "state": "NSW",
    "rating": 5,
    "reviews": 1,
    "lat": -33.6827163,
    "lng": 151.0987688,
    "place_id": "ChIJH4gy8GNYDWsRP4eSIMkY_xQ",
    "maps_url": "https://www.google.com/maps/place/?q=place_id:ChIJH4gy8GNYDWsRP4eSIMkY_xQ"
  },
  {
    "name": "Kukki Taekwondo Martial Arts",
    "address": "130 George St, Hornsby NSW 2077, Australia",
    "suburb": "Hornsby NSW 2077",
    "state": "NSW",
    "rating": 4.5,
    "reviews": 17,
    "lat": -33.699439,
    "lng": 151.100565,
    "place_id": "ChIJq2AC54anEmsR5HJPt-0G2_o",
    "maps_url": "https://www.google.com/maps/place/?q=place_id:ChIJq2AC54anEmsR5HJPt-0G2_o"
  },
  {
    "name": "Apex MMA, Muay Thai & Jiu-Jitsu",
    "address": "L1/28 Cross St, Brookvale NSW 2100, Australia",
    "suburb": "Brookvale NSW 2100",
    "state": "NSW",
    "rating": 5,
    "reviews": 154,
    "lat": -33.7639579,
    "lng": 151.2653952,
    "place_id": "ChIJreC4Di6rEmsR0jMnDCCMFtE",
    "maps_url": "https://www.google.com/maps/place/?q=place_id:ChIJreC4Di6rEmsR0jMnDCCMFtE"
  },
  {
    "name": "Shinkyokushin Karate Yahiro Dojo (Hornsby)",
    "address": "25 Edgeworth David Ave, Hornsby NSW 2077, Australia",
    "suburb": "Hornsby NSW 2077",
    "state": "NSW",
    "rating": 5,
    "reviews": 1,
    "lat": -33.7052586,
    "lng": 151.1050963,
    "place_id": "ChIJqTohtOqnEmsRLpTUYpNXxv0",
    "maps_url": "https://www.google.com/maps/place/?q=place_id:ChIJqTohtOqnEmsRLpTUYpNXxv0"
  },
  {
    "name": "Hornsby 24/7 Gym",
    "address": "100/102 George St, Hornsby NSW 2077, Australia",
    "suburb": "Hornsby NSW 2077",
    "state": "NSW",
    "rating": 4,
    "reviews": 102,
    "lat": -33.702187,
    "lng": 151.0997078,
    "place_id": "ChIJ2-vdz4anEmsRFM-qqODOsNc",
    "maps_url": "https://www.google.com/maps/place/?q=place_id:ChIJ2-vdz4anEmsRFM-qqODOsNc"
  },
  {
    "name": "Australian School of Self-Defence",
    "address": "103 Hunter St, Hornsby NSW 2077, Australia",
    "suburb": "Hornsby NSW 2077",
    "state": "NSW",
    "rating": null,
    "reviews": 0,
    "lat": -33.6988794,
    "lng": 151.1012283,
    "place_id": "ChIJzXRxJfWnEmsRc-zJ6UbM3T4",
    "maps_url": "https://www.google.com/maps/place/?q=place_id:ChIJzXRxJfWnEmsRc-zJ6UbM3T4"
  },
  {
    "name": "Evolution Fight Wear",
    "address": "2/8 Pioneer Ave, Thornleigh NSW 2120, Australia",
    "suburb": "Thornleigh NSW 2120",
    "state": "NSW",
    "rating": 4.9,
    "reviews": 62,
    "lat": -33.724045,
    "lng": 151.08323,
    "place_id": "ChIJb7x2hXinEmsR6XGiqjnwUKY",
    "maps_url": "https://www.google.com/maps/place/?q=place_id:ChIJb7x2hXinEmsR6XGiqjnwUKY"
  },
  {
    "name": "Brazilian Jiu Jitsu Hornsby",
    "address": "53 Jersey St, Hornsby NSW 2077, Australia",
    "suburb": "Hornsby NSW 2077",
    "state": "NSW",
    "rating": null,
    "reviews": 0,
    "lat": -33.6985839,
    "lng": 151.0984982,
    "place_id": "ChIJg1X4boSnEmsRfkT9W3jsQ7Y",
    "maps_url": "https://www.google.com/maps/place/?q=place_id:ChIJg1X4boSnEmsRfkT9W3jsQ7Y"
  },
  {
    "name": "Kung Fu Tao Academy",
    "address": "1/79 Edgeworth David Ave, Wahroonga NSW 2076, Australia",
    "suburb": "Wahroonga NSW 2076",
    "state": "NSW",
    "rating": 5,
    "reviews": 46,
    "lat": -33.70710510000001,
    "lng": 151.1110026,
    "place_id": "ChIJ5ekjFYenEmsRxz0tvQTGSzQ",
    "maps_url": "https://www.google.com/maps/place/?q=place_id:ChIJ5ekjFYenEmsRxz0tvQTGSzQ"
  },
  {
    "name": "Hornsby Wing Chun Academy",
    "address": "Burdett St, Hornsby NSW 2077, Australia",
    "suburb": "Hornsby NSW 2077",
    "state": "NSW",
    "rating": null,
    "reviews": 0,
    "lat": -33.7029752,
    "lng": 151.1036017,
    "place_id": "ChIJJ2VkHISnEmsRjINIYo0mOmw",
    "maps_url": "https://www.google.com/maps/place/?q=place_id:ChIJJ2VkHISnEmsRjINIYo0mOmw"
  },
  {
    "name": "SJJA Manly",
    "address": "Shop 172/22 Central Ave, Manly NSW 2095, Australia",
    "suburb": "Manly NSW 2095",
    "state": "NSW",
    "rating": 5,
    "reviews": 30,
    "lat": -33.7963135,
    "lng": 151.2864861,
    "place_id": "ChIJBcc6sVGrEmsR6o6nv3iJBws",
    "maps_url": "https://www.google.com/maps/place/?q=place_id:ChIJBcc6sVGrEmsR6o6nv3iJBws"
  },
  {
    "name": "Bulldog Gym Manly",
    "address": "Level 1/4 Hayes St, Balgowlah NSW 2093, Australia",
    "suburb": "Balgowlah NSW 2093",
    "state": "NSW",
    "rating": 5,
    "reviews": 93,
    "lat": -33.788109,
    "lng": 151.266737,
    "place_id": "ChIJ7WJasbGrEmsRyIOjnWZczlw",
    "maps_url": "https://www.google.com/maps/place/?q=place_id:ChIJ7WJasbGrEmsRyIOjnWZczlw"
  },
  {
    "name": "MUAY GYM",
    "address": "17 Carter Rd, Brookvale NSW 2100, Australia",
    "suburb": "Brookvale NSW 2100",
    "state": "NSW",
    "rating": 5,
    "reviews": 401,
    "lat": -33.760749,
    "lng": 151.2793568,
    "place_id": "ChIJw76ULmCqEmsRITTxGOyRquo",
    "maps_url": "https://www.google.com/maps/place/?q=place_id:ChIJw76ULmCqEmsRITTxGOyRquo"
  },
  {
    "name": "NBRHD BOXING MANLY",
    "address": "4 Eustace St, Manly NSW 2095, Australia",
    "suburb": "Manly NSW 2095",
    "state": "NSW",
    "rating": 5,
    "reviews": 36,
    "lat": -33.7976654,
    "lng": 151.2836849,
    "place_id": "ChIJt0LJobOrEmsRCFeXbJSijKI",
    "maps_url": "https://www.google.com/maps/place/?q=place_id:ChIJt0LJobOrEmsRCFeXbJSijKI"
  },
  {
    "name": "Rumble",
    "address": "Ground Floor Shops, 4/10 Sydney Rd, Manly NSW 2095, Australia",
    "suburb": "4/10 Sydney Rd",
    "state": "NSW",
    "rating": 4.9,
    "reviews": 52,
    "lat": -33.7971543,
    "lng": 151.2872306,
    "place_id": "ChIJY32KQhirEmsRE3czd7jk4sA",
    "maps_url": "https://www.google.com/maps/place/?q=place_id:ChIJY32KQhirEmsRE3czd7jk4sA"
  },
  {
    "name": "Warrior Training Academy",
    "address": "22 Orchard Rd, Brookvale NSW 2100, Australia",
    "suburb": "Brookvale NSW 2100",
    "state": "NSW",
    "rating": 4.8,
    "reviews": 26,
    "lat": -33.7656522,
    "lng": 151.2732092,
    "place_id": "ChIJJRnBylWqEmsRqgGC_Ae6vp0",
    "maps_url": "https://www.google.com/maps/place/?q=place_id:ChIJJRnBylWqEmsRqgGC_Ae6vp0"
  },
  {
    "name": "Alliance Jiu Jitsu Sydney",
    "address": "54 Balgowlah Rd, Balgowlah NSW 2093, Australia",
    "suburb": "Balgowlah NSW 2093",
    "state": "NSW",
    "rating": 5,
    "reviews": 78,
    "lat": -33.7903306,
    "lng": 151.2677638,
    "place_id": "ChIJAeo6a6CrEmsRuTdkUVBDjWc",
    "maps_url": "https://www.google.com/maps/place/?q=place_id:ChIJAeo6a6CrEmsRuTdkUVBDjWc"
  },
  {
    "name": "EVOLVE MMA",
    "address": "2/543 Pittwater Rd, Brookvale NSW 2100, Australia",
    "suburb": "Brookvale NSW 2100",
    "state": "NSW",
    "rating": 5,
    "reviews": 8,
    "lat": -33.7609266,
    "lng": 151.2757423,
    "place_id": "ChIJZ6mEtmtVDWsRyE2L7yft3Kg",
    "maps_url": "https://www.google.com/maps/place/?q=place_id:ChIJZ6mEtmtVDWsRyE2L7yft3Kg"
  },
  {
    "name": "Empire Muay Thai",
    "address": "A/134-140 Old Pittwater Rd, Brookvale NSW 2100, Australia",
    "suburb": "Brookvale NSW 2100",
    "state": "NSW",
    "rating": 5,
    "reviews": 102,
    "lat": -33.767361,
    "lng": 151.2613961,
    "place_id": "ChIJfwC7Qu-rEmsRYnnLAXRR15o",
    "maps_url": "https://www.google.com/maps/place/?q=place_id:ChIJfwC7Qu-rEmsRYnnLAXRR15o"
  },
  {
    "name": "Fight Gym",
    "address": "1/8 Cross St, Brookvale NSW 2100, Australia",
    "suburb": "Brookvale NSW 2100",
    "state": "NSW",
    "rating": 4.9,
    "reviews": 81,
    "lat": -33.7651811,
    "lng": 151.2656367,
    "place_id": "ChIJn_SyHwGrEmsRaDNpqk3eIqo",
    "maps_url": "https://www.google.com/maps/place/?q=place_id:ChIJn_SyHwGrEmsRaDNpqk3eIqo"
  },
  {
    "name": "Positive Energy Health & Fitness",
    "address": "5 Hayes St, Balgowlah NSW 2093, Australia",
    "suburb": "Balgowlah NSW 2093",
    "state": "NSW",
    "rating": 5,
    "reviews": 51,
    "lat": -33.7885683,
    "lng": 151.2667233,
    "place_id": "ChIJAVjKe66rEmsRkA2MsjPcQzg",
    "maps_url": "https://www.google.com/maps/place/?q=place_id:ChIJAVjKe66rEmsRkA2MsjPcQzg"
  },
  {
    "name": "Momentum Wing Chun Kung Fu",
    "address": "57D Addison Rd, Manly NSW 2095, Australia",
    "suburb": "Manly NSW 2095",
    "state": "NSW",
    "rating": 5,
    "reviews": 11,
    "lat": -33.8038164,
    "lng": 151.2870732,
    "place_id": "ChIJh4h3ZAyrEmsRjCDBR0BdXPU",
    "maps_url": "https://www.google.com/maps/place/?q=place_id:ChIJh4h3ZAyrEmsRjCDBR0BdXPU"
  },
  {
    "name": "Plus Fitness Manly Pittwater Rd",
    "address": "1/33 Pittwater Rd, Manly NSW 2095, Australia",
    "suburb": "Manly NSW 2095",
    "state": "NSW",
    "rating": 3,
    "reviews": 5,
    "lat": -33.7944769,
    "lng": 151.2849071,
    "place_id": "ChIJtXqnQ4yrEmsRV-gFsTOD4B8",
    "maps_url": "https://www.google.com/maps/place/?q=place_id:ChIJtXqnQ4yrEmsRV-gFsTOD4B8"
  },
  {
    "name": "Studio Red",
    "address": "Unit 1/69 Pittwater Rd, Manly NSW 2095, Australia",
    "suburb": "Manly NSW 2095",
    "state": "NSW",
    "rating": 5,
    "reviews": 13,
    "lat": -33.7930931,
    "lng": 151.2852032,
    "place_id": "ChIJHUR6TjmrEmsRkCsJzfgczj8",
    "maps_url": "https://www.google.com/maps/place/?q=place_id:ChIJHUR6TjmrEmsRkCsJzfgczj8"
  },
  {
    "name": "100Strong",
    "address": "7 Henrietta Ln, Manly NSW 2095, Australia",
    "suburb": "Manly NSW 2095",
    "state": "NSW",
    "rating": 5,
    "reviews": 63,
    "lat": -33.7962409,
    "lng": 151.2872761,
    "place_id": "ChIJk4FO9AWrEmsRNu2PiK7q2Pk",
    "maps_url": "https://www.google.com/maps/place/?q=place_id:ChIJk4FO9AWrEmsRNu2PiK7q2Pk"
  },
  {
    "name": "ACE Martial Arts & Boxing",
    "address": "336 Princes Hwy, Banksia NSW 2216, Australia",
    "suburb": "Banksia NSW 2216",
    "state": "NSW",
    "rating": 5,
    "reviews": 101,
    "lat": -33.9466996,
    "lng": 151.1411509,
    "place_id": "ChIJq6_MR9GxEmsRXElljaT89Q4",
    "maps_url": "https://www.google.com/maps/place/?q=place_id:ChIJq6_MR9GxEmsRXElljaT89Q4"
  },
  {
    "name": "Plus Fitness Manly Central Ave",
    "address": "22 Central Ave, Manly NSW 2095, Australia",
    "suburb": "Manly NSW 2095",
    "state": "NSW",
    "rating": 4.3,
    "reviews": 82,
    "lat": -33.796396,
    "lng": 151.286375,
    "place_id": "ChIJsW7_bAarEmsRiavIhaPgg84",
    "maps_url": "https://www.google.com/maps/place/?q=place_id:ChIJsW7_bAarEmsRiavIhaPgg84"
  },
  {
    "name": "The Boxing Gym",
    "address": "1/2-4 William St, Brookvale NSW 2100, Australia",
    "suburb": "Brookvale NSW 2100",
    "state": "NSW",
    "rating": 5,
    "reviews": 10,
    "lat": -33.7678954,
    "lng": 151.2689835,
    "place_id": "ChIJ24vlz7qrEmsRnpAoOvfmtgM",
    "maps_url": "https://www.google.com/maps/place/?q=place_id:ChIJ24vlz7qrEmsRnpAoOvfmtgM"
  },
  {
    "name": "North Head Fitness",
    "address": "61 North Ft Rd, Manly NSW 2095, Australia",
    "suburb": "Manly NSW 2095",
    "state": "NSW",
    "rating": 5,
    "reviews": 98,
    "lat": -33.812828,
    "lng": 151.2972106,
    "place_id": "ChIJB3pZAGyrEmsRM2DqCZREdfs",
    "maps_url": "https://www.google.com/maps/place/?q=place_id:ChIJB3pZAGyrEmsRM2DqCZREdfs"
  },
  {
    "name": "Eight LIMBS",
    "address": "306 Oxford St, Bondi Junction NSW 2022, Australia",
    "suburb": "Bondi Junction NSW 2022",
    "state": "NSW",
    "rating": 4.9,
    "reviews": 288,
    "lat": -33.8910228,
    "lng": 151.2454006,
    "place_id": "ChIJDyjnRvGtEmsRlA7MfOraZIc",
    "maps_url": "https://www.google.com/maps/place/?q=place_id:ChIJDyjnRvGtEmsRlA7MfOraZIc"
  },
  {
    "name": "Arena Boxing",
    "address": "284 Bondi Rd, Bondi NSW 2026, Australia",
    "suburb": "Bondi NSW 2026",
    "state": "NSW",
    "rating": 5,
    "reviews": 18,
    "lat": -33.8944427,
    "lng": 151.2678189,
    "place_id": "ChIJ2ZlPqwitEmsRtbEf_q2uqi4",
    "maps_url": "https://www.google.com/maps/place/?q=place_id:ChIJ2ZlPqwitEmsRtbEf_q2uqi4"
  },
  {
    "name": "Gracie Barra Bondi",
    "address": "183, Suite 102, LEVEL 1/193 Oxford St, Bondi Junction NSW 2022, Australia",
    "suburb": "Suite 102",
    "state": "NSW",
    "rating": 4.9,
    "reviews": 87,
    "lat": -33.8922572,
    "lng": 151.2489029,
    "place_id": "ChIJ9dBsq_GtEmsRWNlygGj941s",
    "maps_url": "https://www.google.com/maps/place/?q=place_id:ChIJ9dBsq_GtEmsRWNlygGj941s"
  },
  {
    "name": "Bondi Jiu Jitsu Academy",
    "address": "5 Military Rd, North Bondi NSW 2026, Australia",
    "suburb": "North Bondi NSW 2026",
    "state": "NSW",
    "rating": 4.9,
    "reviews": 129,
    "lat": -33.8878316,
    "lng": 151.2834779,
    "place_id": "ChIJU3C00KqtEmsRuETOCSXGWQw",
    "maps_url": "https://www.google.com/maps/place/?q=place_id:ChIJU3C00KqtEmsRuETOCSXGWQw"
  },
  {
    "name": "GFTeam Bondi Jiu Jitsu",
    "address": "Shop 7/80 Ebley St, Bondi Junction NSW 2022, Australia",
    "suburb": "Bondi Junction NSW 2022",
    "state": "NSW",
    "rating": 5,
    "reviews": 16,
    "lat": -33.893477,
    "lng": 151.2490183,
    "place_id": "ChIJ-zAdL4WtEmsRdcSEWbyjZXo",
    "maps_url": "https://www.google.com/maps/place/?q=place_id:ChIJ-zAdL4WtEmsRdcSEWbyjZXo"
  },
  {
    "name": "Moala Boxing Academy",
    "address": "Lower Ground, Floor, 93/97 Spring St, Bondi Junction NSW 2022, Australia",
    "suburb": "Floor",
    "state": "NSW",
    "rating": 4.9,
    "reviews": 62,
    "lat": -33.89274830000001,
    "lng": 151.2489982,
    "place_id": "ChIJN-KSEm2tEmsRRi5Z9plzBgM",
    "maps_url": "https://www.google.com/maps/place/?q=place_id:ChIJN-KSEm2tEmsRRi5Z9plzBgM"
  },
  {
    "name": "Panza Muay Thai Boxing Gym",
    "address": "Shop 2/17 Hollywood Ave, Bondi Junction NSW 2022, Australia",
    "suburb": "Bondi Junction NSW 2022",
    "state": "NSW",
    "rating": 5,
    "reviews": 30,
    "lat": -33.8934937,
    "lng": 151.2513893,
    "place_id": "ChIJlRRsRKGtEmsRY02_1M0pVG4",
    "maps_url": "https://www.google.com/maps/place/?q=place_id:ChIJlRRsRKGtEmsRY02_1M0pVG4"
  },
  {
    "name": "Undercard",
    "address": "Shop 3/64 Bronte Rd, Bondi Junction NSW 2022, Australia",
    "suburb": "Bondi Junction NSW 2022",
    "state": "NSW",
    "rating": 4.9,
    "reviews": 126,
    "lat": -33.8945528,
    "lng": 151.2504332,
    "place_id": "ChIJx01uzBKvEmsRGwY8SvtA3Sg",
    "maps_url": "https://www.google.com/maps/place/?q=place_id:ChIJx01uzBKvEmsRGwY8SvtA3Sg"
  },
  {
    "name": "Origem Brazilian Jiu-Jitsu",
    "address": "452 Oxford St, Bondi Junction NSW 2022, Australia",
    "suburb": "Bondi Junction NSW 2022",
    "state": "NSW",
    "rating": 4.9,
    "reviews": 109,
    "lat": -33.8918353,
    "lng": 151.2491592,
    "place_id": "ChIJ8WxjHfStEmsRtcdauE4msZI",
    "maps_url": "https://www.google.com/maps/place/?q=place_id:ChIJ8WxjHfStEmsRtcdauE4msZI"
  },
  {
    "name": "Vantage Jiu Jitsu",
    "address": "Level 1/44 Bronte Rd, Bondi Junction NSW 2022, Australia",
    "suburb": "Bondi Junction NSW 2022",
    "state": "NSW",
    "rating": 5,
    "reviews": 98,
    "lat": -33.8939094,
    "lng": 151.2499739,
    "place_id": "ChIJfZGVJ4ytEmsRIxllmnmUnUU",
    "maps_url": "https://www.google.com/maps/place/?q=place_id:ChIJfZGVJ4ytEmsRIxllmnmUnUU"
  },
  {
    "name": "Shaolin Monk Martial Arts - Bondi",
    "address": "Beach Rd, Bondi Beach NSW 2026, Australia",
    "suburb": "Bondi Beach NSW 2026",
    "state": "NSW",
    "rating": 4.8,
    "reviews": 10,
    "lat": -33.8878178,
    "lng": 151.2742896,
    "place_id": "ChIJHZwn2AetEmsRlyRoRmY7JNg",
    "maps_url": "https://www.google.com/maps/place/?q=place_id:ChIJHZwn2AetEmsRlyRoRmY7JNg"
  },
  {
    "name": "Garage Grappling",
    "address": "Basement, 175/181 Oxford St, Bondi Junction NSW 2022, Australia",
    "suburb": "175/181 Oxford St",
    "state": "NSW",
    "rating": 4.9,
    "reviews": 146,
    "lat": -33.89218530000001,
    "lng": 151.2486813,
    "place_id": "ChIJx1Z78vCtEmsRRU3eOUaprRk",
    "maps_url": "https://www.google.com/maps/place/?q=place_id:ChIJx1Z78vCtEmsRRU3eOUaprRk"
  },
  {
    "name": "Kyokushin Karate North Bondi",
    "address": "5 Military Rd, North Bondi NSW 2026, Australia",
    "suburb": "North Bondi NSW 2026",
    "state": "NSW",
    "rating": 4.9,
    "reviews": 36,
    "lat": -33.888148,
    "lng": 151.283623,
    "place_id": "ChIJEZf7CAutEmsRw87P5UB-gBE",
    "maps_url": "https://www.google.com/maps/place/?q=place_id:ChIJEZf7CAutEmsRw87P5UB-gBE"
  },
  {
    "name": "UBX Newtown",
    "address": "612-622 King St, Erskineville NSW 2043, Australia",
    "suburb": "Erskineville NSW 2043",
    "state": "NSW",
    "rating": 5,
    "reviews": 168,
    "lat": -33.9047167,
    "lng": 151.1807086,
    "place_id": "ChIJOe-fwhCxEmsRTx5M-QFtDnY",
    "maps_url": "https://www.google.com/maps/place/?q=place_id:ChIJOe-fwhCxEmsRTx5M-QFtDnY"
  },