[
  {
    "name": "Leichhardt Car Mechanic - Kismet Mechanical",
    "address": "603 Parramatta Rd, Leichhardt",
    "suburb": "Sydney CBD",
    "state": "NSW",
    "lat": -33.88934920000001,
    "lng": 151.1501966,
    "place_id": "ChIJ-334qlKwEmsRVay7HVLvz_U",
    "maps_url": "https://www.google.com/maps/place/?q=place_id:ChIJ-334qlKwEmsRVay7HVLvz_U",
    "rating": 4.8,
    "total_ratings": 3369
  },
  {
    "name": "Coogee Auto",
    "address": "226 Carrington Rd, Coogee",
    "suburb": "Sydney CBD",
    "state": "NSW",
    "lat": -33.9170286,
    "lng": 151.2485379,
    "place_id": "ChIJo0pUSRayEmsR66-z4WvWzBU",
    "maps_url": "https://www.google.com/maps/place/?q=place_id:ChIJo0pUSRayEmsR66-z4WvWzBU",
    "rating": 4.4,
    "total_ratings": 127
  },
  {
    "name": "MGL SPEED AUTO REPAIR",
    "address": "7A Argyle St, Wolli Creek",
    "suburb": "Sydney CBD",
    "state": "NSW",
    "lat": -33.9341497,
    "lng": 151.1513503,
    "place_id": "ChIJg67qx2exEmsRBsGNODSBsPc",
    "maps_url": "https://www.google.com/maps/place/?q=place_id:ChIJg67qx2exEmsRBsGNODSBsPc",
    "rating": 4.9,
    "total_ratings": 80
  },
  {
    "name": "Meher Auto Service Centre",
    "address": "88 Chapel St, Marrickville",
    "suburb": "Sydney CBD",
    "state": "NSW",
    "lat": -33.9063726,
    "lng": 151.1635399,
    "place_id": "ChIJK55DJmiwEmsRrKLQpLtbbjE",
    "maps_url": "https://www.google.com/maps/place/?q=place_id:ChIJK55DJmiwEmsRrKLQpLtbbjE",
    "rating": 4,
    "total_ratings": 127
  },
  {
    "name": "Bronte Auto",
    "address": "62 Macpherson St, Bronte",
    "suburb": "Sydney CBD",
    "state": "NSW",
    "lat": -33.9053217,
    "lng": 151.259175,
    "place_id": "ChIJqWNG8nSyEmsR2y8jz9OmdKA",
    "maps_url": "https://www.google.com/maps/place/?q=place_id:ChIJqWNG8nSyEmsR2y8jz9OmdKA",
    "rating": 4.2,
    "total_ratings": 139
  },
  {
    "name": "Alexandria Automotive Services",
    "address": "36-42 Henderson Rd, Alexandria",
    "suburb": "Sydney CBD",
    "state": "NSW",
    "lat": -33.8974529,
    "lng": 151.1973944,
    "place_id": "ChIJ2dW96M-xEmsR2vz6HZX4Y3I",
    "maps_url": "https://www.google.com/maps/place/?q=place_id:ChIJ2dW96M-xEmsR2vz6HZX4Y3I",
    "rating": 4.4,
    "total_ratings": 219
  },
  {
    "name": "Cammeray Auto Service",
    "address": "72 Holtermann St, Crows Nest",
    "suburb": "Sydney CBD",
    "state": "NSW",
    "lat": -33.82516390000001,
    "lng": 151.2051027,
    "place_id": "ChIJocO9jcGuEmsRlY9bib_0jbQ",
    "maps_url": "https://www.google.com/maps/place/?q=place_id:ChIJocO9jcGuEmsRlY9bib_0jbQ",
    "rating": 4.8,
    "total_ratings": 90
  },
  {
    "name": "Avoca Auto Services",
    "address": "107 Avoca St, Randwick",
    "suburb": "Sydney CBD",
    "state": "NSW",
    "lat": -33.9118934,
    "lng": 151.2433903,
    "place_id": "ChIJo4O2YyKyEmsRpI_KgPPiryI",
    "maps_url": "https://www.google.com/maps/place/?q=place_id:ChIJo4O2YyKyEmsRpI_KgPPiryI",
    "rating": 4.8,
    "total_ratings": 206
  },
  {
    "name": "Gil Auto",
    "address": "99 Edgecliff Rd, Woollahra",
    "suburb": "Sydney CBD",
    "state": "NSW",
    "lat": -33.8891487,
    "lng": 151.2518498,
    "place_id": "ChIJz3TJ8e2tEmsR4-AKk-PnRwg",
    "maps_url": "https://www.google.com/maps/place/?q=place_id:ChIJz3TJ8e2tEmsR4-AKk-PnRwg",
    "rating": 4.8,
    "total_ratings": 218
  },
  {
    "name": "Green Square Garage | Mechanic Zetland",
    "address": "801 Elizabeth St, Zetland",
    "suburb": "Sydney CBD",
    "state": "NSW",
    "lat": -33.9065276,
    "lng": 151.2067138,
    "place_id": "ChIJW3Nm_cCxEmsRb_EoZ7Ex6vA",
    "maps_url": "https://www.google.com/maps/place/?q=place_id:ChIJW3Nm_cCxEmsRb_EoZ7Ex6vA",
    "rating": 4.8,
    "total_ratings": 188
  },
  {
    "name": "V.A.R Crows Nest – Car Service, Mechanics & Repairs",
    "address": "190 West St, Crows Nest",
    "suburb": "Sydney CBD",
    "state": "NSW",
    "lat": -33.826717,
    "lng": 151.206472,
    "place_id": "ChIJ2XNG2sGuEmsRx7Gkqdt37GU",
    "maps_url": "https://www.google.com/maps/place/?q=place_id:ChIJ2XNG2sGuEmsRx7Gkqdt37GU",
    "rating": 4.3,
    "total_ratings": 453
  },
  {
    "name": "Artarmon Automotive Service",
    "address": "63 Whiting St, Artarmon",
    "suburb": "Sydney CBD",
    "state": "NSW",
    "lat": -33.8158298,
    "lng": 151.1815524,
    "place_id": "ChIJq2vdUyGvEmsRwq_Lrbuilp0",
    "maps_url": "https://www.google.com/maps/place/?q=place_id:ChIJq2vdUyGvEmsRwq_Lrbuilp0",
    "rating": 4.8,
    "total_ratings": 84
  },
  {
    "name": "mycar Tyre & Auto Broadway",
    "address": "Francis St, Glebe",
    "suburb": "Sydney CBD",
    "state": "NSW",
    "lat": -33.8833834,
    "lng": 151.1942003,
    "place_id": "ChIJmdfIvCmuEmsR6ZC7fAYOA84",
    "maps_url": "https://www.google.com/maps/place/?q=place_id:ChIJmdfIvCmuEmsR6ZC7fAYOA84",
    "rating": 4.8,
    "total_ratings": 3289
  },
  {
    "name": "CAROLOGY",
    "address": "92-94 Curlewis St, Bondi Beach",
    "suburb": "Sydney CBD",
    "state": "NSW",
    "lat": -33.8875322,
    "lng": 151.272722,
    "place_id": "ChIJSdE1HpmtEmsRZ7A9hGcpJFQ",
    "maps_url": "https://www.google.com/maps/place/?q=place_id:ChIJSdE1HpmtEmsRZ7A9hGcpJFQ",
    "rating": 4.6,
    "total_ratings": 721
  },
  {
    "name": "Chatswood Auto Repairs",
    "address": "2 Devonshire St, Chatswood",
    "suburb": "Sydney CBD",
    "state": "NSW",
    "lat": -33.8015767,
    "lng": 151.1859822,
    "place_id": "ChIJR03ZsiqvEmsRwSqoKEcVI0Q",
    "maps_url": "https://www.google.com/maps/place/?q=place_id:ChIJR03ZsiqvEmsRwSqoKEcVI0Q",
    "rating": 4.5,
    "total_ratings": 189
  },
  {
    "name": "Total Car Care",
    "address": "42 Hardie St, Darlinghurst",
    "suburb": "Sydney CBD",
    "state": "NSW",
    "lat": -33.8787941,
    "lng": 151.2207685,
    "place_id": "ChIJ7XXW4Q-uEmsRSOAN1RD-0zs",
    "maps_url": "https://www.google.com/maps/place/?q=place_id:ChIJ7XXW4Q-uEmsRSOAN1RD-0zs",
    "rating": 4.5,
    "total_ratings": 65
  },
  {
    "name": "Metro Automotives",
    "address": "727 Botany Rd, Rosebery",
    "suburb": "Sydney CBD",
    "state": "NSW",
    "lat": -33.9136963,
    "lng": 151.2013491,
    "place_id": "ChIJ_UqYWxmuEmsRQWUCov7tWXY",
    "maps_url": "https://www.google.com/maps/place/?q=place_id:ChIJ_UqYWxmuEmsRQWUCov7tWXY",
    "rating": 5,
    "total_ratings": 199
  },
  {
    "name": "Ada Auto Services.",
    "address": "16 Purkis St, Camperdown",
    "suburb": "Sydney CBD",
    "state": "NSW",
    "lat": -33.8857687,
    "lng": 151.1783382,
    "place_id": "ChIJEzwlJimwEmsR4iVxD0s3VlQ",
    "maps_url": "https://www.google.com/maps/place/?q=place_id:ChIJEzwlJimwEmsR4iVxD0s3VlQ",
    "rating": 4.9,
    "total_ratings": 128
  },
  {
    "name": "Mascot Auto Repairs",
    "address": "155 Coward St, Mascot",
    "suburb": "Sydney CBD",
    "state": "NSW",
    "lat": -33.9253951,
    "lng": 151.1931285,
    "place_id": "ChIJp7_1-amxEmsRjNiguYfGdS0",
    "maps_url": "https://www.google.com/maps/place/?q=place_id:ChIJp7_1-amxEmsRjNiguYfGdS0",
    "rating": 4.2,
    "total_ratings": 113
  },
  {
    "name": "Auto Hero Roadside Assistance 24/7 Sydney Wide",
    "address": "203/54 Foveaux St, Surry Hills",
    "suburb": "Sydney CBD",
    "state": "NSW",
    "lat": -33.8842353,
    "lng": 151.2109241,
    "place_id": "ChIJrbfirRiuEmsR3GfrJR5jANQ",
    "maps_url": "https://www.google.com/maps/place/?q=place_id:ChIJrbfirRiuEmsR3GfrJR5jANQ",
    "rating": 4.6,
    "total_ratings": 512
  },
  {
    "name": "New Image Auto Glass Sydney Windscreen Repair",
    "address": "47 Chelsea St, Redfern",
    "suburb": "Sydney CBD",
    "state": "NSW",
    "lat": -33.892999,
    "lng": 151.2146496,
    "place_id": "ChIJM86XKy6jEmsRs7lz4hAm7Qc",
    "maps_url": "https://www.google.com/maps/place/?q=place_id:ChIJM86XKy6jEmsRs7lz4hAm7Qc",
    "rating": 4.9,
    "total_ratings": 327
  },
  {
    "name": "Bondi Junction Auto Services",
    "address": "53-57 Oxford St, Bondi Junction",
    "suburb": "Sydney CBD",
    "state": "NSW",
    "lat": -33.8913164,
    "lng": 151.2448923,
    "place_id": "ChIJ_b25cPqtEmsReYJxoymao3s",
    "maps_url": "https://www.google.com/maps/place/?q=place_id:ChIJ_b25cPqtEmsReYJxoymao3s",
    "rating": 4.2,
    "total_ratings": 829
  },
  {
    "name": "JH Automotive Servicing & ACDelco Randwick",
    "address": "345 Avoca St, Randwick",
    "suburb": "Sydney CBD",
    "state": "NSW",
    "lat": -33.9254559,
    "lng": 151.239796,
    "place_id": "ChIJ828Y6AyyEmsRX7Dp_CxUtr8",
    "maps_url": "https://www.google.com/maps/place/?q=place_id:ChIJ828Y6AyyEmsRX7Dp_CxUtr8",
    "rating": 4.9,
    "total_ratings": 138
  },
  {
    "name": "Midas Marrickville Tyre & Auto Service",
    "address": "100/102 Marrickville Rd, Marrickville",
    "suburb": "Sydney CBD",
    "state": "NSW",
    "lat": -33.9142056,
    "lng": 151.1627367,
    "place_id": "ChIJB1_Fa0-6EmsRtgk0HXHFsT4",
    "maps_url": "https://www.google.com/maps/place/?q=place_id:ChIJB1_Fa0-6EmsRtgk0HXHFsT4",
    "rating": 4.1,
    "total_ratings": 152
  },
  {
    "name": "Sydney City Auto Care",
    "address": "103 Railway Rd, Sydenham",
    "suburb": "Sydney CBD",
    "state": "NSW",
    "lat": -33.9161143,
    "lng": 151.1661508,
    "place_id": "ChIJLe22UF6wEmsRpxBx3URpitk",
    "maps_url": "https://www.google.com/maps/place/?q=place_id:ChIJLe22UF6wEmsRpxBx3URpitk",
    "rating": 4.8,
    "total_ratings": 423
  },
  {
    "name": "Driven Auto Services Surry Hills Automotive",
    "address": "Shop 10b/1-19 Regent St, Redfern",
    "suburb": "Sydney CBD",
    "state": "NSW",
    "lat": -33.8895809,
    "lng": 151.2019157,
    "place_id": "ChIJXTaZIxquEmsR61wj-zVj23k",
    "maps_url": "https://www.google.com/maps/place/?q=place_id:ChIJXTaZIxquEmsR61wj-zVj23k",
    "rating": 4.7,
    "total_ratings": 60
  },
  {
    "name": "Edgecliff Automotive",
    "address": "2 Ocean Ave, Edgecliff",
    "suburb": "Sydney CBD",
    "state": "NSW",
    "lat": -33.8788698,
    "lng": 151.2379363,
    "place_id": "ChIJLVk1cuGtEmsRI2DIqpw-L9s",
    "maps_url": "https://www.google.com/maps/place/?q=place_id:ChIJLVk1cuGtEmsRI2DIqpw-L9s",
    "rating": 4.5,
    "total_ratings": 84
  },
  {
    "name": "Bosch Car Service - Speedie Auto Electrics & Mechanical Repairs",
    "address": "214 Gardeners Road cnr, Tunstall Ave, Kingsford",
    "suburb": "Sydney CBD",
    "state": "NSW",
    "lat": -33.9243443,
    "lng": 151.2156699,
    "place_id": "ChIJiaqmsZCxEmsRQvZln3rIjOY",
    "maps_url": "https://www.google.com/maps/place/?q=place_id:ChIJiaqmsZCxEmsRQvZln3rIjOY",
    "rating": 4.3,
    "total_ratings": 206
  },
  {
    "name": "Eastern Auto Repairs",
    "address": "3/5 Hardie St, Darlinghurst",
    "suburb": "Sydney CBD",
    "state": "NSW",
    "lat": -33.8785319,
    "lng": 151.2205817,
    "place_id": "ChIJtYGX0_KvEmsRPYWEpvgofkQ",
    "maps_url": "https://www.google.com/maps/place/?q=place_id:ChIJtYGX0_KvEmsRPYWEpvgofkQ",
    "rating": 5,
    "total_ratings": 177
  },
  {
    "name": "Quixspede Service Centre",
    "address": "66-72 Pacific Hwy, North Sydney",
    "suburb": "Sydney CBD",
    "state": "NSW",
    "lat": -33.8423806,
    "lng": 151.2097729,
    "place_id": "ChIJGe5HSvOuEmsRQUeZyenaEEI",
    "maps_url": "https://www.google.com/maps/place/?q=place_id:ChIJGe5HSvOuEmsRQUeZyenaEEI",
    "rating": 4.5,
    "total_ratings": 110
  },
  {
    "name": "Randwick Car Servicing",
    "address": "16 Alison Rd, Randwick",
    "suburb": "Sydney CBD",
    "state": "NSW",
    "lat": -33.906955,
    "lng": 151.2327871,
    "place_id": "ChIJV1w3w_exEmsRQ-9pTck7N58",
    "maps_url": "https://www.google.com/maps/place/?q=place_id:ChIJV1w3w_exEmsRQ-9pTck7N58",
    "rating": 5,
    "total_ratings": 69
  },
  {
    "name": "Top One Automotive Repair",
    "address": "9 Argyle St, Arncliffe",
    "suburb": "Sydney CBD",
    "state": "NSW",
    "lat": -33.9340004,
    "lng": 151.1514761,
    "place_id": "ChIJGxtQMpewEmsRCiQYGj-xCYc",
    "maps_url": "https://www.google.com/maps/place/?q=place_id:ChIJGxtQMpewEmsRCiQYGj-xCYc",
    "rating": 4.9,
    "total_ratings": 238
  },
  {
    "name": "S & I Automotive Services",
    "address": "Shop 2/118 Bronte Rd, Bondi Junction",
    "suburb": "Sydney CBD",
    "state": "NSW",
    "lat": -33.89571720000001,
    "lng": 151.2512847,
    "place_id": "ChIJUzqBHvStEmsRUXg3KZ8Pkzg",
    "maps_url": "https://www.google.com/maps/place/?q=place_id:ChIJUzqBHvStEmsRUXg3KZ8Pkzg",
    "rating": 4.6,
    "total_ratings": 177
  },
  {
    "name": "Midas Haberfield Tyre & Auto Service",
    "address": "49 Parramatta Rd, Haberfield",
    "suburb": "Sydney CBD",
    "state": "NSW",
    "lat": -33.8868361,
    "lng": 151.1411938,
    "place_id": "ChIJPwew8AmwEmsRDuT_ikPRJn0",
    "maps_url": "https://www.google.com/maps/place/?q=place_id:ChIJPwew8AmwEmsRDuT_ikPRJn0",
    "rating": 4.8,
    "total_ratings": 188
  },
  {
    "name": "A-Z Auto Sydney Pty Ltd - Repco Authorised Car Service St Peters",
    "address": "598 Princes Hwy, St Peters",
    "suburb": "Sydney CBD",
    "state": "NSW",
    "lat": -33.9200705,
    "lng": 151.168509,
    "place_id": "ChIJKX248_WwEmsRzhxU0L2sd1Y",
    "maps_url": "https://www.google.com/maps/place/?q=place_id:ChIJKX248_WwEmsRzhxU0L2sd1Y",
    "rating": 5,
    "total_ratings": 397
  },
  {
    "name": "Auto Express Mechanical Repairs",
    "address": "Rear of 295 Anzac Parade Enter via, Houston Ln, Kingsford",
    "suburb": "Sydney CBD",
    "state": "NSW",
    "lat": -33.9217019,
    "lng": 151.2261752,
    "place_id": "ChIJX30l2Y6xEmsR6P4jZpHDtpA",
    "maps_url": "https://www.google.com/maps/place/?q=place_id:ChIJX30l2Y6xEmsR6P4jZpHDtpA",
    "rating": 4.9,
    "total_ratings": 125
  },
  {
    "name": "North Sydney Automotive",
    "address": "32 Clark Rd, North Sydney",
    "suburb": "Sydney CBD",
    "state": "NSW",
    "lat": -33.8404174,
    "lng": 151.2145202,
    "place_id": "ChIJXVqWlI2uEmsR4ep2CsQQkQE",
    "maps_url": "https://www.google.com/maps/place/?q=place_id:ChIJXVqWlI2uEmsR4ep2CsQQkQE",
    "rating": 4.4,
    "total_ratings": 214
  },
  {
    "name": "mycar Tyre & Auto Ashfield",
    "address": "Enter/off Knox St, Ashfield",
    "suburb": "Sydney CBD",
    "state": "NSW",
    "lat": -33.888818,
    "lng": 151.1238027,
    "place_id": "ChIJ2cZCD5a6EmsRcbHPRcs4CmY",
    "maps_url": "https://www.google.com/maps/place/?q=place_id:ChIJ2cZCD5a6EmsRcbHPRcs4CmY",
    "rating": 4.6,
    "total_ratings": 967
  },
  {
    "name": "Marrickville Auto Repairs.",
    "address": "Cnr Smidmore St, 211 Edgeware Rd, Enmore",
    "suburb": "Sydney CBD",
    "state": "NSW",
    "lat": -33.9078346,
    "lng": 151.174133,
    "place_id": "ChIJh350kkWwEmsRac9fNv5ASbU",
    "maps_url": "https://www.google.com/maps/place/?q=place_id:ChIJh350kkWwEmsRac9fNv5ASbU",
    "rating": 4.9,
    "total_ratings": 72
  },
  {
    "name": "Clovelly Automotive Services",
    "address": "88 Clovelly Rd, Randwick",
    "suburb": "Sydney CBD",
    "state": "NSW",
    "lat": -33.9091734,
    "lng": 151.2486024,
    "place_id": "ChIJCS-6Lg6yEmsRrAEn8Qgqe3o",
    "maps_url": "https://www.google.com/maps/place/?q=place_id:ChIJCS-6Lg6yEmsRrAEn8Qgqe3o",
    "rating": 4.7,
    "total_ratings": 95
  },
  {
    "name": "VAR Automotive East (former Vaucluse Auto Repairs)",
    "address": "77-79 New South Head Rd, Vaucluse",
    "suburb": "Sydney CBD",
    "state": "NSW",
    "lat": -33.8595655,
    "lng": 151.2781818,
    "place_id": "ChIJDyURaVasEmsRaMh8wzF7QiA",
    "maps_url": "https://www.google.com/maps/place/?q=place_id:ChIJDyURaVasEmsRaMh8wzF7QiA",
    "rating": 4.8,
    "total_ratings": 1094
  },
  {
    "name": "Sydney City Auto Centre",
    "address": "111 Denison St, Camperdown",
    "suburb": "Sydney CBD",
    "state": "NSW",
    "lat": -33.8917609,
    "lng": 151.1753261,
    "place_id": "ChIJw8IcV2ixEmsRqr_j0pth7SY",
    "maps_url": "https://www.google.com/maps/place/?q=place_id:ChIJw8IcV2ixEmsRqr_j0pth7SY",
    "rating": 4.8,
    "total_ratings": 187
  },
  {
    "name": "Autospot",
    "address": "124 O'Riordan St, Mascot",
    "suburb": "Sydney CBD",
    "state": "NSW",
    "lat": -33.9223114,
    "lng": 151.191905,
    "place_id": "ChIJd7btxKuxEmsRRQlU1FpdTAM",
    "maps_url": "https://www.google.com/maps/place/?q=place_id:ChIJd7btxKuxEmsRRQlU1FpdTAM",
    "rating": 4.7,
    "total_ratings": 228
  },
  {
    "name": "Victory Auto Repairs",
    "address": "53 Hansard St, Zetland",
    "suburb": "Sydney CBD",
    "state": "NSW",
    "lat": -33.9098516,
    "lng": 151.2049648,
    "place_id": "ChIJgXTDduCxEmsR43vXh0FDA_M",
    "maps_url": "https://www.google.com/maps/place/?q=place_id:ChIJgXTDduCxEmsR43vXh0FDA_M",
    "rating": 4.9,
    "total_ratings": 168
  },
  {
    "name": "Auto Tech Car & Truck Repairs",
    "address": "116 Crystal St, Petersham",
    "suburb": "Sydney CBD",
    "state": "NSW",
    "lat": -33.89329000000001,
    "lng": 151.1575396,
    "place_id": "ChIJxzmuiBOwEmsRTLBBj2yitBw",
    "maps_url": "https://www.google.com/maps/place/?q=place_id:ChIJxzmuiBOwEmsRTLBBj2yitBw",
    "rating": 4.9,
    "total_ratings": 184
  },
  {
    "name": "North Prestige Auto Services",
    "address": "29-31 Carlotta St, Artarmon",
    "suburb": "Sydney CBD",
    "state": "NSW",
    "lat": -33.816578,
    "lng": 151.1845813,
    "place_id": "ChIJ5ffy0iCvEmsR94rRNkUj2Ro",
    "maps_url": "https://www.google.com/maps/place/?q=place_id:ChIJ5ffy0iCvEmsR94rRNkUj2Ro",
    "rating": 4.2,
    "total_ratings": 33
  },
  {
    "name": "Central Auto Care",
    "address": "1/347 Princes Hwy, St Peters",
    "suburb": "Sydney CBD",
    "state": "NSW",
    "lat": -33.9167183,
    "lng": 151.1720459,
    "place_id": "ChIJwcDBkg6xEmsR1vGd4AFwEF4",
    "maps_url": "https://www.google.com/maps/place/?q=place_id:ChIJwcDBkg6xEmsR1vGd4AFwEF4",
    "rating": 4.9,
    "total_ratings": 221
  },
  {
    "name": "Midas Woollahra Tyre & Auto Service",
    "address": "92 Oxford St, Woollahra",
    "suburb": "Sydney CBD",
    "state": "NSW",
    "lat": -33.88998,
    "lng": 151.235561,
    "place_id": "ChIJT8STxP2tEmsR8s41D-atFOY",
    "maps_url": "https://www.google.com/maps/place/?q=place_id:ChIJT8STxP2tEmsR8s41D-atFOY",
    "rating": 4.8,
    "total_ratings": 319
  },
  {
    "name": "Alexandria Service Centre",
    "address": "78 Mitchell Rd, Alexandria",
    "suburb": "Sydney CBD",
    "state": "NSW",
    "lat": -33.9010883,
    "lng": 151.1933462,
    "place_id": "ChIJB-rmUMmxEmsR35w2a32wduY",
    "maps_url": "https://www.google.com/maps/place/?q=place_id:ChIJB-rmUMmxEmsR35w2a32wduY",
    "rating": 4.5,
    "total_ratings": 67
  },
  {
    "name": "Balmain Autocare",
    "address": "127 Victoria Rd, Rozelle",
    "suburb": "Sydney CBD",
    "state": "NSW",
    "lat": -33.8619844,
    "lng": 151.1676522,
    "place_id": "ChIJP7etFMGvEmsRv2noZBhA2Fg",
    "maps_url": "https://www.google.com/maps/place/?q=place_id:ChIJP7etFMGvEmsRv2noZBhA2Fg",
    "rating": 4.8,
    "total_ratings": 160
  },
  {
    "name": "Bondi Auto Repairs",
    "address": "104 Curlewis St, Bondi Beach",
    "suburb": "Sydney CBD",
    "state": "NSW",
    "lat": -33.8877476,
    "lng": 151.2731616,
    "place_id": "ChIJd11uIpmtEmsR6K7tfgeOD-8",
    "maps_url": "https://www.google.com/maps/place/?q=place_id:ChIJd11uIpmtEmsR6K7tfgeOD-8",
    "rating": 4.4,
    "total_ratings": 177
  },
  {
    "name": "Bosch Car Service - Safer Steering",
    "address": "97A West St, Crows Nest",
    "suburb": "Sydney CBD",
    "state": "NSW",
    "lat": -33.8293851,
    "lng": 151.2063207,
    "place_id": "ChIJabMUTOquEmsRkp47-k2dBQQ",
    "maps_url": "https://www.google.com/maps/place/?q=place_id:ChIJabMUTOquEmsRkp47-k2dBQQ",
    "rating": 4.1,
    "total_ratings": 121
  },
  {
    "name": "Prestige Auto Body Shop - Smash Repair | Car Detailer | Panel Beater | Artarmon",
    "address": "83-85 Reserve Rd, Artarmon",
    "suburb": "Sydney CBD",
    "state": "NSW",
    "lat": -33.815679,
    "lng": 151.187077,
    "place_id": "ChIJfbCvn9iuEmsRKAr2eyfmEvA",
    "maps_url": "https://www.google.com/maps/place/?q=place_id:ChIJfbCvn9iuEmsRKAr2eyfmEvA",
    "rating": 4.9,
    "total_ratings": 487
  },
  {
    "name": "Leichhardt Automotive",
    "address": "689 Parramatta Road corner, Tebbutt St, Leichhardt",
    "suburb": "Sydney CBD",
    "state": "NSW",
    "lat": -33.8897009,
    "lng": 151.1465351,
    "place_id": "ChIJPS3VDQywEmsRnyzWYtABTg4",
    "maps_url": "https://www.google.com/maps/place/?q=place_id:ChIJPS3VDQywEmsRnyzWYtABTg4",
    "rating": 4.9,
    "total_ratings": 121
  },
  {
    "name": "Randwick Car Care",
    "address": "68 Frenchmans Rd, Randwick",
    "suburb": "Sydney CBD",
    "state": "NSW",
    "lat": -33.9073616,
    "lng": 151.2496586,
    "place_id": "ChIJM2lvYA6yEmsRcCaE__JPOAE",
    "maps_url": "https://www.google.com/maps/place/?q=place_id:ChIJM2lvYA6yEmsRcCaE__JPOAE",
    "rating": 4.7,
    "total_ratings": 327
  },
  {
    "name": "Ultra Tune Drummoyne",
    "address": "126/128 Victoria Rd, Drummoyne",
    "suburb": "Sydney CBD",
    "state": "NSW",
    "lat": -33.853084,
    "lng": 151.156835,
    "place_id": "ChIJXW6JEpOvEmsRmxWc8VDDk0g",
    "maps_url": "https://www.google.com/maps/place/?q=place_id:ChIJXW6JEpOvEmsRmxWc8VDDk0g",
    "rating": 4.7,
    "total_ratings": 127
  },
  {
    "name": "Ultra Tune Newtown",
    "address": "242/244 Enmore Rd, Enmore",
    "suburb": "Sydney CBD",
    "state": "NSW",
    "lat": -33.9006968,
    "lng": 151.17045,
    "place_id": "ChIJS6xuREewEmsROnBLdDrMiKc",
    "maps_url": "https://www.google.com/maps/place/?q=place_id:ChIJS6xuREewEmsROnBLdDrMiKc",
    "rating": 4.4,
    "total_ratings": 144
  },
  {
    "name": "Lane Cove Auto Care",
    "address": "32/36 Longueville Rd, Lane Cove",
    "suburb": "Sydney CBD",
    "state": "NSW",
    "lat": -33.8125872,
    "lng": 151.1722822,
    "place_id": "ChIJ_6i7dzuvEmsRqZv5dBE_KB4",
    "maps_url": "https://www.google.com/maps/place/?q=place_id:ChIJ_6i7dzuvEmsRqZv5dBE_KB4",
    "rating": 4.8,
    "total_ratings": 92
  },
  {
    "name": "Elios Auto Service",
    "address": "2 Henley Marine Dr, Five Dock",
    "suburb": "Sydney CBD",
    "state": "NSW",
    "lat": -33.8723734,
    "lng": 151.1328331,
    "place_id": "ChIJ7e7cX6y6EmsRX1qr8cWCjW4",
    "maps_url": "https://www.google.com/maps/place/?q=place_id:ChIJ7e7cX6y6EmsRX1qr8cWCjW4",
    "rating": 4.6,
    "total_ratings": 121
  },
  {
    "name": "Cruise Automotive Services",
    "address": "22 Whiting St, Artarmon",
    "suburb": "Sydney CBD",
    "state": "NSW",
    "lat": -33.8151061,
    "lng": 151.1840871,
    "place_id": "ChIJEzZJ_CavEmsR6UdTe8JBdi4",
    "maps_url": "https://www.google.com/maps/place/?q=place_id:ChIJEzZJ_CavEmsR6UdTe8JBdi4",
    "rating": 4.9,
    "total_ratings": 151
  },
  {
    "name": "Midas Chatswood Tyre & Auto Service",
    "address": "69/71 Pacific Hwy, Roseville",
    "suburb": "North Sydney",
    "state": "NSW",
    "lat": -33.7849792,
    "lng": 151.1779909,
    "place_id": "ChIJDw84XSyvEmsRwiCRN9L3Ba4",
    "maps_url": "https://www.google.com/maps/place/?q=place_id:ChIJDw84XSyvEmsRwiCRN9L3Ba4",
    "rating": 4.3,
    "total_ratings": 323
  },
  {
    "name": "East Chatswood Automotive – Car Service, Mechanics & Repairs",
    "address": "Unit 1/221 Eastern Valley Way, Middle Cove",
    "suburb": "North Sydney",
    "state": "NSW",
    "lat": -33.7942525,
    "lng": 151.2084001,
    "place_id": "ChIJ6dtO9jipEmsRs_I6LyjQpnc",
    "maps_url": "https://www.google.com/maps/place/?q=place_id:ChIJ6dtO9jipEmsRs_I6LyjQpnc",
    "rating": 5,
    "total_ratings": 313
  },
  {
    "name": "Pro Auto Repairs",
    "address": "30/30-32 Barcoo St, Roseville",
    "suburb": "North Sydney",
    "state": "NSW",
    "lat": -33.784509,
    "lng": 151.1952211,
    "place_id": "ChIJ2xT_qyOpEmsRadR03pOAFkA",
    "maps_url": "https://www.google.com/maps/place/?q=place_id:ChIJ2xT_qyOpEmsRadR03pOAFkA",
    "rating": 4.9,
    "total_ratings": 1626
  },
  {
    "name": "Denmor Automotive Services",
    "address": "694 Mowbray Rd, Lane Cove",
    "suburb": "North Sydney",
    "state": "NSW",
    "lat": -33.803994,
    "lng": 151.1504207,
    "place_id": "ChIJJQdKlVqvEmsRSZzr-eBtmLI",
    "maps_url": "https://www.google.com/maps/place/?q=place_id:ChIJJQdKlVqvEmsRSZzr-eBtmLI",
    "rating": 4.7,
    "total_ratings": 116
  },
  {
    "name": "RELIANCE AUTO CENTRE",
    "address": "136 Victoria Ave, Chatswood",
    "suburb": "North Sydney",
    "state": "NSW",
    "lat": -33.793443,
    "lng": 151.1930864,
    "place_id": "ChIJy5_uUy-pEmsRQi38Aea9oLU",
    "maps_url": "https://www.google.com/maps/place/?q=place_id:ChIJy5_uUy-pEmsRQi38Aea9oLU",
    "rating": 4.2,
    "total_ratings": 150
  },
  {
    "name": "D&E MOBILE MECHANIC",
    "address": "Sydney, Lewisham",
    "suburb": "North Sydney",
    "state": "NSW",
    "lat": -33.8913527,
    "lng": 151.1483929,
    "place_id": "ChIJaecZ-vk9_IwR5eZIl0P8vAY",
    "maps_url": "https://www.google.com/maps/place/?q=place_id:ChIJaecZ-vk9_IwR5eZIl0P8vAY",
    "rating": 4.1,
    "total_ratings": 21
  },
  {
    "name": "AutoTech WorldSquare",
    "address": "Level P6/680 George St, Sydney",
    "suburb": "North Sydney",
    "state": "NSW",
    "lat": -33.8770886,
    "lng": 151.2064259,
    "place_id": "ChIJU52q5ECuEmsRCdysa7bjG3Q",
    "maps_url": "https://www.google.com/maps/place/?q=place_id:ChIJU52q5ECuEmsRCdysa7bjG3Q",
    "rating": 4.7,
    "total_ratings": 626
  },
  {
    "name": "Randwick Auto Artisans",
    "address": "Shop 5 Level 1/68 Frenchmans Rd, Randwick",
    "suburb": "North Sydney",
    "state": "NSW",
    "lat": -33.9073214,
    "lng": 151.2496791,
    "place_id": "ChIJMYtld9OzEmsR134j1aPomtI",
    "maps_url": "https://www.google.com/maps/place/?q=place_id:ChIJMYtld9OzEmsR134j1aPomtI",
    "rating": 4.8,
    "total_ratings": 53
  },
  {
    "name": "LSR Autobody",
    "address": "41 Hotham Parade, Artarmon",
    "suburb": "North Sydney",
    "state": "NSW",
    "lat": -33.814703,
    "lng": 151.181072,
    "place_id": "ChIJS_1-HSSvEmsRv4MgfkJ8q_g",
    "maps_url": "https://www.google.com/maps/place/?q=place_id:ChIJS_1-HSSvEmsRv4MgfkJ8q_g",
    "rating": 4.8,
    "total_ratings": 103
  },
  {
    "name": "Bondi Motor Works",
    "address": "Ebley St, Bondi Junction",
    "suburb": "North Sydney",
    "state": "NSW",
    "lat": -33.893126,
    "lng": 151.247502,
    "place_id": "ChIJ7zw-L_GtEmsRaItz6OfQK90",
    "maps_url": "https://www.google.com/maps/place/?q=place_id:ChIJ7zw-L_GtEmsRaItz6OfQK90",
    "rating": 4.2,
    "total_ratings": 111
  },
  {
    "name": "Brumby Motors - European Mechanic & Logbook Service Artarmon",
    "address": "29 Dickson Ave, Artarmon",
    "suburb": "North Sydney",
    "state": "NSW",
    "lat": -33.815472,
    "lng": 151.1848,
    "place_id": "ChIJgWnXIievEmsR-HOf2iis4Xg",
    "maps_url": "https://www.google.com/maps/place/?q=place_id:ChIJgWnXIievEmsR-HOf2iis4Xg",
    "rating": 4.9,
    "total_ratings": 313
  },
  {
    "name": "Rozelle Automotive - Repco Authorised Car Service",
    "address": "1 Wellington St, Rozelle",
    "suburb": "North Sydney",
    "state": "NSW",
    "lat": -33.861178,
    "lng": 151.169332,
    "place_id": "ChIJ6_KdKsGvEmsRQbaZ_Oi0ejU",
    "maps_url": "https://www.google.com/maps/place/?q=place_id:ChIJ6_KdKsGvEmsRQbaZ_Oi0ejU",
    "rating": 4.7,
    "total_ratings": 478
  },
  {
    "name": "Ryde Car Services",
    "address": "Porter St, Ryde",
    "suburb": "Chatswood",
    "state": "NSW",
    "lat": -33.8196435,
    "lng": 151.0979848,
    "place_id": "ChIJr14ghzelEmsRvloxTo8A0OA",
    "maps_url": "https://www.google.com/maps/place/?q=place_id:ChIJr14ghzelEmsRvloxTo8A0OA",
    "rating": 4.9,
    "total_ratings": 71
  },
  {
    "name": "Leo Auto Care",
    "address": "50 Buffalo Rd, Gladesville",
    "suburb": "Chatswood",
    "state": "NSW",
    "lat": -33.8187065,
    "lng": 151.1224624,
    "place_id": "ChIJG6K0WQClEmsRC04TI_ksYPg",
    "maps_url": "https://www.google.com/maps/place/?q=place_id:ChIJG6K0WQClEmsRC04TI_ksYPg",
    "rating": 4.8,
    "total_ratings": 60
  },
  {
    "name": "Sams Automotive",
    "address": "3/126 Queens Rd, Five Dock",
    "suburb": "Chatswood",
    "state": "NSW",
    "lat": -33.8690622,
    "lng": 151.119247,
    "place_id": "ChIJgxsjc7S6EmsRK2QfiLP5ABI",
    "maps_url": "https://www.google.com/maps/place/?q=place_id:ChIJgxsjc7S6EmsRK2QfiLP5ABI",
    "rating": 4.7,
    "total_ratings": 339
  },
  {
    "name": "Balmain Mechanical Repairs",
    "address": "29 Crescent St, Rozelle",
    "suburb": "Chatswood",
    "state": "NSW",
    "lat": -33.8653513,
    "lng": 151.1748996,
    "place_id": "ChIJk9uA_sWvEmsRiutASfqJ7QQ",
    "maps_url": "https://www.google.com/maps/place/?q=place_id:ChIJk9uA_sWvEmsRiutASfqJ7QQ",
    "rating": 4.8,
    "total_ratings": 124
  },
  {
    "name": "GIA Smash Repairs",
    "address": "11/137 Kings Rd, Five Dock",
    "suburb": "Chatswood",
    "state": "NSW",
    "lat": -33.8686222,
    "lng": 151.1199103,
    "place_id": "ChIJ2c5tArW6EmsR2zCUUdSTZ9Q",
    "maps_url": "https://www.google.com/maps/place/?q=place_id:ChIJ2c5tArW6EmsR2zCUUdSTZ9Q",
    "rating": 4.9,
    "total_ratings": 198
  },
  {
    "name": "Gianni's Motor Mechanic",
    "address": "cnr William Street, unit 6 / 118 Queens Rd, Five Dock",
    "suburb": "Chatswood",
    "state": "NSW",
    "lat": -33.8687865,
    "lng": 151.1190627,
    "place_id": "ChIJ27n1o7W6EmsRuHWG09EbC7E",
    "maps_url": "https://www.google.com/maps/place/?q=place_id:ChIJ27n1o7W6EmsRuHWG09EbC7E",
    "rating": 4.9,
    "total_ratings": 424
  },
  {
    "name": "OZTEC AUTO",
    "address": "45 Yanko Rd, West Pymble",
    "suburb": "Chatswood",
    "state": "NSW",
    "lat": -33.7620792,
    "lng": 151.1285255,
    "place_id": "ChIJI-pgDcGnEmsRRopaM3R_G-w",
    "maps_url": "https://www.google.com/maps/place/?q=place_id:ChIJI-pgDcGnEmsRRopaM3R_G-w",
    "rating": 4.3,
    "total_ratings": 77
  },
  {
    "name": "Hoskins Auto",
    "address": "18 Edwin St, Mortlake",
    "suburb": "Chatswood",
    "state": "NSW",
    "lat": -33.8420608,
    "lng": 151.1063903,
    "place_id": "ChIJbyjJ5RelEmsRJRrL3C4W7O4",
    "maps_url": "https://www.google.com/maps/place/?q=place_id:ChIJbyjJ5RelEmsRJRrL3C4W7O4",
    "rating": 4.3,
    "total_ratings": 31
  },
  {
    "name": "Autobody Mobile Scratch & Dent Repair Sydney Australia",
    "address": "Heath St, Concord",
    "suburb": "Chatswood",
    "state": "NSW",
    "lat": -33.846536,
    "lng": 151.102207,
    "place_id": "ChIJvRPGfSOlEmsRXs95oMwMLIs",
    "maps_url": "https://www.google.com/maps/place/?q=place_id:ChIJvRPGfSOlEmsRXs95oMwMLIs",
    "rating": 4.9,
    "total_ratings": 183
  },
  {
    "name": "Five Dock Automotive Services",
    "address": "135 Kings Rd, Five Dock",
    "suburb": "Chatswood",
    "state": "NSW",
    "lat": -33.8686948,
    "lng": 151.1196769,
    "place_id": "ChIJ4-ny_bS6EmsRNU7gHQONZoo",
    "maps_url": "https://www.google.com/maps/place/?q=place_id:ChIJ4-ny_bS6EmsRNU7gHQONZoo",
    "rating": 4.9,
    "total_ratings": 129
  },
  {
    "name": "Cremorne Prestige Service",
    "address": "1/39 Hotham Parade, Artarmon",
    "suburb": "Chatswood",
    "state": "NSW",
    "lat": -33.81474,
    "lng": 151.1814185,
    "place_id": "ChIJ7ePVoiavEmsRdekvEnpXr04",
    "maps_url": "https://www.google.com/maps/place/?q=place_id:ChIJ7ePVoiavEmsRdekvEnpXr04",
    "rating": 4.8,
    "total_ratings": 37
  },
  {
    "name": "mycar Tyre & Auto St Ives",
    "address": "Reddy Express Service Station, 181 Mona Vale Rd, St Ives",
    "suburb": "Chatswood",
    "state": "NSW",
    "lat": -33.7312501,
    "lng": 151.157573,
    "place_id": "ChIJdVebYxOoEmsR2gN8J5oTEYc",
    "maps_url": "https://www.google.com/maps/place/?q=place_id:ChIJdVebYxOoEmsR2gN8J5oTEYc",
    "rating": 4.8,
    "total_ratings": 597
  },
  {
    "name": "Sandy's Auto Repairs PTY LTD",
    "address": "899 Victoria Rd, West Ryde",
    "suburb": "Chatswood",
    "state": "NSW",
    "lat": -33.8105276,
    "lng": 151.0941245,
    "place_id": "ChIJ95HqLa2lEmsRgMaZ8YSCVrE",
    "maps_url": "https://www.google.com/maps/place/?q=place_id:ChIJ95HqLa2lEmsRgMaZ8YSCVrE",
    "rating": 4.5,
    "total_ratings": 79
  },
  {
    "name": "Brett's Car Care",
    "address": "157-159 Mona Vale Rd, St Ives",
    "suburb": "Chatswood",
    "state": "NSW",
    "lat": -33.7327334,
    "lng": 151.1564101,
    "place_id": "ChIJOeqatWyoEmsRKtgzq6QH2hU",
    "maps_url": "https://www.google.com/maps/place/?q=place_id:ChIJOeqatWyoEmsRKtgzq6QH2hU",
    "rating": 4.5,
    "total_ratings": 43
  },
  {
    "name": "Lambs Road Auto Repairs",
    "address": "20 Lambs Rd, Artarmon",
    "suburb": "Chatswood",
    "state": "NSW",
    "lat": -33.8144522,
    "lng": 151.192281,
    "place_id": "ChIJPz9t89muEmsRGsS3HkEXa4w",
    "maps_url": "https://www.google.com/maps/place/?q=place_id:ChIJPz9t89muEmsRGsS3HkEXa4w",
    "rating": 4.9,
    "total_ratings": 108
  },
  {
    "name": "Artarmon Auto & Air",
    "address": "78 Whiting St, Artarmon",
    "suburb": "Chatswood",
    "state": "NSW",
    "lat": -33.8168109,
    "lng": 151.1805847,
    "place_id": "ChIJhe_X3SOvEmsRdXWlky1ipcc",
    "maps_url": "https://www.google.com/maps/place/?q=place_id:ChIJhe_X3SOvEmsRdXWlky1ipcc",
    "rating": 4.9,
    "total_ratings": 89
  },
  {
    "name": "Pacific Motors",
    "address": "859 Pacific Hwy, Pymble",
    "suburb": "Chatswood",
    "state": "NSW",
    "lat": -33.7487862,
    "lng": 151.1459341,
    "place_id": "ChIJfaGfdX6oEmsRZdMKpnl5IM8",
    "maps_url": "https://www.google.com/maps/place/?q=place_id:ChIJfaGfdX6oEmsRZdMKpnl5IM8",
    "rating": 4.8,
    "total_ratings": 503
  },
  {
    "name": "mycar Tyre & Auto Top Ryde",
    "address": "B2 Devlin St, Ryde",
    "suburb": "Chatswood",
    "state": "NSW",
    "lat": -33.8104506,
    "lng": 151.1063683,
    "place_id": "ChIJ57radDClEmsR24-vZrg9urw",
    "maps_url": "https://www.google.com/maps/place/?q=place_id:ChIJ57radDClEmsR24-vZrg9urw",
    "rating": 4.8,
    "total_ratings": 978
  },
  {
    "name": "CMN Motors - Motor Mechanic Repairs",
    "address": "Unit 2/21 Buffalo Rd, Gladesville",
    "suburb": "Chatswood",
    "state": "NSW",
    "lat": -33.819073,
    "lng": 151.124322,
    "place_id": "ChIJc5Xbu6OlEmsRVqTjyjVUTCM",
    "maps_url": "https://www.google.com/maps/place/?q=place_id:ChIJc5Xbu6OlEmsRVqTjyjVUTCM",
    "rating": 4.8,
    "total_ratings": 93
  },
  {
    "name": "TT Professional Auto Service",
    "address": "Unit 100/116 Miller St, North Sydney",
    "suburb": "Chatswood",
    "state": "NSW",
    "lat": -33.8399034,
    "lng": 151.2085223,
    "place_id": "ChIJ97trevKuEmsRiEdEduZ5Twk",
    "maps_url": "https://www.google.com/maps/place/?q=place_id:ChIJ97trevKuEmsRiEdEduZ5Twk",
    "rating": 3.7,
    "total_ratings": 3
  },
  {
    "name": "Ultra Tune Artarmon",
    "address": "43 Whiting St, Artarmon",
    "suburb": "Chatswood",
    "state": "NSW",
    "lat": -33.8151893,
    "lng": 151.1826512,
    "place_id": "ChIJ5bOVxyavEmsRg01H7p6dJp0",
    "maps_url": "https://www.google.com/maps/place/?q=place_id:ChIJ5bOVxyavEmsRg01H7p6dJp0",
    "rating": 4.8,
    "total_ratings": 157
  },
  {
    "name": "Top star auto care",
    "address": "327 Eastern Valley Way, Castle Cove",
    "suburb": "Chatswood",
    "state": "NSW",
    "lat": -33.7848377,
    "lng": 151.2011205,
    "place_id": "ChIJtbuSfT2pEmsR-LBYF5XwSHs",
    "maps_url": "https://www.google.com/maps/place/?q=place_id:ChIJtbuSfT2pEmsR-LBYF5XwSHs",
    "rating": 4.8,
    "total_ratings": 74
  },
  {
    "name": "B.G. Automotives",
    "address": "87 Church St, Ryde",
    "suburb": "Chatswood",
    "state": "NSW",
    "lat": -33.81857830000001,
    "lng": 151.1002912,
    "place_id": "ChIJEZFXhamlEmsRBRqK0fBUf80",
    "maps_url": "https://www.google.com/maps/place/?q=place_id:ChIJEZFXhamlEmsRBRqK0fBUf80",
    "rating": 4.6,
    "total_ratings": 73
  },
  {
    "name": "Ultra Tune Killara",
    "address": "494 Pacific Hwy, Killara",
    "suburb": "Chatswood",
    "state": "NSW",
    "lat": -33.7715646,
    "lng": 151.1607788,
    "place_id": "ChIJM0DZ-ZSoEmsRLv5WEwfPvss",
    "maps_url": "https://www.google.com/maps/place/?q=place_id:ChIJM0DZ-ZSoEmsRLv5WEwfPvss",
    "rating": 4.2,
    "total_ratings": 133
  },
  {
    "name": "Frank's Auto Centre",
    "address": "100 Parramatta Rd, Croydon",
    "suburb": "Chatswood",
    "state": "NSW",
    "lat": -33.8706489,
    "lng": 151.1148986,
    "place_id": "ChIJMf57iMm6EmsRKBkNICnZqws",
    "maps_url": "https://www.google.com/maps/place/?q=place_id:ChIJMf57iMm6EmsRKBkNICnZqws",
    "rating": 4.5,
    "total_ratings": 30
  },
  {
    "name": "Balgowlah Automotive",
    "address": "439-441 Sydney Rd, Balgowlah",
    "suburb": "Chatswood",
    "state": "NSW",
    "lat": -33.794576,
    "lng": 151.258983,
    "place_id": "ChIJP_R7Mr-rEmsRJdtt7ilougo",
    "maps_url": "https://www.google.com/maps/place/?q=place_id:ChIJP_R7Mr-rEmsRJdtt7ilougo",
    "rating": 4.8,
    "total_ratings": 172
  },
  {
    "name": "Ryde Automotives",
    "address": "332 Blaxland Rd, Ryde",
    "suburb": "Chatswood",
    "state": "NSW",
    "lat": -33.8024788,
    "lng": 151.1003265,
    "place_id": "ChIJZxnZYralEmsRyDODs3PNbHo",
    "maps_url": "https://www.google.com/maps/place/?q=place_id:ChIJZxnZYralEmsRyDODs3PNbHo",
    "rating": 4.9,
    "total_ratings": 124
  },
  {
    "name": "Autoactive Mechanic North Shore",
    "address": "36 Hotham Parade, Artarmon",
    "suburb": "Chatswood",
    "state": "NSW",
    "lat": -33.8143661,
    "lng": 151.1829019,
    "place_id": "ChIJ42NA6SavEmsRLziSGO2qzqc",
    "maps_url": "https://www.google.com/maps/place/?q=place_id:ChIJ42NA6SavEmsRLziSGO2qzqc",
    "rating": 4.9,
    "total_ratings": 47
  },
  {
    "name": "Belrose Auto Care",
    "address": "153 Forest Way, Belrose",
    "suburb": "Chatswood",
    "state": "NSW",
    "lat": -33.73472539999999,
    "lng": 151.2210591,
    "place_id": "ChIJTU7XueSpEmsR9fXodS2dKco",
    "maps_url": "https://www.google.com/maps/place/?q=place_id:ChIJTU7XueSpEmsR9fXodS2dKco",
    "rating": 4.6,
    "total_ratings": 120
  },
  {
    "name": "Em's Northshore Automotive",
    "address": "2 doors up, 42 Middlemiss Street moved to, 66-72 Pacific Hwy, North Sydney",
    "suburb": "Chatswood",
    "state": "NSW",
    "lat": -33.8426141,
    "lng": 151.210139,
    "place_id": "ChIJC5u8SPOuEmsR9fYb0-XoCmk",
    "maps_url": "https://www.google.com/maps/place/?q=place_id:ChIJC5u8SPOuEmsR9fYb0-XoCmk",
    "rating": 4.5,
    "total_ratings": 23
  },
  {
    "name": "Precision Auto Repairs",
    "address": "320 Lane Cove Rd, North Ryde",
    "suburb": "Chatswood",
    "state": "NSW",
    "lat": -33.7923494,
    "lng": 151.1201707,
    "place_id": "ChIJlWuKA8-lEmsRvIQTzC0TSkc",
    "maps_url": "https://www.google.com/maps/place/?q=place_id:ChIJlWuKA8-lEmsRvIQTzC0TSkc",
    "rating": 4.6,
    "total_ratings": 129
  },
  {
    "name": "North Epping Auto Repair",
    "address": "290 Malton Rd, North Epping",
    "suburb": "Chatswood",
    "state": "NSW",
    "lat": -33.7587304,
    "lng": 151.0939341,
    "place_id": "ChIJlVvFGGCmEmsRoJnUrIywFkw",
    "maps_url": "https://www.google.com/maps/place/?q=place_id:ChIJlVvFGGCmEmsRoJnUrIywFkw",
    "rating": 4.9,
    "total_ratings": 53
  },
  {
    "name": "AUTOMOTO",
    "address": "2a Harris Rd, Five Dock",
    "suburb": "Chatswood",
    "state": "NSW",
    "lat": -33.8708338,
    "lng": 151.1223451,
    "place_id": "ChIJgxsjc7S6EmsRDU4HrsxX7gE",
    "maps_url": "https://www.google.com/maps/place/?q=place_id:ChIJgxsjc7S6EmsRDU4HrsxX7gE",
    "rating": 4.9,
    "total_ratings": 118
  },
  {
    "name": "Willoughby Automotive Centre",
    "address": "599 Willoughby Rd, Willoughby",
    "suburb": "Chatswood",
    "state": "NSW",
    "lat": -33.803741,
    "lng": 151.1997957,
    "place_id": "ChIJD3aRvjKpEmsRajwn4DYmdc4",
    "maps_url": "https://www.google.com/maps/place/?q=place_id:ChIJD3aRvjKpEmsRajwn4DYmdc4",
    "rating": 4.2,
    "total_ratings": 196
  },
  {
    "name": "Supreme Auto Electrical",
    "address": "30 Dale St, Brookvale",
    "suburb": "Chatswood",
    "state": "NSW",
    "lat": -33.763242,
    "lng": 151.2684746,
    "place_id": "ChIJn_i7Aa6rEmsRSzJmfuWCvFA",
    "maps_url": "https://www.google.com/maps/place/?q=place_id:ChIJn_i7Aa6rEmsRSzJmfuWCvFA",
    "rating": 5,
    "total_ratings": 2
  },
  {
    "name": "Warringah Auto Clinic",
    "address": "23/104 Old Pittwater Rd, Brookvale",
    "suburb": "Chatswood",
    "state": "NSW",
    "lat": -33.762462,
    "lng": 151.2602337,
    "place_id": "ChIJGbd-D0GqEmsRTorAXNI4JdQ",
    "maps_url": "https://www.google.com/maps/place/?q=place_id:ChIJGbd-D0GqEmsRTorAXNI4JdQ",
    "rating": 4.9,
    "total_ratings": 99
  },
  {
    "name": "Robert St Automotive Repairs",
    "address": "22 Robert St, Rozelle",
    "suburb": "Chatswood",
    "state": "NSW",
    "lat": -33.8660466,
    "lng": 151.1761532,
    "place_id": "ChIJs3iCT8-vEmsRBv_xpSszZPA",
    "maps_url": "https://www.google.com/maps/place/?q=place_id:ChIJs3iCT8-vEmsRBv_xpSszZPA",
    "rating": 4.9,
    "total_ratings": 400
  },
  {
    "name": "Concours Motor Body Repairs",
    "address": "66-68 Hotham Parade, Artarmon",
    "suburb": "Chatswood",
    "state": "NSW",
    "lat": -33.8153412,
    "lng": 151.1809982,
    "place_id": "ChIJ2YVwASSvEmsRFgLcTRFdnmE",
    "maps_url": "https://www.google.com/maps/place/?q=place_id:ChIJ2YVwASSvEmsRFgLcTRFdnmE",
    "rating": 4.9,
    "total_ratings": 149
  },
  {
    "name": "mycar Tyre & Auto Head Office",
    "address": "Clarence St, Sydney",
    "suburb": "Chatswood",
    "state": "NSW",
    "lat": -33.8672891,
    "lng": 151.2052751,
    "place_id": "ChIJVSfrbHuhEmsRHP-Jp8iJXqc",
    "maps_url": "https://www.google.com/maps/place/?q=place_id:ChIJVSfrbHuhEmsRHP-Jp8iJXqc",
    "rating": 1.8,
    "total_ratings": 36
  },
  {
    "name": "Epping Auto Service Centre",
    "address": "30 Bridge St, Epping",
    "suburb": "Hornsby",
    "state": "NSW",
    "lat": -33.774806,
    "lng": 151.079736,
    "place_id": "ChIJKz6xhSekEmsRMw03ub-ti0Q",
    "maps_url": "https://www.google.com/maps/place/?q=place_id:ChIJKz6xhSekEmsRMw03ub-ti0Q",
    "rating": 4.3,
    "total_ratings": 581
  },
  {
    "name": "Barr Automotive",
    "address": "14 James St, Hornsby",
    "suburb": "Hornsby",
    "state": "NSW",
    "lat": -33.7082437,
    "lng": 151.1011252,
    "place_id": "ChIJJQpbqpynEmsRL2Op4WOCg_U",
    "maps_url": "https://www.google.com/maps/place/?q=place_id:ChIJJQpbqpynEmsRL2Op4WOCg_U",
    "rating": 5,
    "total_ratings": 676
  },
  {
    "name": "Epping Motors - Repco Authorised Car Service Pennant Hills",
    "address": "342 Pennant Hills Rd, Pennant Hills",
    "suburb": "Hornsby",
    "state": "NSW",
    "lat": -33.737836,
    "lng": 151.073799,
    "place_id": "ChIJq42d2-amEmsRbN1SkfxUj2k",
    "maps_url": "https://www.google.com/maps/place/?q=place_id:ChIJq42d2-amEmsRbN1SkfxUj2k",
    "rating": 4.5,
    "total_ratings": 82
  },
  {
    "name": "Gurkhas Auto Repairs - Repco Authorised Car Service Hornsby",
    "address": "126 Hunter Ln, Hornsby",
    "suburb": "Hornsby",
    "state": "NSW",
    "lat": -33.6996641,
    "lng": 151.1006384,
    "place_id": "ChIJQes9342nEmsRC6eGvJa0lnw",
    "maps_url": "https://www.google.com/maps/place/?q=place_id:ChIJQes9342nEmsRC6eGvJa0lnw",
    "rating": 4.9,
    "total_ratings": 426
  },
  {
    "name": "mycar Tyre & Auto North Rocks",
    "address": "New North Rocks Rd, North Rocks",
    "suburb": "Hornsby",
    "state": "NSW",
    "lat": -33.76920940000001,
    "lng": 151.0285334,
    "place_id": "ChIJu9TurzKjEmsRQ4k-x6gfioo",
    "maps_url": "https://www.google.com/maps/place/?q=place_id:ChIJu9TurzKjEmsRQ4k-x6gfioo",
    "rating": 4.8,
    "total_ratings": 1029
  },
  {
    "name": "Carlingford Autocare",
    "address": "393 N Rocks Rd, Carlingford",
    "suburb": "Hornsby",
    "state": "NSW",
    "lat": -33.7692495,
    "lng": 151.0399061,
    "place_id": "ChIJ_0e4CvyjEmsRwifl45dKBTU",
    "maps_url": "https://www.google.com/maps/place/?q=place_id:ChIJ_0e4CvyjEmsRwifl45dKBTU",
    "rating": 4.8,
    "total_ratings": 79
  },
  {
    "name": "Genuine Car Service",
    "address": "710 Pennant Hills Rd, Carlingford",
    "suburb": "Hornsby",
    "state": "NSW",
    "lat": -33.7631141,
    "lng": 151.0474808,
    "place_id": "ChIJeY4BBACkEmsRLfy5KrBqzVs",
    "maps_url": "https://www.google.com/maps/place/?q=place_id:ChIJeY4BBACkEmsRLfy5KrBqzVs",
    "rating": 4.8,
    "total_ratings": 127
  },
  {
    "name": "Precision Mechanics",
    "address": "69 Hunter Ln, Hornsby",
    "suburb": "Hornsby",
    "state": "NSW",
    "lat": -33.701015,
    "lng": 151.1006471,
    "place_id": "ChIJDRxrr1ynEmsRnc3sj7ptMe4",
    "maps_url": "https://www.google.com/maps/place/?q=place_id:ChIJDRxrr1ynEmsRnc3sj7ptMe4",
    "rating": 4.9,
    "total_ratings": 52
  },
  {
    "name": "German Auto Care",
    "address": "156 George St, Hornsby",
    "suburb": "Hornsby",
    "state": "NSW",
    "lat": -33.6982872,
    "lng": 151.1006823,
    "place_id": "ChIJ_wpMXIenEmsRSW6zYUytky4",
    "maps_url": "https://www.google.com/maps/place/?q=place_id:ChIJ_wpMXIenEmsRSW6zYUytky4",
    "rating": 4.8,
    "total_ratings": 103
  },
  {
    "name": "St Ives Auto Care",
    "address": "Ampol Petrol Station, 363 Mona Vale Rd, St Ives",
    "suburb": "Hornsby",
    "state": "NSW",
    "lat": -33.7168191,
    "lng": 151.1736308,
    "place_id": "ChIJT_ozjCeoEmsReFmEU3SlqzM",
    "maps_url": "https://www.google.com/maps/place/?q=place_id:ChIJT_ozjCeoEmsReFmEU3SlqzM",
    "rating": 4.8,
    "total_ratings": 88
  },
  {
    "name": "Billy's Automotive Services",
    "address": "Unit 2/1 Chilvers Rd, Thornleigh",
    "suburb": "Hornsby",
    "state": "NSW",
    "lat": -33.7217863,
    "lng": 151.0817041,
    "place_id": "ChIJOaNTKhCnEmsR2UA9iXg2ufo",
    "maps_url": "https://www.google.com/maps/place/?q=place_id:ChIJOaNTKhCnEmsR2UA9iXg2ufo",
    "rating": 4.7,
    "total_ratings": 175
  },
  {
    "name": "Ultra Tune Hornsby",
    "address": "158 George St, Hornsby",
    "suburb": "Hornsby",
    "state": "NSW",
    "lat": -33.698173,
    "lng": 151.100825,
    "place_id": "ChIJQZd_XoenEmsRvc4gbybuv40",
    "maps_url": "https://www.google.com/maps/place/?q=place_id:ChIJQZd_XoenEmsRvc4gbybuv40",
    "rating": 4.9,
    "total_ratings": 285
  },
  {
    "name": "Absolute Smash Repairs",
    "address": "5 Leonard St, Hornsby",
    "suburb": "Hornsby",
    "state": "NSW",
    "lat": -33.7076054,
    "lng": 151.1002578,
    "place_id": "ChIJVzH6rYSnEmsRSt445jGLJJE",
    "maps_url": "https://www.google.com/maps/place/?q=place_id:ChIJVzH6rYSnEmsRSt445jGLJJE",
    "rating": 4.8,
    "total_ratings": 349
  },
  {
    "name": "Absolute Automotive",
    "address": "8/829 Old Northern Rd, Dural",
    "suburb": "Hornsby",
    "state": "NSW",
    "lat": -33.6952858,
    "lng": 151.0330429,
    "place_id": "ChIJWQE-ubugEmsRwRZMhHBt87U",
    "maps_url": "https://www.google.com/maps/place/?q=place_id:ChIJWQE-ubugEmsRwRZMhHBt87U",
    "rating": 4.9,
    "total_ratings": 84
  },
  {
    "name": "Hornsby Automotive",
    "address": "2a Linda St, Hornsby",
    "suburb": "Hornsby",
    "state": "NSW",
    "lat": -33.7004193,
    "lng": 151.1005289,
    "place_id": "ChIJ0b1dqR2nEmsR4iurScNtYi8",
    "maps_url": "https://www.google.com/maps/place/?q=place_id:ChIJ0b1dqR2nEmsR4iurScNtYi8",
    "rating": 4.9,
    "total_ratings": 80
  },
  {
    "name": "Ultra Tune Dural",
    "address": "Unit 25/286-288 New Line Rd, Dural",
    "suburb": "Hornsby",
    "state": "NSW",
    "lat": -33.6963542,
    "lng": 151.0327704,
    "place_id": "ChIJ70zJ1LugEmsRtwnQ478ZxCQ",
    "maps_url": "https://www.google.com/maps/place/?q=place_id:ChIJ70zJ1LugEmsRtwnQ478ZxCQ",
    "rating": 4.6,
    "total_ratings": 178
  },
  {
    "name": "NAS Automotives",
    "address": "14 Duffy Ave, Thornleigh",
    "suburb": "Hornsby",
    "state": "NSW",
    "lat": -33.7250729,
    "lng": 151.0825136,
    "place_id": "ChIJ7UqgRAWnEmsRcNR18Mikfm8",
    "maps_url": "https://www.google.com/maps/place/?q=place_id:ChIJ7UqgRAWnEmsRcNR18Mikfm8",
    "rating": 4.9,
    "total_ratings": 37
  },
  {
    "name": "Pink Slip Today Pymble",
    "address": "75 Grandview St, Pymble",
    "suburb": "Hornsby",
    "state": "NSW",
    "lat": -33.7444867,
    "lng": 151.142584,
    "place_id": "ChIJQSQcVZupEmsRekpgI1pv__w",
    "maps_url": "https://www.google.com/maps/place/?q=place_id:ChIJQSQcVZupEmsRekpgI1pv__w",
    "rating": 4.6,
    "total_ratings": 54
  },
  {
    "name": "Autohaus Northshore - AHNS",
    "address": "49 Hunter St, Hornsby",
    "suburb": "Hornsby",
    "state": "NSW",
    "lat": -33.7019387,
    "lng": 151.1006293,
    "place_id": "ChIJG4l-voanEmsRn5NyKdH35Lg",
    "maps_url": "https://www.google.com/maps/place/?q=place_id:ChIJG4l-voanEmsRn5NyKdH35Lg",
    "rating": 4.6,
    "total_ratings": 113
  },
  {
    "name": "Midas Hornsby Tyre & Auto Service",
    "address": "1/124 George St, Hornsby",
    "suburb": "Hornsby",
    "state": "NSW",
    "lat": -33.6996828,
    "lng": 151.1004662,
    "place_id": "ChIJ4RIG2YanEmsR7mMRrXWzpIY",
    "maps_url": "https://www.google.com/maps/place/?q=place_id:ChIJ4RIG2YanEmsR7mMRrXWzpIY",
    "rating": 4.6,
    "total_ratings": 178
  },
  {
    "name": "Nev Chick's Auto Service",
    "address": "3/65 Hunter Ln, Hornsby",
    "suburb": "Hornsby",
    "state": "NSW",
    "lat": -33.7011155,
    "lng": 151.1005723,
    "place_id": "ChIJMeystA-nEmsRIM13w_KXB2U",
    "maps_url": "https://www.google.com/maps/place/?q=place_id:ChIJMeystA-nEmsRIM13w_KXB2U",
    "rating": 5,
    "total_ratings": 20
  },
  {
    "name": "Hornsby Service Centre",
    "address": "81A Hunter St, Hornsby",
    "suburb": "Hornsby",
    "state": "NSW",
    "lat": -33.7004223,
    "lng": 151.1009282,
    "place_id": "ChIJs8d7Ke-nEmsRRXCbJaHUc_Y",
    "maps_url": "https://www.google.com/maps/place/?q=place_id:ChIJs8d7Ke-nEmsRRXCbJaHUc_Y",
    "rating": 4.4,
    "total_ratings": 60
  },
  {
    "name": "Northshore mechanical service北岸汽修",
    "address": "3 James St, Hornsby",
    "suburb": "Hornsby",
    "state": "NSW",
    "lat": -33.70855420000001,
    "lng": 151.1006486,
    "place_id": "ChIJSU7FUXRYDWsRp0Sbt2uZW7k",
    "maps_url": "https://www.google.com/maps/place/?q=place_id:ChIJSU7FUXRYDWsRp0Sbt2uZW7k",
    "rating": 4.2,
    "total_ratings": 43
  },
  {
    "name": "North Shore Hi-Tech",
    "address": "10 Railway Parade, Thornleigh",
    "suburb": "Hornsby",
    "state": "NSW",
    "lat": -33.730789,
    "lng": 151.080154,
    "place_id": "ChIJk1Ko4xynEmsR30FEVQoNJSA",
    "maps_url": "https://www.google.com/maps/place/?q=place_id:ChIJk1Ko4xynEmsR30FEVQoNJSA",
    "rating": 4.9,
    "total_ratings": 198
  },
  {
    "name": "Central Auto Repairs",
    "address": "134 George St, Hornsby",
    "suburb": "Hornsby",
    "state": "NSW",
    "lat": -33.6992125,
    "lng": 151.1003498,
    "place_id": "ChIJxxq8OYenEmsRLAtMwdL0WY8",
    "maps_url": "https://www.google.com/maps/place/?q=place_id:ChIJxxq8OYenEmsRLAtMwdL0WY8",
    "rating": 4.6,
    "total_ratings": 77
  },
  {
    "name": "Your Auto Man",
    "address": "Unit 10/39 Albert St, Hornsby",
    "suburb": "Hornsby",
    "state": "NSW",
    "lat": -33.7021289,
    "lng": 151.1020473,
    "place_id": "ChIJ22C3JdHLcmsR7bx8Ipp6u1Q",
    "maps_url": "https://www.google.com/maps/place/?q=place_id:ChIJ22C3JdHLcmsR7bx8Ipp6u1Q",
    "rating": 5,
    "total_ratings": 40
  },
  {
    "name": "New Car Warranty Service Rego's",
    "address": "290 Malton Rd, North Epping",
    "suburb": "Hornsby",
    "state": "NSW",
    "lat": -33.7587315,
    "lng": 151.093937,
    "place_id": "ChIJZ0S3IWCmEmsRfntNdRQeyYE",
    "maps_url": "https://www.google.com/maps/place/?q=place_id:ChIJZ0S3IWCmEmsRfntNdRQeyYE",
    "rating": 5,
    "total_ratings": 1
  },
  {
    "name": "Thornleigh Car Care",
    "address": "1/5 Sefton Rd, Thornleigh",
    "suburb": "Hornsby",
    "state": "NSW",
    "lat": -33.722083,
    "lng": 151.0860239,
    "place_id": "ChIJ04TvEPSnEmsR1eUdjKy6eiA",
    "maps_url": "https://www.google.com/maps/place/?q=place_id:ChIJ04TvEPSnEmsR1eUdjKy6eiA",
    "rating": 4.7,
    "total_ratings": 54
  },
  {
    "name": "AGM Automotive",
    "address": "3/97 Hunter St, Hornsby",
    "suburb": "Hornsby",
    "state": "NSW",
    "lat": -33.6992339,
    "lng": 151.1011114,
    "place_id": "ChIJ5ekjFYenEmsRYP1AsAhxPqc",
    "maps_url": "https://www.google.com/maps/place/?q=place_id:ChIJ5ekjFYenEmsRYP1AsAhxPqc",
    "rating": 4.9,
    "total_ratings": 10
  },
  {
    "name": "Northern Auto Detailing Rogan Hills",
    "address": "4 Slade Ave, Castle Hill",
    "suburb": "Hornsby",
    "state": "NSW",
    "lat": -33.7284095,
    "lng": 151.0217168,
    "place_id": "ChIJQxihr9uhEmsRb1BCIgLMIdM",
    "maps_url": "https://www.google.com/maps/place/?q=place_id:ChIJQxihr9uhEmsRb1BCIgLMIdM",
    "rating": 5,
    "total_ratings": 1
  },
  {
    "name": "Hunter Street Automotive",
    "address": "2/65 Hunter St, Hornsby",
    "suburb": "Hornsby",
    "state": "NSW",
    "lat": -33.7012161,
    "lng": 151.1009862,
    "place_id": "ChIJb3IFw4anEmsRK0utkXEOBtI",
    "maps_url": "https://www.google.com/maps/place/?q=place_id:ChIJb3IFw4anEmsRK0utkXEOBtI",
    "rating": 4.6,
    "total_ratings": 146
  },
  {
    "name": "GB Car Care",
    "address": "79 Hunter St, Hornsby",
    "suburb": "Hornsby",
    "state": "NSW",
    "lat": -33.7006203,
    "lng": 151.1010127,
    "place_id": "ChIJlXqH4IanEmsRBcU-dILmAh8",
    "maps_url": "https://www.google.com/maps/place/?q=place_id:ChIJlXqH4IanEmsRBcU-dILmAh8",
    "rating": 4.9,
    "total_ratings": 12
  },
  {
    "name": "Anytime Motors Hornsby (혼스비 한인 자동차 정비)",
    "address": "1/14 Brennan Cl, Asquith",
    "suburb": "Hornsby",
    "state": "NSW",
    "lat": -33.6966959,
    "lng": 151.109382,
    "place_id": "ChIJrUMtumxZDWsRxWoR9gxKArM",
    "maps_url": "https://www.google.com/maps/place/?q=place_id:ChIJrUMtumxZDWsRxWoR9gxKArM",
    "rating": 4.8,
    "total_ratings": 150
  },
  {
    "name": "O'Malley's Automotive Repairs Hornsby",
    "address": "4/5 Leighton Pl, Hornsby",
    "suburb": "Hornsby",
    "state": "NSW",
    "lat": -33.6963241,
    "lng": 151.1120317,
    "place_id": "ChIJAQwfEXRYDWsRJqRHaPdE1FU",
    "maps_url": "https://www.google.com/maps/place/?q=place_id:ChIJAQwfEXRYDWsRJqRHaPdE1FU",
    "rating": 4.9,
    "total_ratings": 66
  },
  {
    "name": "eTech Auto",
    "address": "266 N Rocks Rd, North Rocks",
    "suburb": "Hornsby",
    "state": "NSW",
    "lat": -33.7754788,
    "lng": 151.0228931,
    "place_id": "ChIJxYZGn7OlEmsRBCSgZ41lllE",
    "maps_url": "https://www.google.com/maps/place/?q=place_id:ChIJxYZGn7OlEmsRBCSgZ41lllE",
    "rating": 3.4,
    "total_ratings": 22
  },
  {
    "name": "mh Auto Care Pty Ltd",
    "address": "5 James St, Hornsby",
    "suburb": "Hornsby",
    "state": "NSW",
    "lat": -33.7084275,
    "lng": 151.1007077,
    "place_id": "ChIJWwB8tISnEmsRhq4sb1ftNVk",
    "maps_url": "https://www.google.com/maps/place/?q=place_id:ChIJWwB8tISnEmsRhq4sb1ftNVk",
    "rating": 5,
    "total_ratings": 59
  },
  {
    "name": "Sid's Automotive",
    "address": "1579 Pacific Hwy, Wahroonga",
    "suburb": "Hornsby",
    "state": "NSW",
    "lat": -33.719704,
    "lng": 151.116643,
    "place_id": "ChIJfV921pSnEmsRSHBBe5km2hM",
    "maps_url": "https://www.google.com/maps/place/?q=place_id:ChIJfV921pSnEmsRSHBBe5km2hM",
    "rating": 4.6,
    "total_ratings": 71
  },
  {
    "name": "Cherry Service Centre",
    "address": "67 Shepherds Dr, Cherrybrook",
    "suburb": "Hornsby",
    "state": "NSW",
    "lat": -33.7208525,
    "lng": 151.0450669,
    "place_id": "ChIJGdy9GKmhEmsRbRskP2aQQ18",
    "maps_url": "https://www.google.com/maps/place/?q=place_id:ChIJGdy9GKmhEmsRbRskP2aQQ18",
    "rating": 4.5,
    "total_ratings": 48
  },
  {
    "name": "Des Auto Centre",
    "address": "134 Hunter Ln, Hornsby",
    "suburb": "Hornsby",
    "state": "NSW",
    "lat": -33.6992596,
    "lng": 151.1007647,
    "place_id": "ChIJUWSLGUenEmsRWIe6mFgAxFM",
    "maps_url": "https://www.google.com/maps/place/?q=place_id:ChIJUWSLGUenEmsRWIe6mFgAxFM",
    "rating": 5,
    "total_ratings": 1
  },
  {
    "name": "The Rev Doctor",
    "address": "15/31-37 Salisbury Rd, Hornsby",
    "suburb": "Hornsby",
    "state": "NSW",
    "lat": -33.6955987,
    "lng": 151.1113338,
    "place_id": "ChIJc0d5q3ZYDWsR4PbPa5uxjQY",
    "maps_url": "https://www.google.com/maps/place/?q=place_id:ChIJc0d5q3ZYDWsR4PbPa5uxjQY",
    "rating": 4.8,
    "total_ratings": 20
  },
  {
    "name": "Barrie Automotive Services",
    "address": "2-4 Hornsby St, Hornsby",
    "suburb": "Hornsby",
    "state": "NSW",
    "lat": -33.7084945,
    "lng": 151.0999761,
    "place_id": "ChIJPQ-iUJunEmsR2vhxFHxYSV4",
    "maps_url": "https://www.google.com/maps/place/?q=place_id:ChIJPQ-iUJunEmsR2vhxFHxYSV4",
    "rating": 4.6,
    "total_ratings": 125
  },
  {
    "name": "Oztec Auto Dural",
    "address": "598 Old Northern Rd, Dural",
    "suburb": "Hornsby",
    "state": "NSW",
    "lat": -33.6940116,
    "lng": 151.0315057,
    "place_id": "ChIJo-Disb-hEmsRVCavjWsrIdg",
    "maps_url": "https://www.google.com/maps/place/?q=place_id:ChIJo-Disb-hEmsRVCavjWsrIdg",
    "rating": 5,
    "total_ratings": 21
  },
  {
    "name": "AB Car Care",
    "address": "2/12 Pioneer Ave, Thornleigh",
    "suburb": "Hornsby",
    "state": "NSW",
    "lat": -33.72303,
    "lng": 151.0838,
    "place_id": "ChIJ6S6VlQ-nEmsRmuwnkq8r5RA",
    "maps_url": "https://www.google.com/maps/place/?q=place_id:ChIJ6S6VlQ-nEmsRmuwnkq8r5RA",
    "rating": 5,
    "total_ratings": 39
  },
  {
    "name": "APG | Autopia Garage",
    "address": "Unit 92/14 Loyalty Rd, North Rocks",
    "suburb": "Hornsby",
    "state": "NSW",
    "lat": -33.7756062,
    "lng": 151.0111328,
    "place_id": "ChIJNbKWBAOjEmsRGYVYhzKfNDE",
    "maps_url": "https://www.google.com/maps/place/?q=place_id:ChIJNbKWBAOjEmsRGYVYhzKfNDE",
    "rating": 4.8,
    "total_ratings": 20
  },
  {
    "name": "SR Autobody",
    "address": "146 George St, Hornsby",
    "suburb": "Hornsby",
    "state": "NSW",
    "lat": -33.6986935,
    "lng": 151.1004867,
    "place_id": "ChIJUxgWRIenEmsRhCx5V6uw8uo",
    "maps_url": "https://www.google.com/maps/place/?q=place_id:ChIJUxgWRIenEmsRhCx5V6uw8uo",
    "rating": 4.8,
    "total_ratings": 183
  },
  {
    "name": "mycar Tyre & Auto Pennant Hills",
    "address": "Reddy Express Service Station, 386 Pennant Hills Rd, Pennant Hills",
    "suburb": "Hornsby",
    "state": "NSW",
    "lat": -33.7392473,
    "lng": 151.0681535,
    "place_id": "ChIJGVbTG92mEmsRc_Q6YCQXD2o",
    "maps_url": "https://www.google.com/maps/place/?q=place_id:ChIJGVbTG92mEmsRc_Q6YCQXD2o",
    "rating": 4.8,
    "total_ratings": 665
  },
  {
    "name": "MD Autotech",
    "address": "Factory 2/89 Hunter Ln, Hornsby",
    "suburb": "Hornsby",
    "state": "NSW",
    "lat": -33.7000085,
    "lng": 151.1009277,
    "place_id": "ChIJEwLQIIenEmsRpPmdCs-CXMY",
    "maps_url": "https://www.google.com/maps/place/?q=place_id:ChIJEwLQIIenEmsRpPmdCs-CXMY",
    "rating": 5,
    "total_ratings": 38
  },
  {
    "name": "Motorserve Hornsby Car Servicing",
    "address": "1 Hornsby St, Hornsby",
    "suburb": "Hornsby",
    "state": "NSW",
    "lat": -33.7081,
    "lng": 151.0993625,
    "place_id": "ChIJsSnoqZynEmsRbCnjIqvztRk",
    "maps_url": "https://www.google.com/maps/place/?q=place_id:ChIJsSnoqZynEmsRbCnjIqvztRk",
    "rating": 4.1,
    "total_ratings": 269
  },
  {
    "name": "mycar Tyre & Auto Macquarie Centre",
    "address": "Centre Rooftop Carpark, Waterloo Rd, Macquarie Park",
    "suburb": "Hornsby",
    "state": "NSW",
    "lat": -33.7756041,
    "lng": 151.1211344,
    "place_id": "ChIJw8VK0QemEmsRIJ49bjflc2o",
    "maps_url": "https://www.google.com/maps/place/?q=place_id:ChIJw8VK0QemEmsRIJ49bjflc2o",
    "rating": 4.7,
    "total_ratings": 1642
  },
  {
    "name": "Northwest Car Care",
    "address": "Unit 6/915 Old Northern Rd, Dural",
    "suburb": "Hornsby",
    "state": "NSW",
    "lat": -33.6830201,
    "lng": 151.0289007,
    "place_id": "ChIJzSVrnKShEmsR1GGv7ser0UQ",
    "maps_url": "https://www.google.com/maps/place/?q=place_id:ChIJzSVrnKShEmsR1GGv7ser0UQ",
    "rating": 5,
    "total_ratings": 15
  },
  {
    "name": "Bosch Car Service - Pacific Auto Centre",
    "address": "7 Pioneer Ave, Thornleigh",
    "suburb": "Hornsby",
    "state": "NSW",
    "lat": -33.7237223,
    "lng": 151.0843943,
    "place_id": "ChIJVe4VhQ-nEmsRTNszODm7BrA",
    "maps_url": "https://www.google.com/maps/place/?q=place_id:ChIJVe4VhQ-nEmsRTNszODm7BrA",
    "rating": 4.8,
    "total_ratings": 53
  },
  {
    "name": "S&G Tyre and Auto",
    "address": "132 George St, Hornsby",
    "suburb": "Hornsby",
    "state": "NSW",
    "lat": -33.6993248,
    "lng": 151.1005015,
    "place_id": "ChIJu-Z0FIenEmsRUI2VRa1E2rw",
    "maps_url": "https://www.google.com/maps/place/?q=place_id:ChIJu-Z0FIenEmsRUI2VRa1E2rw",
    "rating": 4.3,
    "total_ratings": 29
  },
  {
    "name": "mycar Tyre & Auto Hornsby",
    "address": "In The Level 2 Carpark, Westfield Shopping Centre, Burdett St, Hornsby",
    "suburb": "Hornsby",
    "state": "NSW",
    "lat": -33.7035158,
    "lng": 151.1017388,
    "place_id": "ChIJyQvpoIanEmsRs_PSQLCXuCc",
    "maps_url": "https://www.google.com/maps/place/?q=place_id:ChIJyQvpoIanEmsRs_PSQLCXuCc",
    "rating": 4.8,
    "total_ratings": 919
  },
  {
    "name": "Matt Gates Automotive",
    "address": "Unit 3/18-20 Leighton Pl, Hornsby",
    "suburb": "Hornsby",
    "state": "NSW",
    "lat": -33.696117,
    "lng": 151.1130001,
    "place_id": "ChIJI8YugCpZDWsRdG_UpjXuBJQ",
    "maps_url": "https://www.google.com/maps/place/?q=place_id:ChIJI8YugCpZDWsRdG_UpjXuBJQ",
    "rating": 5,
    "total_ratings": 118
  },
  {
    "name": "Brookvale Auto Service",
    "address": "19/9 Powells Rd, Brookvale",
    "suburb": "Manly",
    "state": "NSW",
    "lat": -33.7671089,
    "lng": 151.2729187,
    "place_id": "ChIJY_HgeFyqEmsRulAv8WROexg",
    "maps_url": "https://www.google.com/maps/place/?q=place_id:ChIJY_HgeFyqEmsRulAv8WROexg",
    "rating": 4.8,
    "total_ratings": 101
  },
  {
    "name": "PT Precision Automotive",
    "address": "1/2 Paton Pl, Balgowlah",
    "suburb": "Manly",
    "state": "NSW",
    "lat": -33.787522,
    "lng": 151.2698179,
    "place_id": "ChIJKaTjEa6rEmsRzCfifoh8y1g",
    "maps_url": "https://www.google.com/maps/place/?q=place_id:ChIJKaTjEa6rEmsRzCfifoh8y1g",
    "rating": 4.9,
    "total_ratings": 79
  },
  {
    "name": "Bromspec Motor Works",
    "address": "23 Orchard Rd, Brookvale",
    "suburb": "Manly",
    "state": "NSW",
    "lat": -33.7651781,
    "lng": 151.2736779,
    "place_id": "ChIJp8xiN1yqEmsRvLBXTA5_B1Y",
    "maps_url": "https://www.google.com/maps/place/?q=place_id:ChIJp8xiN1yqEmsRvLBXTA5_B1Y",
    "rating": 4.7,
    "total_ratings": 135
  },
  {
    "name": "Dee Why Mechanical Repairs",
    "address": "189 S Creek Rd, Cromer",
    "suburb": "Manly",
    "state": "NSW",
    "lat": -33.736124,
    "lng": 151.280335,
    "place_id": "ChIJRYE6gnhVDWsRHs2j3fWJS8A",
    "maps_url": "https://www.google.com/maps/place/?q=place_id:ChIJRYE6gnhVDWsRHs2j3fWJS8A",
    "rating": 4.1,
    "total_ratings": 44
  },
  {
    "name": "HS Mobile Mechanic",
    "address": "48 Neridah Ave, Belrose",
    "suburb": "Manly",
    "state": "NSW",
    "lat": -33.7243339,
    "lng": 151.2181371,
    "place_id": "ChIJQ5SjRRxWDWsRhGgHKoaXEF4",
    "maps_url": "https://www.google.com/maps/place/?q=place_id:ChIJQ5SjRRxWDWsRhGgHKoaXEF4",
    "rating": 4.8,
    "total_ratings": 48
  },
  {
    "name": "Safety Service Centre",
    "address": "Unit 26/1 Thew Parade, Cromer",
    "suburb": "Manly",
    "state": "NSW",
    "lat": -33.7353984,
    "lng": 151.2820646,
    "place_id": "ChIJO7L8jpqpEmsRa7UhlUequKo",
    "maps_url": "https://www.google.com/maps/place/?q=place_id:ChIJO7L8jpqpEmsRa7UhlUequKo",
    "rating": 4.4,
    "total_ratings": 51
  },
  {
    "name": "Powerhouse Auto Services",
    "address": "367 Pittwater Rd, North Manly",
    "suburb": "Manly",
    "state": "NSW",
    "lat": -33.782011,
    "lng": 151.2786216,
    "place_id": "ChIJG5g8DVWqEmsRzzKIhNZqqZk",
    "maps_url": "https://www.google.com/maps/place/?q=place_id:ChIJG5g8DVWqEmsRzzKIhNZqqZk",
    "rating": 4.2,
    "total_ratings": 75
  },
  {
    "name": "Avo's Auto Repairs",
    "address": "Unit 1/126 Sydney Rd, Fairlight",
    "suburb": "Manly",
    "state": "NSW",
    "lat": -33.7958853,
    "lng": 151.2776639,
    "place_id": "ChIJjV4AsqerEmsRbqF3m_SQXQs",
    "maps_url": "https://www.google.com/maps/place/?q=place_id:ChIJjV4AsqerEmsRbqF3m_SQXQs",
    "rating": 4.8,
    "total_ratings": 31
  },
  {
    "name": "Dee Why Auto Clinic",
    "address": "128 Fisher Rd, Dee Why",
    "suburb": "Manly",
    "state": "NSW",
    "lat": -33.7449669,
    "lng": 151.2863144,
    "place_id": "ChIJZ_KoAIKqEmsRk78nhKOMvho",
    "maps_url": "https://www.google.com/maps/place/?q=place_id:ChIJZ_KoAIKqEmsRk78nhKOMvho",
    "rating": 3.1,
    "total_ratings": 93
  },
  {
    "name": "Pitstop Automotives",
    "address": "4/108 Warrane Rd, Chatswood",
    "suburb": "Manly",
    "state": "NSW",
    "lat": -33.7898843,
    "lng": 151.2024956,
    "place_id": "ChIJ93QLcDupEmsRyDJyJtO3LF4",
    "maps_url": "https://www.google.com/maps/place/?q=place_id:ChIJ93QLcDupEmsRyDJyJtO3LF4",
    "rating": 4.6,
    "total_ratings": 31
  },
  {
    "name": "All Car Express",
    "address": "732 Pittwater Rd, Brookvale",
    "suburb": "Manly",
    "state": "NSW",
    "lat": -33.7613405,
    "lng": 151.2735431,
    "place_id": "ChIJlaYMRWeqEmsRiK5PQzAtffw",
    "maps_url": "https://www.google.com/maps/place/?q=place_id:ChIJlaYMRWeqEmsRiK5PQzAtffw",
    "rating": 5,
    "total_ratings": 908
  },
  {
    "name": "Dee Why Auto Care",
    "address": "181 S Creek Rd, Dee Why",
    "suburb": "Manly",
    "state": "NSW",
    "lat": -33.7365192,
    "lng": 151.281037,
    "place_id": "ChIJO6fDj3hVDWsRZQCuLXJDHJc",
    "maps_url": "https://www.google.com/maps/place/?q=place_id:ChIJO6fDj3hVDWsRZQCuLXJDHJc",
    "rating": 4.4,
    "total_ratings": 69
  },
  {
    "name": "Auto Lab",
    "address": "209 Pittwater Rd, Manly",
    "suburb": "Manly",
    "state": "NSW",
    "lat": -33.7875503,
    "lng": 151.2839827,
    "place_id": "ChIJU2PIpQGrEmsR53naPMY9-44",
    "maps_url": "https://www.google.com/maps/place/?q=place_id:ChIJU2PIpQGrEmsR53naPMY9-44",
    "rating": 4.1,
    "total_ratings": 75
  },
  {
    "name": "Shore Dee Why Beach Automotive Repair",
    "address": "1 The Strand, Dee Why",
    "suburb": "Manly",
    "state": "NSW",
    "lat": -33.7555592,
    "lng": 151.2959718,
    "place_id": "ChIJEZ1Gw5uqEmsRPMD2wlJ7E4Y",
    "maps_url": "https://www.google.com/maps/place/?q=place_id:ChIJEZ1Gw5uqEmsRPMD2wlJ7E4Y",
    "rating": 4.9,
    "total_ratings": 79
  },
  {
    "name": "Franks Quality One Automotive & Car Aircon ReGas/Repair & Mobile Mechanic - North Shore | Ryde",
    "address": "Servicing North shore, Pymble, Chatswood, Hornsby, Mosman, Cremorne, Kirribilli Lane Cove, Lindfield, Turramurra, Ryde, Macquarie Park, Epping, Gladesville Pymble, Lindfield, St Leonards, Eastwood, Suite 701, Level 7/99 Mount St, North Sydney",
    "suburb": "Manly",
    "state": "NSW",
    "lat": -33.839437,
    "lng": 151.208468,
    "place_id": "ChIJx8TY7d-vEmsRxeyqI9pATyI",
    "maps_url": "https://www.google.com/maps/place/?q=place_id:ChIJx8TY7d-vEmsRxeyqI9pATyI",
    "rating": 4.6,
    "total_ratings": 20
  },
  {
    "name": "Arms Auto Repairs",
    "address": "4 Villiers Pl, Cromer",
    "suburb": "Manly",
    "state": "NSW",
    "lat": -33.7354002,
    "lng": 151.2873982,
    "place_id": "ChIJ8xAWBeBVDWsROU1fcV9K3k0",
    "maps_url": "https://www.google.com/maps/place/?q=place_id:ChIJ8xAWBeBVDWsROU1fcV9K3k0",
    "rating": 5,
    "total_ratings": 5
  },
  {
    "name": "mycar Tyre & Auto Chatswood",
    "address": "55 Alleyne St, Chatswood",
    "suburb": "Manly",
    "state": "NSW",
    "lat": -33.7875477,
    "lng": 151.198383,
    "place_id": "ChIJQfnTqBCpEmsRft791RRAN0I",
    "maps_url": "https://www.google.com/maps/place/?q=place_id:ChIJQfnTqBCpEmsRft791RRAN0I",
    "rating": 4.9,
    "total_ratings": 690
  },
  {
    "name": "mycar Tyre & Auto Neutral Bay",
    "address": "Ernest Street, Ben Boyd Rd, Neutral Bay",
    "suburb": "Manly",
    "state": "NSW",
    "lat": -33.829176,
    "lng": 151.219295,
    "place_id": "ChIJiYgeEr2uEmsRCbOp0eoYItI",
    "maps_url": "https://www.google.com/maps/place/?q=place_id:ChIJiYgeEr2uEmsRCbOp0eoYItI",
    "rating": 4.7,
    "total_ratings": 751
  },
  {
    "name": "Max Harder Motors",
    "address": "1 Powells Rd, Brookvale",
    "suburb": "Manly",
    "state": "NSW",
    "lat": -33.7669119,
    "lng": 151.2734976,
    "place_id": "ChIJrXg712GqEmsR5J2K6yX5UZw",
    "maps_url": "https://www.google.com/maps/place/?q=place_id:ChIJrXg712GqEmsR5J2K6yX5UZw",
    "rating": 4.7,
    "total_ratings": 63
  },
  {
    "name": "Cremorne Automotive Services",
    "address": "49C Spofforth St, Cremorne",
    "suburb": "Manly",
    "state": "NSW",
    "lat": -33.8330496,
    "lng": 151.2297253,
    "place_id": "ChIJhXx0Qp-uEmsRPbFePTm3WnI",
    "maps_url": "https://www.google.com/maps/place/?q=place_id:ChIJhXx0Qp-uEmsRPbFePTm3WnI",
    "rating": 4.8,
    "total_ratings": 247
  },
  {
    "name": "Crows Nest Body Repairs",
    "address": "184 Willoughby Rd, Naremburn",
    "suburb": "Manly",
    "state": "NSW",
    "lat": -33.8216562,
    "lng": 151.2007771,
    "place_id": "ChIJJzR7csOuEmsR0acOuWcWfik",
    "maps_url": "https://www.google.com/maps/place/?q=place_id:ChIJJzR7csOuEmsR0acOuWcWfik",
    "rating": 4.9,
    "total_ratings": 67
  },
  {
    "name": "A.R.K. Automotive",
    "address": "Unit 3/2 Paton Pl, Balgowlah",
    "suburb": "Manly",
    "state": "NSW",
    "lat": -33.78757909999999,
    "lng": 151.2695712,
    "place_id": "ChIJKaTjEa6rEmsRBBJ35CSTV-g",
    "maps_url": "https://www.google.com/maps/place/?q=place_id:ChIJKaTjEa6rEmsRBBJ35CSTV-g",
    "rating": 4.9,
    "total_ratings": 98
  },
  {
    "name": "Brookvale Auto Centre",
    "address": "49 Mitchell Rd, Brookvale",
    "suburb": "Manly",
    "state": "NSW",
    "lat": -33.7669981,
    "lng": 151.2739406,
    "place_id": "ChIJTdRjG1yqEmsRnssPQsro1-I",
    "maps_url": "https://www.google.com/maps/place/?q=place_id:ChIJTdRjG1yqEmsRnssPQsro1-I",
    "rating": 5,
    "total_ratings": 30
  },
  {
    "name": "Al's Automotive Services",
    "address": "u1/32 Chard Rd, Brookvale",
    "suburb": "Manly",
    "state": "NSW",
    "lat": -33.7632258,
    "lng": 151.274984,
    "place_id": "ChIJAQVABV6qEmsR4Mu2CvLD0KY",
    "maps_url": "https://www.google.com/maps/place/?q=place_id:ChIJAQVABV6qEmsR4Mu2CvLD0KY",
    "rating": 5,
    "total_ratings": 51
  },
  {
    "name": "Northern Beaches Toyota Service",
    "address": "196 Harbord Rd, Brookvale",
    "suburb": "Manly",
    "state": "NSW",
    "lat": -33.7638448,
    "lng": 151.2790152,
    "place_id": "ChIJhxJd4mGqEmsRR-GxUZesAHI",
    "maps_url": "https://www.google.com/maps/place/?q=place_id:ChIJhxJd4mGqEmsRR-GxUZesAHI",
    "rating": 3.6,
    "total_ratings": 221
  },
  {
    "name": "SILVERTHORNE AUTOMOTIVE",
    "address": "19/1-5 Thew Parade, Cromer",
    "suburb": "Manly",
    "state": "NSW",
    "lat": -33.735883,
    "lng": 151.2824058,
    "place_id": "ChIJdUuPWnhVDWsR8HmeSxCUGc4",
    "maps_url": "https://www.google.com/maps/place/?q=place_id:ChIJdUuPWnhVDWsR8HmeSxCUGc4",
    "rating": 4.9,
    "total_ratings": 27
  },
  {
    "name": "Auto Body Smash Repairs",
    "address": "35-37 Carter Rd, Brookvale",
    "suburb": "Manly",
    "state": "NSW",
    "lat": -33.7621536,
    "lng": 151.2790826,
    "place_id": "ChIJ96GoPmCqEmsRUB_XyKbS0E4",
    "maps_url": "https://www.google.com/maps/place/?q=place_id:ChIJ96GoPmCqEmsRUB_XyKbS0E4",
    "rating": 5,
    "total_ratings": 662
  },
  {
    "name": "Midas Brookvale Tyre & Auto Service",
    "address": "4/750 Pittwater Rd, Brookvale",
    "suburb": "Manly",
    "state": "NSW",
    "lat": -33.761513,
    "lng": 151.2755313,
    "place_id": "ChIJD7eEwGCqEmsR73F_AlkDMKU",
    "maps_url": "https://www.google.com/maps/place/?q=place_id:ChIJD7eEwGCqEmsR73F_AlkDMKU",
    "rating": 4.5,
    "total_ratings": 195
  },
  {
    "name": "mycar Tyre & Auto Harbord",
    "address": "Reddy Express Service Station, Winbourne Road, Harbord Rd, Brookvale",
    "suburb": "Manly",
    "state": "NSW",
    "lat": -33.7634726,
    "lng": 151.2794073,
    "place_id": "ChIJr3hfHGCqEmsRzVpQHzJtKM4",
    "maps_url": "https://www.google.com/maps/place/?q=place_id:ChIJr3hfHGCqEmsRzVpQHzJtKM4",
    "rating": 4.9,
    "total_ratings": 359
  },
  {
    "name": "Karl Knudsen Automotive",
    "address": "11 Gibbes St, Chatswood",
    "suburb": "Manly",
    "state": "NSW",
    "lat": -33.78911830000001,
    "lng": 151.2002136,
    "place_id": "ChIJLXbPmTypEmsR_NFS7MaWqKI",
    "maps_url": "https://www.google.com/maps/place/?q=place_id:ChIJLXbPmTypEmsR_NFS7MaWqKI",
    "rating": 4.4,
    "total_ratings": 110
  },
  {
    "name": "Auto Servis",
    "address": "174 S Creek Rd, Cromer",
    "suburb": "Manly",
    "state": "NSW",
    "lat": -33.734201,
    "lng": 151.279679,
    "place_id": "ChIJncRbooJVDWsREralbxemAJA",
    "maps_url": "https://www.google.com/maps/place/?q=place_id:ChIJncRbooJVDWsREralbxemAJA",
    "rating": 5,
    "total_ratings": 2
  },
  {
    "name": "Chatswood Prestige",
    "address": "1 Gibbes St, Chatswood",
    "suburb": "Manly",
    "state": "NSW",
    "lat": -33.7907286,
    "lng": 151.200848,
    "place_id": "ChIJLXKjcDupEmsR23h2_xaShjU",
    "maps_url": "https://www.google.com/maps/place/?q=place_id:ChIJLXKjcDupEmsR23h2_xaShjU",
    "rating": 4.6,
    "total_ratings": 183
  },
  {
    "name": "Midas Mosman Tyre & Auto Service",
    "address": "516 Military Rd, Mosman",
    "suburb": "Manly",
    "state": "NSW",
    "lat": -33.8247587,
    "lng": 151.2341148,
    "place_id": "ChIJNRP0Wx2sEmsRPvJFCeWMgUQ",
    "maps_url": "https://www.google.com/maps/place/?q=place_id:ChIJNRP0Wx2sEmsRPvJFCeWMgUQ",
    "rating": 4.4,
    "total_ratings": 366
  },
  {
    "name": "mycar Tyre & Auto Cammeray",
    "address": "481 Miller St, Cammeray",
    "suburb": "Manly",
    "state": "NSW",
    "lat": -33.8213396,
    "lng": 151.2109986,
    "place_id": "ChIJD1XqhriuEmsR0G5ifM-_01w",
    "maps_url": "https://www.google.com/maps/place/?q=place_id:ChIJD1XqhriuEmsR0G5ifM-_01w",
    "rating": 4.7,
    "total_ratings": 538
  },
  {
    "name": "Col Crawford Car Service Centre",
    "address": "21 Roger St, Brookvale",
    "suburb": "Manly",
    "state": "NSW",
    "lat": -33.7631832,
    "lng": 151.2703905,
    "place_id": "ChIJTTJxGl2qEmsR5Kqm4wHMBQE",
    "maps_url": "https://www.google.com/maps/place/?q=place_id:ChIJTTJxGl2qEmsR5Kqm4wHMBQE",
    "rating": 4.7,
    "total_ratings": 1412
  },
  {
    "name": "Premier Automotive",
    "address": "30 Dale St, Brookvale",
    "suburb": "Manly",
    "state": "NSW",
    "lat": -33.7631727,
    "lng": 151.2683788,
    "place_id": "ChIJ__-D1EKqEmsRo0OuXaCWElI",
    "maps_url": "https://www.google.com/maps/place/?q=place_id:ChIJ__-D1EKqEmsRo0OuXaCWElI",
    "rating": 4.8,
    "total_ratings": 35
  },
  {
    "name": "Battery Rush Mobile Car Battery Replacement - Crows Nest",
    "address": "236 Pacific Hwy, Crows Nest",
    "suburb": "Manly",
    "state": "NSW",
    "lat": -33.8296996,
    "lng": 151.2017751,
    "place_id": "ChIJ84XmrVGvEmsRhCzpeZFTDEA",
    "maps_url": "https://www.google.com/maps/place/?q=place_id:ChIJ84XmrVGvEmsRhCzpeZFTDEA",
    "rating": 5,
    "total_ratings": 14
  },
  {
    "name": "mycar Tyre & Auto Brookvale",
    "address": "Cross St, Brookvale",
    "suburb": "Manly",
    "state": "NSW",
    "lat": -33.7655026,
    "lng": 151.2673463,
    "place_id": "ChIJyQ4hYEOqEmsRIFV_3_EQcF0",
    "maps_url": "https://www.google.com/maps/place/?q=place_id:ChIJyQ4hYEOqEmsRIFV_3_EQcF0",
    "rating": 4.8,
    "total_ratings": 657
  },
  {
    "name": "City European Auto",
    "address": "unit 14/42-46 Wattle Rd, Brookvale",
    "suburb": "Manly",
    "state": "NSW",
    "lat": -33.7673323,
    "lng": 151.2743946,
    "place_id": "ChIJZ1rsvBauEmsRlOPU5w38ebQ",
    "maps_url": "https://www.google.com/maps/place/?q=place_id:ChIJZ1rsvBauEmsRlOPU5w38ebQ",
    "rating": 4.7,
    "total_ratings": 23
  },
  {
    "name": "Walkers Auto Electrics & Mechanical",
    "address": "12 Winbourne Rd, Brookvale",
    "suburb": "Manly",
    "state": "NSW",
    "lat": -33.7627622,
    "lng": 151.2789087,
    "place_id": "ChIJJ_WCE2CqEmsRKnSvYhT0nqY",
    "maps_url": "https://www.google.com/maps/place/?q=place_id:ChIJJ_WCE2CqEmsRKnSvYhT0nqY",
    "rating": 4.6,
    "total_ratings": 172
  },
  {
    "name": "Brookvale Automotive",
    "address": "Unit 1/25 Dale St, Brookvale",
    "suburb": "Manly",
    "state": "NSW",
    "lat": -33.7635591,
    "lng": 151.2691124,
    "place_id": "ChIJ-54tKF2qEmsRQGY2XKY5o1o",
    "maps_url": "https://www.google.com/maps/place/?q=place_id:ChIJ-54tKF2qEmsRQGY2XKY5o1o",
    "rating": 4.8,
    "total_ratings": 114
  },
  {
    "name": "Mackellar Service Centre",
    "address": "2/265 Harbord Rd, Dee Why",
    "suburb": "Manly",
    "state": "NSW",
    "lat": -33.7597707,
    "lng": 151.2814712,
    "place_id": "ChIJueBEF4qqEmsRYDeHZs5jI50",
    "maps_url": "https://www.google.com/maps/place/?q=place_id:ChIJueBEF4qqEmsRYDeHZs5jI50",
    "rating": 4.5,
    "total_ratings": 25
  },
  {
    "name": "Harbord Beach Service Station",
    "address": "15/9 Powells Rd, Brookvale",
    "suburb": "Manly",
    "state": "NSW",
    "lat": -33.7667894,
    "lng": 151.2727565,
    "place_id": "ChIJ-WJhdFyqEmsRx50aImFNvcw",
    "maps_url": "https://www.google.com/maps/place/?q=place_id:ChIJ-WJhdFyqEmsRx50aImFNvcw",
    "rating": 5,
    "total_ratings": 25
  },
  {
    "name": "Peninsula Sports Car Services",
    "address": "37 Winbourne Rd, Brookvale",
    "suburb": "Manly",
    "state": "NSW",
    "lat": -33.7627464,
    "lng": 151.2766712,
    "place_id": "ChIJEZRfgmCqEmsRIl9gWqKx864",
    "maps_url": "https://www.google.com/maps/place/?q=place_id:ChIJEZRfgmCqEmsRIl9gWqKx864",
    "rating": 4.9,
    "total_ratings": 41
  },
  {
    "name": "SYDNEY CFR AUTO SERVICE",
    "address": "29 Mary Parade, Rydalmere",
    "suburb": "Parramatta",
    "state": "NSW",
    "lat": -33.8119397,
    "lng": 151.0306745,
    "place_id": "ChIJfz8HAQ-jEmsRVL810ChkCpI",
    "maps_url": "https://www.google.com/maps/place/?q=place_id:ChIJfz8HAQ-jEmsRVL810ChkCpI",
    "rating": 4.9,
    "total_ratings": 93
  },
  {
    "name": "Cars King Service Centre Westmead",
    "address": "69 Hawkesbury Rd, Westmead",
    "suburb": "Parramatta",
    "state": "NSW",
    "lat": -33.8133479,
    "lng": 150.985719,
    "place_id": "ChIJ6an1XMKiEmsR-zh3EeneL48",
    "maps_url": "https://www.google.com/maps/place/?q=place_id:ChIJ6an1XMKiEmsR-zh3EeneL48",
    "rating": 4.2,
    "total_ratings": 455
  },
  {
    "name": "24/7 Mechanic Sydney",
    "address": "47 Springfield St, Old Guildford",
    "suburb": "Parramatta",
    "state": "NSW",
    "lat": -33.86398150000001,
    "lng": 150.9896285,
    "place_id": "ChIJaf6TRpS9EmsR8K-vGa6Hei8",
    "maps_url": "https://www.google.com/maps/place/?q=place_id:ChIJaf6TRpS9EmsR8K-vGa6Hei8",
    "rating": 4.9,
    "total_ratings": 765
  },
  {
    "name": "ZK Golden Sydney Auto Service",
    "address": "2150/54 Ross St, North Parramatta",
    "suburb": "Parramatta",
    "state": "NSW",
    "lat": -33.8078732,
    "lng": 151.0096451,
    "place_id": "ChIJTYc6wByjEmsRWqi_G2Dz0BU",
    "maps_url": "https://www.google.com/maps/place/?q=place_id:ChIJTYc6wByjEmsRWqi_G2Dz0BU",
    "rating": 4.8,
    "total_ratings": 121
  },
  {
    "name": "Shiva Auto Repairs",
    "address": "1/2/16 Anvil Rd, Seven Hills",
    "suburb": "Parramatta",
    "state": "NSW",
    "lat": -33.7783274,
    "lng": 150.9576897,
    "place_id": "ChIJrQPPO3miEmsRnmY1KMdseJU",
    "maps_url": "https://www.google.com/maps/place/?q=place_id:ChIJrQPPO3miEmsRnmY1KMdseJU",
    "rating": 4.7,
    "total_ratings": 81
  },
  {
    "name": "Brothers Auto Smash Repairs",
    "address": "8 Marsh St, Clyde",
    "suburb": "Parramatta",
    "state": "NSW",
    "lat": -33.8332898,
    "lng": 151.0161395,
    "place_id": "ChIJKWEhFDGjEmsRlp4-avVs8f8",
    "maps_url": "https://www.google.com/maps/place/?q=place_id:ChIJKWEhFDGjEmsRlp4-avVs8f8",
    "rating": 4.9,
    "total_ratings": 109
  },
  {
    "name": "Mobile Mechanic Service & Repair",
    "address": "157/159 Church St, Parramatta",
    "suburb": "Parramatta",
    "state": "NSW",
    "lat": -33.8178128,
    "lng": 151.0035319,
    "place_id": "ChIJsXuEKq6jEmsRdQyfrNEM52k",
    "maps_url": "https://www.google.com/maps/place/?q=place_id:ChIJsXuEKq6jEmsRdQyfrNEM52k",
    "rating": 4.8,
    "total_ratings": 58
  },
  {
    "name": "Z 1 Automotive Repair Pty Ltd",
    "address": "Unit 20/378 Parramatta Rd, Homebush West",
    "suburb": "Parramatta",
    "state": "NSW",
    "lat": -33.8579989,
    "lng": 151.0630095,
    "place_id": "ChIJ0Q8mDEy7EmsRuvzIrsarKnc",
    "maps_url": "https://www.google.com/maps/place/?q=place_id:ChIJ0Q8mDEy7EmsRuvzIrsarKnc",
    "rating": 4.3,
    "total_ratings": 29
  },
  {
    "name": "Iman Auto Mechanic",
    "address": "12 Finlayson St, South Wentworthville",
    "suburb": "Parramatta",
    "state": "NSW",
    "lat": -33.8179177,
    "lng": 150.9713391,
    "place_id": "ChIJKcPyUHujEmsRSzatOtTfglI",
    "maps_url": "https://www.google.com/maps/place/?q=place_id:ChIJKcPyUHujEmsRSzatOtTfglI",
    "rating": 4.4,
    "total_ratings": 290
  },
  {
    "name": "Rawson Auto Service Centre",
    "address": "239 Rawson St, Auburn",
    "suburb": "Parramatta",
    "state": "NSW",
    "lat": -33.84309990000001,
    "lng": 151.0273977,
    "place_id": "ChIJoZt_0rS8EmsRjG4WJyrnBW0",
    "maps_url": "https://www.google.com/maps/place/?q=place_id:ChIJoZt_0rS8EmsRjG4WJyrnBW0",
    "rating": 4.5,
    "total_ratings": 212
  },
  {
    "name": "iBest Euro Auto Diagnostics Service Center",
    "address": "13/2 Stanton Rd, Seven Hills",
    "suburb": "Parramatta",
    "state": "NSW",
    "lat": -33.7676231,
    "lng": 150.949322,
    "place_id": "ChIJ-YX4-byZEmsRIMaf6ietuew",
    "maps_url": "https://www.google.com/maps/place/?q=place_id:ChIJ-YX4-byZEmsRIMaf6ietuew",
    "rating": 4.8,
    "total_ratings": 21
  },
  {
    "name": "Krishna Auto - Toongabbie",
    "address": "59 The Crescent, Toongabbie",
    "suburb": "Parramatta",
    "state": "NSW",
    "lat": -33.7960337,
    "lng": 150.9297833,
    "place_id": "ChIJ9elwQp6iEmsRdZB0aD7gTso",
    "maps_url": "https://www.google.com/maps/place/?q=place_id:ChIJ9elwQp6iEmsRdZB0aD7gTso",
    "rating": 4.1,
    "total_ratings": 228
  },
  {
    "name": "Om Automotive Service Centre Pendle Hill",
    "address": "2/221 Wentworth Ave, Pendle Hill",
    "suburb": "Parramatta",
    "state": "NSW",
    "lat": -33.8016099,
    "lng": 150.9572892,
    "place_id": "ChIJ02OxIVWjEmsRwHRNzuLYhzg",
    "maps_url": "https://www.google.com/maps/place/?q=place_id:ChIJ02OxIVWjEmsRwHRNzuLYhzg",
    "rating": 4.5,
    "total_ratings": 454
  },
  {
    "name": "West Ryde Service Centre ( WRSC )",
    "address": "1135 Victoria Rd, West Ryde",
    "suburb": "Parramatta",
    "state": "NSW",
    "lat": -33.8061267,
    "lng": 151.0806399,
    "place_id": "ChIJMUD1Hk6kEmsRTUhZL8yhFw0",
    "maps_url": "https://www.google.com/maps/place/?q=place_id:ChIJMUD1Hk6kEmsRTUhZL8yhFw0",
    "rating": 4.9,
    "total_ratings": 238
  },
  {
    "name": "Finest Auto Care - Mobile Mechanics",
    "address": "32 Munro St, Sefton",
    "suburb": "Parramatta",
    "state": "NSW",
    "lat": -33.8780031,
    "lng": 151.0101258,
    "place_id": "ChIJOxLCKwy9EmsRG47i84kjxqc",
    "maps_url": "https://www.google.com/maps/place/?q=place_id:ChIJOxLCKwy9EmsRG47i84kjxqc",
    "rating": 4.7,
    "total_ratings": 134
  },
  {
    "name": "Auto Girraween Service Station",
    "address": "38A Gilba Rd, Girraween",
    "suburb": "Parramatta",
    "state": "NSW",
    "lat": -33.8018852,
    "lng": 150.9512458,
    "place_id": "ChIJXxl14HSYEmsRjet31ENf9Aw",
    "maps_url": "https://www.google.com/maps/place/?q=place_id:ChIJXxl14HSYEmsRjet31ENf9Aw",
    "rating": 4.4,
    "total_ratings": 68
  },
  {
    "name": "Excel Auto & Tyres Kings Langley",
    "address": "18 Solander Rd, Kings Langley",
    "suburb": "Parramatta",
    "state": "NSW",
    "lat": -33.7558138,
    "lng": 150.9436799,
    "place_id": "ChIJh9FjW9CZEmsRGFy6zB_XNYQ",
    "maps_url": "https://www.google.com/maps/place/?q=place_id:ChIJh9FjW9CZEmsRGFy6zB_XNYQ",
    "rating": 4.9,
    "total_ratings": 29
  },
  {
    "name": "Parramead Automotive Service Specialists",
    "address": "1/27 Daking St, North Parramatta",
    "suburb": "Parramatta",
    "state": "NSW",
    "lat": -33.7930112,
    "lng": 151.0017543,
    "place_id": "ChIJLSIYwaqjEmsRqKC9qKHJvO0",
    "maps_url": "https://www.google.com/maps/place/?q=place_id:ChIJLSIYwaqjEmsRqKC9qKHJvO0",
    "rating": 4.8,
    "total_ratings": 44
  },
  {
    "name": "Harry's Auto Service",
    "address": "26/272-274 Victoria St, Wetherill Park",
    "suburb": "Parramatta",
    "state": "NSW",
    "lat": -33.8464842,
    "lng": 150.9146113,
    "place_id": "ChIJc8QGJK-XEmsRoBavHCdLM74",
    "maps_url": "https://www.google.com/maps/place/?q=place_id:ChIJc8QGJK-XEmsRoBavHCdLM74",
    "rating": 5,
    "total_ratings": 2
  },
  {
    "name": "Nguyen Fully Auto Mechanic Services",
    "address": "1/16 Tangerine St, Villawood",
    "suburb": "Parramatta",
    "state": "NSW",
    "lat": -33.877136,
    "lng": 150.9777618,
    "place_id": "ChIJD0bpc6K9EmsR_OweNeaalTs",
    "maps_url": "https://www.google.com/maps/place/?q=place_id:ChIJD0bpc6K9EmsR_OweNeaalTs",
    "rating": 3.7,
    "total_ratings": 22
  },
  {
    "name": "Better Brakes Parramatta",
    "address": "2 By St, North Parramatta",
    "suburb": "Parramatta",
    "state": "NSW",
    "lat": -33.7975792,
    "lng": 151.003353,
    "place_id": "ChIJv6e_4BijEmsRtexF_vXv2cI",
    "maps_url": "https://www.google.com/maps/place/?q=place_id:ChIJv6e_4BijEmsRtexF_vXv2cI",
    "rating": 4.5,
    "total_ratings": 61
  },
  {
    "name": "IP Auto Care",
    "address": "56 Sunnyholt Rd, Blacktown",
    "suburb": "Parramatta",
    "state": "NSW",
    "lat": -33.7616526,
    "lng": 150.9136441,
    "place_id": "ChIJXzqwZTqZEmsRRCOAkmrz7AE",
    "maps_url": "https://www.google.com/maps/place/?q=place_id:ChIJXzqwZTqZEmsRRCOAkmrz7AE",
    "rating": 4.6,
    "total_ratings": 258
  },
  {
    "name": "Carlingford Automotive Service Centre",
    "address": "288 Pennant Hills Rd, Carlingford",
    "suburb": "Parramatta",
    "state": "NSW",
    "lat": -33.7851105,
    "lng": 151.043598,
    "place_id": "ChIJLYEU3PSjEmsR4NpUbaNFC_o",
    "maps_url": "https://www.google.com/maps/place/?q=place_id:ChIJLYEU3PSjEmsR4NpUbaNFC_o",
    "rating": 4.8,
    "total_ratings": 207
  },
  {
    "name": "C&T Auto Mechanical Repairs",
    "address": "88 Cowper St, Granville",
    "suburb": "Parramatta",
    "state": "NSW",
    "lat": -33.8305306,
    "lng": 151.0093022,
    "place_id": "ChIJbaqzqi-jEmsR4inn3APwV1I",
    "maps_url": "https://www.google.com/maps/place/?q=place_id:ChIJbaqzqi-jEmsR4inn3APwV1I",
    "rating": 4.5,
    "total_ratings": 42
  },
  {
    "name": "AutoCare Silverwater",
    "address": "45 Vore St, Silverwater",
    "suburb": "Parramatta",
    "state": "NSW",
    "lat": -33.8339434,
    "lng": 151.0464203,
    "place_id": "ChIJK2ZomVijEmsRldZvHU1M3d8",
    "maps_url": "https://www.google.com/maps/place/?q=place_id:ChIJK2ZomVijEmsRldZvHU1M3d8",
    "rating": 4.8,
    "total_ratings": 166
  },
  {
    "name": "Concord Auto Electrical",
    "address": "60 Derby St, Silverwater",
    "suburb": "Parramatta",
    "state": "NSW",
    "lat": -33.838097,
    "lng": 151.0465389,
    "place_id": "ChIJQ3Gexta6EmsRB7ATFmK1BHM",
    "maps_url": "https://www.google.com/maps/place/?q=place_id:ChIJQ3Gexta6EmsRB7ATFmK1BHM",
    "rating": 4.1,
    "total_ratings": 154
  },
  {
    "name": "Sydney Mechanic & Smash Repair",
    "address": "37 Antoine St, Rydalmere",
    "suburb": "Parramatta",
    "state": "NSW",
    "lat": -33.8163999,
    "lng": 151.0440338,
    "place_id": "ChIJJ-DHSzulEmsRq8P4gDOhjz8",
    "maps_url": "https://www.google.com/maps/place/?q=place_id:ChIJJ-DHSzulEmsRq8P4gDOhjz8",
    "rating": 4.7,
    "total_ratings": 115
  },
  {
    "name": "Neysie Auto Service Centre",
    "address": "17 Park Rd, Rydalmere",
    "suburb": "Parramatta",
    "state": "NSW",
    "lat": -33.8161386,
    "lng": 151.0412678,
    "place_id": "ChIJLzBn60ijEmsRSkFvZUQLWrk",
    "maps_url": "https://www.google.com/maps/place/?q=place_id:ChIJLzBn60ijEmsRSkFvZUQLWrk",
    "rating": 4.9,
    "total_ratings": 390
  },
  {
    "name": "mycar Tyre & Auto Seven Hills",
    "address": "234-236 Prospect Hwy, Seven Hills",
    "suburb": "Parramatta",
    "state": "NSW",
    "lat": -33.7757683,
    "lng": 150.9335944,
    "place_id": "ChIJ79HjZYWYEmsRUAVRPBwc4so",
    "maps_url": "https://www.google.com/maps/place/?q=place_id:ChIJ79HjZYWYEmsRUAVRPBwc4so",
    "rating": 4.9,
    "total_ratings": 2642
  },
  {
    "name": "Xclusive Automotive - Car Service & Repairs Sydney",
    "address": "23 Carlingford St, Regents Park",
    "suburb": "Parramatta",
    "state": "NSW",
    "lat": -33.8857648,
    "lng": 151.0179868,
    "place_id": "ChIJl2uoUlm8EmsREuE6nQXQdOU",
    "maps_url": "https://www.google.com/maps/place/?q=place_id:ChIJl2uoUlm8EmsREuE6nQXQdOU",
    "rating": 4.8,
    "total_ratings": 59
  },
  {
    "name": "Auto Hero Roadside Assistance 24/7 Sydney Wide",
    "address": "30 Baywater Dr, Wentworth Point",
    "suburb": "Parramatta",
    "state": "NSW",
    "lat": -33.8300024,
    "lng": 151.076412,
    "place_id": "ChIJLanmow2lEmsRnTy_68BZtDg",
    "maps_url": "https://www.google.com/maps/place/?q=place_id:ChIJLanmow2lEmsRnTy_68BZtDg",
    "rating": 4.9,
    "total_ratings": 158
  },
  {
    "name": "Panther Auto Service",
    "address": "1/203 Fairfield Rd, Guildford West",
    "suburb": "Parramatta",
    "state": "NSW",
    "lat": -33.8547071,
    "lng": 150.9583879,
    "place_id": "ChIJ06ldXGO9EmsR_Z_hvAL8TFM",
    "maps_url": "https://www.google.com/maps/place/?q=place_id:ChIJ06ldXGO9EmsR_Z_hvAL8TFM",
    "rating": 4.6,
    "total_ratings": 16
  },
  {
    "name": "Speedy Auto Repair",
    "address": "5 River Rd W, Parramatta",
    "suburb": "Parramatta",
    "state": "NSW",
    "lat": -33.8167014,
    "lng": 151.0208916,
    "place_id": "ChIJExDOYRSjEmsRa930p5wy740",
    "maps_url": "https://www.google.com/maps/place/?q=place_id:ChIJExDOYRSjEmsRa930p5wy740",
    "rating": 4.5,
    "total_ratings": 8
  },
  {
    "name": "Matio Auto Repair",
    "address": "162 Sunnyholt Rd, Blacktown",
    "suburb": "Parramatta",
    "state": "NSW",
    "lat": -33.7518393,
    "lng": 150.9153035,
    "place_id": "ChIJ2zbFu1-ZEmsRSCh5MjoHk-w",
    "maps_url": "https://www.google.com/maps/place/?q=place_id:ChIJ2zbFu1-ZEmsRSCh5MjoHk-w",
    "rating": 4.9,
    "total_ratings": 43
  },
  {
    "name": "Krishna Auto & Tyres - Blacktown",
    "address": "132/136 Sunnyholt Rd, Blacktown",
    "suburb": "Parramatta",
    "state": "NSW",
    "lat": -33.7538848,
    "lng": 150.9143085,
    "place_id": "ChIJW1b6POeYEmsRKXb6WgVCPaA",
    "maps_url": "https://www.google.com/maps/place/?q=place_id:ChIJW1b6POeYEmsRKXb6WgVCPaA",
    "rating": 4.4,
    "total_ratings": 42
  },
  {
    "name": "Dahua Auto Repairs",
    "address": "Unit 32/378 Parramatta Rd, Homebush West",
    "suburb": "Parramatta",
    "state": "NSW",
    "lat": -33.8582664,
    "lng": 151.0629053,
    "place_id": "ChIJwUiw8U67EmsRjY8wPS4F4D4",
    "maps_url": "https://www.google.com/maps/place/?q=place_id:ChIJwUiw8U67EmsRjY8wPS4F4D4",
    "rating": 4.4,
    "total_ratings": 83
  },
  {
    "name": "D&D Smash Repairs",
    "address": "2/99 Parramatta Rd, Granville",
    "suburb": "Parramatta",
    "state": "NSW",
    "lat": -33.8309472,
    "lng": 151.0143353,
    "place_id": "ChIJJ05oTzCjEmsRzQQ9x2M6IRo",
    "maps_url": "https://www.google.com/maps/place/?q=place_id:ChIJJ05oTzCjEmsRzQQ9x2M6IRo",
    "rating": 4.2,
    "total_ratings": 12
  },
  {
    "name": "Tuffy Auto Centre",
    "address": "1A Vimiera Rd, Eastwood",
    "suburb": "Parramatta",
    "state": "NSW",
    "lat": -33.7862054,
    "lng": 151.0853311,
    "place_id": "ChIJxdIOmGWxEmsRgtp13KSRHFU",
    "maps_url": "https://www.google.com/maps/place/?q=place_id:ChIJxdIOmGWxEmsRgtp13KSRHFU",
    "rating": 4,
    "total_ratings": 190
  },
  {
    "name": "Star Mechanical Repairs",
    "address": "Unit D7/23-25 Windsor Rd, Northmead",
    "suburb": "Parramatta",
    "state": "NSW",
    "lat": -33.7903957,
    "lng": 150.9975177,
    "place_id": "ChIJC2XCztGlEmsRjffF7ozfTNU",
    "maps_url": "https://www.google.com/maps/place/?q=place_id:ChIJC2XCztGlEmsRjffF7ozfTNU",
    "rating": 4.8,
    "total_ratings": 114
  },
  {
    "name": "Honfook Auto Repair",
    "address": "5 Marsh St, Clyde",
    "suburb": "Parramatta",
    "state": "NSW",
    "lat": -33.83358940000001,
    "lng": 151.0166853,
    "place_id": "ChIJs9VdFOWjEmsRh4ByeZxdvlY",
    "maps_url": "https://www.google.com/maps/place/?q=place_id:ChIJs9VdFOWjEmsRh4ByeZxdvlY",
    "rating": 4.1,
    "total_ratings": 17
  },
  {
    "name": "Midas Fairfield Tyre & Auto Service",
    "address": "Unit B2/303 The Horsley Dr, Fairfield",
    "suburb": "Parramatta",
    "state": "NSW",
    "lat": -33.8679575,
    "lng": 150.9591588,
    "place_id": "ChIJNWtXl4G9EmsRTioU-niSDmk",
    "maps_url": "https://www.google.com/maps/place/?q=place_id:ChIJNWtXl4G9EmsRTioU-niSDmk",
    "rating": 4.6,
    "total_ratings": 125
  },
  {
    "name": "Best Auto Service Centre",
    "address": "19 George St, Clyde",
    "suburb": "Parramatta",
    "state": "NSW",
    "lat": -33.8343137,
    "lng": 151.0171871,
    "place_id": "ChIJoduu5LejEmsRAz6pIfJz1wA",
    "maps_url": "https://www.google.com/maps/place/?q=place_id:ChIJoduu5LejEmsRAz6pIfJz1wA",
    "rating": 4.6,
    "total_ratings": 108
  },
  {
    "name": "Hills Auto Centre",
    "address": "4 Fitzwilliam Rd, Old Toongabbie",
    "suburb": "Parramatta",
    "state": "NSW",
    "lat": -33.7866298,
    "lng": 150.9726729,
    "place_id": "ChIJzXlpk2GiEmsRzT5lC6QA_As",
    "maps_url": "https://www.google.com/maps/place/?q=place_id:ChIJzXlpk2GiEmsRzT5lC6QA_As",
    "rating": 4.7,
    "total_ratings": 223
  },
  {
    "name": "Mokdassi Auto Care",
    "address": "769 The Horsley Dr, Smithfield",
    "suburb": "Parramatta",
    "state": "NSW",
    "lat": -33.8521201,
    "lng": 150.9321897,
    "place_id": "ChIJ__8_yMmXEmsRXVwaKLMXAK4",
    "maps_url": "https://www.google.com/maps/place/?q=place_id:ChIJ__8_yMmXEmsRXVwaKLMXAK4",
    "rating": 4.8,
    "total_ratings": 134
  },
  {
    "name": "A-One Auto-Motive Services",
    "address": "109 Bombay St, Lidcombe",
    "suburb": "Parramatta",
    "state": "NSW",
    "lat": -33.8526377,
    "lng": 151.0523151,
    "place_id": "ChIJ67RWcFS7EmsRBqePd3Xyn2c",
    "maps_url": "https://www.google.com/maps/place/?q=place_id:ChIJ67RWcFS7EmsRBqePd3Xyn2c",
    "rating": 4.8,
    "total_ratings": 137
  },
  {
    "name": "Oscar Auto Service Solutions",
    "address": "Unit 4/1/15 Wentworth Rd N, Homebush",
    "suburb": "Parramatta",
    "state": "NSW",
    "lat": -33.8582909,
    "lng": 151.0775177,
    "place_id": "ChIJtz73gAy7EmsREoLGVszfk2w",
    "maps_url": "https://www.google.com/maps/place/?q=place_id:ChIJtz73gAy7EmsREoLGVszfk2w",
    "rating": 4.5,
    "total_ratings": 140
  },
  {
    "name": "Parramatta Smash Repairs",
    "address": "607 Church St, North Parramatta",
    "suburb": "Parramatta",
    "state": "NSW",
    "lat": -33.7953749,
    "lng": 151.0007921,
    "place_id": "ChIJlQLTAACjEmsRIwk_YQAgGWA",
    "maps_url": "https://www.google.com/maps/place/?q=place_id:ChIJlQLTAACjEmsRIwk_YQAgGWA",
    "rating": 4.7,
    "total_ratings": 568
  },
  {
    "name": "mycar Tyre & Auto Parramatta",
    "address": "9A Aird St, Parramatta",
    "suburb": "Parramatta",
    "state": "NSW",
    "lat": -33.8174701,
    "lng": 150.9995941,
    "place_id": "ChIJd26Tm9-iEmsRVJsdbvPyMcQ",
    "maps_url": "https://www.google.com/maps/place/?q=place_id:ChIJd26Tm9-iEmsRVJsdbvPyMcQ",
    "rating": 4.7,
    "total_ratings": 1074
  },
  {
    "name": "Double J Auto Service Pty Ltd",
    "address": "D8/23-25 Windsor Rd, Northmead",
    "suburb": "Parramatta",
    "state": "NSW",
    "lat": -33.7905801,
    "lng": 150.9976123,
    "place_id": "ChIJEchcB7ijEmsRGlP3ylyWmJ0",
    "maps_url": "https://www.google.com/maps/place/?q=place_id:ChIJEchcB7ijEmsRGlP3ylyWmJ0",
    "rating": 4.1,
    "total_ratings": 14
  },
  {
    "name": "Yuni Auto Service",
    "address": "Silverwater",
    "suburb": "Parramatta",
    "state": "NSW",
    "lat": -33.8379982,
    "lng": 151.0466542,
    "place_id": "ChIJDSen-1ejEmsRHyZSXZsPpeE",
    "maps_url": "https://www.google.com/maps/place/?q=place_id:ChIJDSen-1ejEmsRHyZSXZsPpeE",
    "rating": 4.4,
    "total_ratings": 20
  },
  {
    "name": "Bosch Car Service - Advanced Car Clinic",
    "address": "196 Railway Terrace, Merrylands",
    "suburb": "Parramatta",
    "state": "NSW",
    "lat": -33.845967,
    "lng": 150.9909769,
    "place_id": "ChIJ406bHCW9EmsRE9HqmoB7n2Y",
    "maps_url": "https://www.google.com/maps/place/?q=place_id:ChIJ406bHCW9EmsRE9HqmoB7n2Y",
    "rating": 4.5,
    "total_ratings": 16
  },
  {
    "name": "One Stop Auto Repair and Technical Solution",
    "address": "Unit2/3 Britton St, Smithfield",
    "suburb": "Parramatta",
    "state": "NSW",
    "lat": -33.8454011,
    "lng": 150.9459443,
    "place_id": "ChIJq6Fw32-XEmsRdRxGlbDqDVA",
    "maps_url": "https://www.google.com/maps/place/?q=place_id:ChIJq6Fw32-XEmsRdRxGlbDqDVA",
    "rating": 5,
    "total_ratings": 12
  },
  {
    "name": "Speedy Auto Centre",
    "address": "171 Clyde St, South Granville",
    "suburb": "Parramatta",
    "state": "NSW",
    "lat": -33.8474401,
    "lng": 151.0130319,
    "place_id": "ChIJ4Uov28-8EmsRoC0C3lCSe10",
    "maps_url": "https://www.google.com/maps/place/?q=place_id:ChIJ4Uov28-8EmsRoC0C3lCSe10",
    "rating": 4.7,
    "total_ratings": 83
  },
  {
    "name": "Parramatta Vehicle Services",
    "address": "4/2 N Rocks Rd, North Parramatta",
    "suburb": "Parramatta",
    "state": "NSW",
    "lat": -33.7928344,
    "lng": 151.0008138,
    "place_id": "ChIJX5UBKaujEmsRSr4MvB7A77k",
    "maps_url": "https://www.google.com/maps/place/?q=place_id:ChIJX5UBKaujEmsRSr4MvB7A77k",
    "rating": 4.9,
    "total_ratings": 161
  },
  {
    "name": "Motorholics Car Service Blacktown",
    "address": "Unit 2/4 Anvil Rd, Seven Hills",
    "suburb": "Parramatta",
    "state": "NSW",
    "lat": -33.7777842,
    "lng": 150.9565511,
    "place_id": "ChIJ2V5Z2XiiEmsRpe8aCnZhDVU",
    "maps_url": "https://www.google.com/maps/place/?q=place_id:ChIJ2V5Z2XiiEmsRpe8aCnZhDVU",
    "rating": 4.5,
    "total_ratings": 27
  },
  {
    "name": "JSB Automotive Services",
    "address": "3/27 Amax Ave, Girraween",
    "suburb": "Parramatta",
    "state": "NSW",
    "lat": -33.8067336,
    "lng": 150.9401294,
    "place_id": "ChIJS1RSvBGYEmsRHfdRTlpqA5Y",
    "maps_url": "https://www.google.com/maps/place/?q=place_id:ChIJS1RSvBGYEmsRHfdRTlpqA5Y",
    "rating": 4.8,
    "total_ratings": 82
  },
  {
    "name": "D & D Auto Services",
    "address": "Unit 6/10 Rowood Rd, Prospect",
    "suburb": "Parramatta",
    "state": "NSW",
    "lat": -33.8010001,
    "lng": 150.9228798,
    "place_id": "ChIJT9AeqxKYEmsRqp1PH8DjiI8",
    "maps_url": "https://www.google.com/maps/place/?q=place_id:ChIJT9AeqxKYEmsRqp1PH8DjiI8",
    "rating": 4.6,
    "total_ratings": 73
  },