[
  {
    "name": "CBD Health Sydney- Osteopathy",
    "address": "Suite 305/Level 3/195 Macquarie St, Sydney NSW 2000, Australia",
    "suburb": "Sydney NSW 2000",
    "state": "NSW",
    "rating": 5,
    "reviews": 120,
    "lat": -33.8671603,
    "lng": 151.2120883,
    "place_id": "ChIJhYAIhkCuEmsRP_o9QDavYOk",
    "maps_url": "https://www.google.com/maps/place/?q=place_id:ChIJhYAIhkCuEmsRP_o9QDavYOk"
  },
  {
    "name": "Dr Clifford Avery - Sydney Osteopathic Medicine",
    "address": "Level 8, Suite 808/109 Pitt St, Sydney NSW 2000, Australia",
    "suburb": "Suite 808/109 Pitt St",
    "state": "NSW",
    "rating": 5,
    "reviews": 42,
    "lat": -33.8662303,
    "lng": 151.2081952,
    "place_id": "ChIJwaI0TECuEmsR-IiQrJAjuSw",
    "maps_url": "https://www.google.com/maps/place/?q=place_id:ChIJwaI0TECuEmsR-IiQrJAjuSw"
  },
  {
    "name": "Sydney Osteopathic Medicine",
    "address": "Level 8/109 Pitt St, Sydney NSW 2000, Australia",
    "suburb": "Sydney NSW 2000",
    "state": "NSW",
    "rating": 4.7,
    "reviews": 22,
    "lat": -33.866221,
    "lng": 151.208246,
    "place_id": "ChIJwaI0TECuEmsR8TFrFbdGaPQ",
    "maps_url": "https://www.google.com/maps/place/?q=place_id:ChIJwaI0TECuEmsR8TFrFbdGaPQ"
  },
  {
    "name": "Sydney Chiro and Osteo",
    "address": "Suite 2, Level 9/47 York St, Sydney NSW 2000, Australia",
    "suburb": "Level 9/47 York St",
    "state": "NSW",
    "rating": 5,
    "reviews": 284,
    "lat": -33.8668609,
    "lng": 151.2056453,
    "place_id": "ChIJqYxvY3YayAgR7t0nZRvux9w",
    "maps_url": "https://www.google.com/maps/place/?q=place_id:ChIJqYxvY3YayAgR7t0nZRvux9w"
  },
  {
    "name": "Quay Health Sydney CBD",
    "address": "Lvl 6/10 Bridge St, Sydney NSW 2000, Australia",
    "suburb": "Sydney NSW 2000",
    "state": "NSW",
    "rating": 4.9,
    "reviews": 387,
    "lat": -33.86341,
    "lng": 151.208165,
    "place_id": "ChIJh0f26GmuEmsRzoG68HkCPME",
    "maps_url": "https://www.google.com/maps/place/?q=place_id:ChIJh0f26GmuEmsRzoG68HkCPME"
  },
  {
    "name": "Taylor Square Osteopathy & Chiropractic",
    "address": "407 Bourke St, Surry Hills NSW 2010, Australia",
    "suburb": "Surry Hills NSW 2010",
    "state": "NSW",
    "rating": 5,
    "reviews": 225,
    "lat": -33.881605,
    "lng": 151.2162927,
    "place_id": "ChIJZ_s1HBquEmsRwTIxAiN5IaQ",
    "maps_url": "https://www.google.com/maps/place/?q=place_id:ChIJZ_s1HBquEmsRwTIxAiN5IaQ"
  },
  {
    "name": "Marquee Health Clinic",
    "address": "2/22 Market St, Sydney NSW 2000, Australia",
    "suburb": "Sydney NSW 2000",
    "state": "NSW",
    "rating": 5,
    "reviews": 23,
    "lat": -33.8706423,
    "lng": 151.205003,
    "place_id": "ChIJN8Dt0D6uEmsRDcsTvM2BT7Y",
    "maps_url": "https://www.google.com/maps/place/?q=place_id:ChIJN8Dt0D6uEmsRDcsTvM2BT7Y"
  },
  {
    "name": "OsteoLife",
    "address": "Indigo Hotel - Corporate Suites, Level 9/2-14 Kings Cross Rd, Potts Point NSW 2011, Australia",
    "suburb": "Level 9/2-14 Kings Cross Rd",
    "state": "NSW",
    "rating": 4.9,
    "reviews": 40,
    "lat": -33.8754736,
    "lng": 151.2228575,
    "place_id": "ChIJkZadmg2uEmsRUFjHag0YP_k",
    "maps_url": "https://www.google.com/maps/place/?q=place_id:ChIJkZadmg2uEmsRUFjHag0YP_k"
  },
  {
    "name": "Phil Austin: Osteopath Sydney",
    "address": "St Luke's Clinic, Hemsley House, 20 Roslyn St, Potts Point NSW 2011, Australia",
    "suburb": "Hemsley House",
    "state": "NSW",
    "rating": 5,
    "reviews": 23,
    "lat": -33.8745256,
    "lng": 151.2257484,
    "place_id": "ChIJmWaTSkCuEmsRzEUEjl7B3sc",
    "maps_url": "https://www.google.com/maps/place/?q=place_id:ChIJmWaTSkCuEmsRzEUEjl7B3sc"
  },
  {
    "name": "Central Sydney Osteopathy",
    "address": "90-92 Audley St, Petersham NSW 2049, Australia",
    "suburb": "Petersham NSW 2049",
    "state": "NSW",
    "rating": 4.9,
    "reviews": 116,
    "lat": -33.89580460000001,
    "lng": 151.1538255,
    "place_id": "ChIJIw8PNiOwEmsRjUvRpmMfWwE",
    "maps_url": "https://www.google.com/maps/place/?q=place_id:ChIJIw8PNiOwEmsRjUvRpmMfWwE"
  },
  {
    "name": "Clinic 27",
    "address": "Level 1/44 Bridge St, Sydney NSW 2000, Australia",
    "suburb": "Sydney NSW 2000",
    "state": "NSW",
    "rating": 5,
    "reviews": 217,
    "lat": -33.863226,
    "lng": 151.2109121,
    "place_id": "ChIJs5NMET-uEmsRX9PuGvmDRaY",
    "maps_url": "https://www.google.com/maps/place/?q=place_id:ChIJs5NMET-uEmsRX9PuGvmDRaY"
  },
  {
    "name": "Sydney Osteopathy",
    "address": "2 Grosvenor St, Bondi Junction NSW 2022, Australia",
    "suburb": "Bondi Junction NSW 2022",
    "state": "NSW",
    "rating": 4.9,
    "reviews": 60,
    "lat": -33.891739,
    "lng": 151.2496304,
    "place_id": "ChIJCxvGkPGtEmsR-DxOCmxeudU",
    "maps_url": "https://www.google.com/maps/place/?q=place_id:ChIJCxvGkPGtEmsR-DxOCmxeudU"
  },
  {
    "name": "Robert Fendall - Sydney CBD Osteopath",
    "address": "Suite 801, Level 8, 229/231 Macquarie St, Sydney NSW 2000, Australia",
    "suburb": "Level 8",
    "state": "NSW",
    "rating": 5,
    "reviews": 1,
    "lat": -33.8685175,
    "lng": 151.2118264,
    "place_id": "ChIJkYvb8hGvEmsRT0S6OmnT10k",
    "maps_url": "https://www.google.com/maps/place/?q=place_id:ChIJkYvb8hGvEmsRT0S6OmnT10k"
  },
  {
    "name": "Waritt Rebalance & Wellness",
    "address": "Pacific Trade Center, 226/368 Sussex St, Sydney NSW 2000, Australia",
    "suburb": "226/368 Sussex St",
    "state": "NSW",
    "rating": 5,
    "reviews": 80,
    "lat": -33.8764458,
    "lng": 151.2047273,
    "place_id": "ChIJdbw5D1yvEmsRgs7FrArRqJw",
    "maps_url": "https://www.google.com/maps/place/?q=place_id:ChIJdbw5D1yvEmsRgs7FrArRqJw"
  },
  {
    "name": "Osteopathic Health Solutions",
    "address": "2 Beattie St, Balmain NSW 2041, Australia",
    "suburb": "Balmain NSW 2041",
    "state": "NSW",
    "rating": 5,
    "reviews": 85,
    "lat": -33.8579884,
    "lng": 151.1805134,
    "place_id": "ChIJKzdc0civEmsRdyEidSb7Bdk",
    "maps_url": "https://www.google.com/maps/place/?q=place_id:ChIJKzdc0civEmsRdyEidSb7Bdk"
  },
  {
    "name": "Sydney Health Professionals",
    "address": "Suite 403, Level 4/2 Grosvenor St, Bondi Junction NSW 2022, Australia",
    "suburb": "Level 4/2 Grosvenor St",
    "state": "NSW",
    "rating": 4.8,
    "reviews": 56,
    "lat": -33.8917465,
    "lng": 151.2495997,
    "place_id": "ChIJ19xD7imuEmsRGTpSFfUc9bw",
    "maps_url": "https://www.google.com/maps/place/?q=place_id:ChIJ19xD7imuEmsRGTpSFfUc9bw"
  },
  {
    "name": "Osteopath Vince",
    "address": "Level 1/17 Randle St, Surry Hills NSW 2010, Australia",
    "suburb": "Surry Hills NSW 2010",
    "state": "NSW",
    "rating": 5,
    "reviews": 18,
    "lat": -33.8852529,
    "lng": 151.2072501,
    "place_id": "ChIJOdi5UCSvEmsRFaMMzDhliDE",
    "maps_url": "https://www.google.com/maps/place/?q=place_id:ChIJOdi5UCSvEmsRFaMMzDhliDE"
  },
  {
    "name": "Inner West Osteopathy",
    "address": "202/1 Erskineville Rd, Newtown NSW 2042, Australia",
    "suburb": "Newtown NSW 2042",
    "state": "NSW",
    "rating": 4.8,
    "reviews": 57,
    "lat": -33.8970445,
    "lng": 151.1802274,
    "place_id": "ChIJh2q51DOwEmsRueEpyJLJ_5I",
    "maps_url": "https://www.google.com/maps/place/?q=place_id:ChIJh2q51DOwEmsRueEpyJLJ_5I"
  },
  {
    "name": "Complete City Health Chiropractor Sydney",
    "address": "Level 21/31 Market St, Sydney NSW 2000, Australia",
    "suburb": "Sydney NSW 2000",
    "state": "NSW",
    "rating": 4.9,
    "reviews": 95,
    "lat": -33.8710966,
    "lng": 151.2059264,
    "place_id": "ChIJ1wPj4z6uEmsRSH_x_VxxMo8",
    "maps_url": "https://www.google.com/maps/place/?q=place_id:ChIJ1wPj4z6uEmsRSH_x_VxxMo8"
  },
  {
    "name": "Osteopathy in Bloom",
    "address": "Wellshare Level 1/17 Randle St, Surry Hills NSW 2010, Australia",
    "suburb": "Surry Hills NSW 2010",
    "state": "NSW",
    "rating": 5,
    "reviews": 8,
    "lat": -33.8852529,
    "lng": 151.2072501,
    "place_id": "ChIJX6WxA1evEmsR_PsrkNAQ5y0",
    "maps_url": "https://www.google.com/maps/place/?q=place_id:ChIJX6WxA1evEmsR_PsrkNAQ5y0"
  },
  {
    "name": "The Osteopathy Clinic",
    "address": "Level 6/150 George St, Parramatta NSW 2150, Australia",
    "suburb": "Parramatta NSW 2150",
    "state": "NSW",
    "rating": 5,
    "reviews": 16,
    "lat": -33.8143866,
    "lng": 151.0090345,
    "place_id": "ChIJ8QURxx6jEmsRbpV2RRzZJWk",
    "maps_url": "https://www.google.com/maps/place/?q=place_id:ChIJ8QURxx6jEmsRbpV2RRzZJWk"
  },
  {
    "name": "Sports Medicine Clinic Parramatta 2150",
    "address": "10 Alma St, Parramatta NSW 2150, Australia",
    "suburb": "Parramatta NSW 2150",
    "state": "NSW",
    "rating": 5,
    "reviews": 20,
    "lat": -33.8235718,
    "lng": 150.9986318,
    "place_id": "ChIJ2Sx5Lh2jEmsR3zhY8N_6SqY",
    "maps_url": "https://www.google.com/maps/place/?q=place_id:ChIJ2Sx5Lh2jEmsR3zhY8N_6SqY"
  },
  {
    "name": "Westmead Osteopathic Clinic",
    "address": "111 Hawkesbury Rd, Westmead NSW 2145, Australia",
    "suburb": "Westmead NSW 2145",
    "state": "NSW",
    "rating": 4.8,
    "reviews": 5,
    "lat": -33.8111632,
    "lng": 150.9866418,
    "place_id": "ChIJmY5BMOiiEmsRU3lO-9rl2aI",
    "maps_url": "https://www.google.com/maps/place/?q=place_id:ChIJmY5BMOiiEmsRU3lO-9rl2aI"
  },
  {
    "name": "Castle Hill Osteopathic Clinic",
    "address": "19a/7-9 Barwell Ave, Castle Hill NSW 2154, Australia",
    "suburb": "Castle Hill NSW 2154",
    "state": "NSW",
    "rating": 4.9,
    "reviews": 147,
    "lat": -33.7340628,
    "lng": 151.0024469,
    "place_id": "ChIJIxcFSwuhEmsRIFQTbfrJvBw",
    "maps_url": "https://www.google.com/maps/place/?q=place_id:ChIJIxcFSwuhEmsRIFQTbfrJvBw"
  },
  {
    "name": "Path To Health -Sydney Practitioners in Chiropractic, Naturopath/Clinical Nutrition, Osteopathy, Remedial Massage Therapy",
    "address": "66 Redbank Rd, Northmead NSW 2152, Australia",
    "suburb": "Northmead NSW 2152",
    "state": "NSW",
    "rating": 4.9,
    "reviews": 39,
    "lat": -33.7934848,
    "lng": 150.9888437,
    "place_id": "ChIJV_KPiveiEmsRPzmXy1XXGPY",
    "maps_url": "https://www.google.com/maps/place/?q=place_id:ChIJV_KPiveiEmsRPzmXy1XXGPY"
  },
  {
    "name": "Parramatta Osteopathic Care",
    "address": "25 Fennell St, Parramatta NSW 2150, Australia",
    "suburb": "Parramatta NSW 2150",
    "state": "NSW",
    "rating": null,
    "reviews": 0,
    "lat": -33.8056093,
    "lng": 151.0040956,
    "place_id": "ChIJO-Ey4AKjEmsR8hhRNH4U-Qo",
    "maps_url": "https://www.google.com/maps/place/?q=place_id:ChIJO-Ey4AKjEmsR8hhRNH4U-Qo"
  },
  {
    "name": "Newcastle Osteopathy",
    "address": "54 Stewart Ave, Hamilton East NSW 2303, Australia",
    "suburb": "Hamilton East NSW 2303",
    "state": "NSW",
    "rating": 5,
    "reviews": 49,
    "lat": -32.9292592,
    "lng": 151.7552124,
    "place_id": "ChIJibUUwjAUc2sRrH_LbVQKqpM",
    "maps_url": "https://www.google.com/maps/place/?q=place_id:ChIJibUUwjAUc2sRrH_LbVQKqpM"
  },
  {
    "name": "Elements Osteo - Newcastle",
    "address": "2 Devon St, Hamilton NSW 2300, Australia",
    "suburb": "Hamilton NSW 2300",
    "state": "NSW",
    "rating": 5,
    "reviews": 8,
    "lat": -32.9199718,
    "lng": 151.7483656,
    "place_id": "ChIJP4raaAAVc2sR1zs-aTDbxqU",
    "maps_url": "https://www.google.com/maps/place/?q=place_id:ChIJP4raaAAVc2sR1zs-aTDbxqU"
  },
  {
    "name": "AO Osteopathy",
    "address": "19 Darling St, Carrington NSW 2294, Australia",
    "suburb": "Carrington NSW 2294",
    "state": "NSW",
    "rating": 5,
    "reviews": 30,
    "lat": -32.9077035,
    "lng": 151.7684271,
    "place_id": "ChIJ-eJRDtgVc2sRYA48lt5k44Q",
    "maps_url": "https://www.google.com/maps/place/?q=place_id:ChIJ-eJRDtgVc2sRYA48lt5k44Q"
  },
  {
    "name": "Movement Improvement Clinic",
    "address": "31b Crescent Rd, Waratah NSW 2298, Australia",
    "suburb": "Waratah NSW 2298",
    "state": "NSW",
    "rating": 5,
    "reviews": 83,
    "lat": -32.9134628,
    "lng": 151.7237023,
    "place_id": "ChIJw2mTgJgVc2sR-Mr9YFrMNxk",
    "maps_url": "https://www.google.com/maps/place/?q=place_id:ChIJw2mTgJgVc2sR-Mr9YFrMNxk"
  },
  {
    "name": "Edgeworth Osteopathy",
    "address": "68 Minmi Rd, Edgeworth NSW 2285, Australia",
    "suburb": "Edgeworth NSW 2285",
    "state": "NSW",
    "rating": 5,
    "reviews": 3,
    "lat": -32.917089,
    "lng": 151.6236967,
    "place_id": "ChIJ__97G6Q-c2sRd7IUQvL43BI",
    "maps_url": "https://www.google.com/maps/place/?q=place_id:ChIJ__97G6Q-c2sRd7IUQvL43BI"
  },
  {
    "name": "Beech Health Osteopathy",
    "address": "3/6 Alma Rd, New Lambton NSW 2305, Australia",
    "suburb": "New Lambton NSW 2305",
    "state": "NSW",
    "rating": 4.9,
    "reviews": 11,
    "lat": -32.9223975,
    "lng": 151.7152064,
    "place_id": "ChIJZbeA4pIVc2sReUgkyh3vKTk",
    "maps_url": "https://www.google.com/maps/place/?q=place_id:ChIJZbeA4pIVc2sReUgkyh3vKTk"
  },
  {
    "name": "Merewether Osteopathic Clinic",
    "address": "10 James St, Merewether NSW 2291, Australia",
    "suburb": "Merewether NSW 2291",
    "state": "NSW",
    "rating": 4.5,
    "reviews": 32,
    "lat": -32.937271,
    "lng": 151.7375974,
    "place_id": "ChIJPW_WKegVc2sRpAYodPH1Ftc",
    "maps_url": "https://www.google.com/maps/place/?q=place_id:ChIJPW_WKegVc2sRpAYodPH1Ftc"
  },
  {
    "name": "Movement Matters Osteopathy",
    "address": "50 Boreas Rd, Hamilton North NSW 2292, Australia",
    "suburb": "Hamilton North NSW 2292",
    "state": "NSW",
    "rating": 5,
    "reviews": 10,
    "lat": -32.9141138,
    "lng": 151.7339832,
    "place_id": "ChIJn3vVyrQVc2sRvhUvyRzAfsw",
    "maps_url": "https://www.google.com/maps/place/?q=place_id:ChIJn3vVyrQVc2sRvhUvyRzAfsw"
  },
  {
    "name": "Charlestown Osteopathic Clinic",
    "address": "18 Smith St, Charlestown NSW 2290, Australia",
    "suburb": "Charlestown NSW 2290",
    "state": "NSW",
    "rating": 4.7,
    "reviews": 15,
    "lat": -32.9628422,
    "lng": 151.6975211,
    "place_id": "ChIJ58TXz4k9c2sRvjtvGD1s9Wg",
    "maps_url": "https://www.google.com/maps/place/?q=place_id:ChIJ58TXz4k9c2sRvjtvGD1s9Wg"
  },
  {
    "name": "Farthing Andrew",
    "address": "44 Margaret St, Mayfield East NSW 2304, Australia",
    "suburb": "Mayfield East NSW 2304",
    "state": "NSW",
    "rating": 4.8,
    "reviews": 17,
    "lat": -32.9004797,
    "lng": 151.7487788,
    "place_id": "ChIJY7Nhv-IUc2sRmVtI8YDAAjQ",
    "maps_url": "https://www.google.com/maps/place/?q=place_id:ChIJY7Nhv-IUc2sRmVtI8YDAAjQ"
  },
  {
    "name": "Lake Osteopathy",
    "address": "16 Express Cct, Marmong Point NSW 2284, Australia",
    "suburb": "Marmong Point NSW 2284",
    "state": "NSW",
    "rating": 5,
    "reviews": 6,
    "lat": -32.9877519,
    "lng": 151.6126499,
    "place_id": "ChIJocBSRHM9c2sRGO61O37v2TY",
    "maps_url": "https://www.google.com/maps/place/?q=place_id:ChIJocBSRHM9c2sRGO61O37v2TY"
  },
  {
    "name": "Bianca Oehme Osteopath",
    "address": "54 Stewart Ave, Hamilton East NSW 2303, Australia",
    "suburb": "Hamilton East NSW 2303",
    "state": "NSW",
    "rating": null,
    "reviews": 0,
    "lat": -32.9292591,
    "lng": 151.7552123,
    "place_id": "ChIJqQJLMkkUc2sRWzHTkq7jQWQ",
    "maps_url": "https://www.google.com/maps/place/?q=place_id:ChIJqQJLMkkUc2sRWzHTkq7jQWQ"
  },
  {
    "name": "Functional Lifestyle Osteopathy",
    "address": "Level 1/116 Hunter St, Newcastle NSW 2300, Australia",
    "suburb": "Newcastle NSW 2300",
    "state": "NSW",
    "rating": null,
    "reviews": 0,
    "lat": -32.9271596,
    "lng": 151.7827455,
    "place_id": "ChIJu07kkqgVc2sRjnAuZe1MqCk",
    "maps_url": "https://www.google.com/maps/place/?q=place_id:ChIJu07kkqgVc2sRjnAuZe1MqCk"
  },
  {
    "name": "Dr. Renita Woodlands",
    "address": "10 James St, Merewether NSW 2291, Australia",
    "suburb": "Merewether NSW 2291",
    "state": "NSW",
    "rating": null,
    "reviews": 0,
    "lat": -32.9372702,
    "lng": 151.73746,
    "place_id": "ChIJlzocDM8Vc2sRUxbb-pPysD8",
    "maps_url": "https://www.google.com/maps/place/?q=place_id:ChIJlzocDM8Vc2sRUxbb-pPysD8"
  },
  {
    "name": "Forma Health & Rehabilitation",
    "address": "Unit 1/7/9 Lambton Rd, Broadmeadow NSW 2292, Australia",
    "suburb": "Broadmeadow NSW 2292",
    "state": "NSW",
    "rating": 5,
    "reviews": 45,
    "lat": -32.9249102,
    "lng": 151.7360183,
    "place_id": "ChIJ18nsWbcVc2sRHCTqylPdlLI",
    "maps_url": "https://www.google.com/maps/place/?q=place_id:ChIJ18nsWbcVc2sRHCTqylPdlLI"
  },
  {
    "name": "Cultivate Newcastle",
    "address": "Level 1/116 Hunter St, Newcastle NSW 2300, Australia",
    "suburb": "Newcastle NSW 2300",
    "state": "NSW",
    "rating": 5,
    "reviews": 76,
    "lat": -32.9271596,
    "lng": 151.7827455,
    "place_id": "ChIJN8a15d6vEmsRep61QjobVRc",
    "maps_url": "https://www.google.com/maps/place/?q=place_id:ChIJN8a15d6vEmsRep61QjobVRc"
  },
  {
    "name": "Spinal Symmetry Newcastle",
    "address": "130 Glebe Rd, Merewether NSW 2291, Australia",
    "suburb": "Merewether NSW 2291",
    "state": "NSW",
    "rating": 5,
    "reviews": 1,
    "lat": -32.9382752,
    "lng": 151.7548971,
    "place_id": "ChIJ5VZ6w7oVc2sR_jM2hkdpFJs",
    "maps_url": "https://www.google.com/maps/place/?q=place_id:ChIJ5VZ6w7oVc2sR_jM2hkdpFJs"
  },
  {
    "name": "Dr Paul Sutherland",
    "address": "33 Spinnaker Ridge Way, Belmont NSW 2280, Australia",
    "suburb": "Belmont NSW 2280",
    "state": "NSW",
    "rating": 5,
    "reviews": 8,
    "lat": -33.0233953,
    "lng": 151.6526909,
    "place_id": "ChIJ83EUjQ49c2sR9AVF2F89y-I",
    "maps_url": "https://www.google.com/maps/place/?q=place_id:ChIJ83EUjQ49c2sR9AVF2F89y-I"
  },
  {
    "name": "Cameron Ross",
    "address": "6 Moani St, Eleebana NSW 2282, Australia",
    "suburb": "Eleebana NSW 2282",
    "state": "NSW",
    "rating": 4,
    "reviews": 4,
    "lat": -32.9961314,
    "lng": 151.638726,
    "place_id": "ChIJgZCxrMU8c2sR0BYJx3ObXJE",
    "maps_url": "https://www.google.com/maps/place/?q=place_id:ChIJgZCxrMU8c2sR0BYJx3ObXJE"
  },
  {
    "name": "James Morgan - Now at Edgeworth Osteopathy",
    "address": "68 Minmi Rd, Edgeworth NSW 2285, Australia",
    "suburb": "Edgeworth NSW 2285",
    "state": "NSW",
    "rating": null,
    "reviews": 0,
    "lat": -32.9170598,
    "lng": 151.6237423,
    "place_id": "ChIJHxOtx8UVc2sRJsw5nFtgZhw",
    "maps_url": "https://www.google.com/maps/place/?q=place_id:ChIJHxOtx8UVc2sRJsw5nFtgZhw"
  },
  {
    "name": "Wollongong Osteopathy",
    "address": "7/70 Market St, Wollongong NSW 2500, Australia",
    "suburb": "Wollongong NSW 2500",
    "state": "NSW",
    "rating": 5,
    "reviews": 21,
    "lat": -34.423283,
    "lng": 150.894282,
    "place_id": "ChIJQUqMQKYZE2sRFUn7B5pcssk",
    "maps_url": "https://www.google.com/maps/place/?q=place_id:ChIJQUqMQKYZE2sRFUn7B5pcssk"
  },
  {
    "name": "Osteopathic & Healthcare Clinic",
    "address": "Parq on Flinders, Suite 3/73 Flinders St, Wollongong NSW 2500, Australia",
    "suburb": "Suite 3/73 Flinders St",
    "state": "NSW",
    "rating": 4.8,
    "reviews": 29,
    "lat": -34.420523,
    "lng": 150.8931206,
    "place_id": "ChIJC-oYjqQZE2sRHKdNqAj9DCA",
    "maps_url": "https://www.google.com/maps/place/?q=place_id:ChIJC-oYjqQZE2sRHKdNqAj9DCA"
  },
  {
    "name": "Kate Tallarida Osteopath",
    "address": "Medical 1/24 Young St, Wollongong NSW 2500, Australia",
    "suburb": "Wollongong NSW 2500",
    "state": "NSW",
    "rating": 5,
    "reviews": 19,
    "lat": -34.4225425,
    "lng": 150.8903107,
    "place_id": "ChIJm_2H06UZE2sRBymZ4K_TSTY",
    "maps_url": "https://www.google.com/maps/place/?q=place_id:ChIJm_2H06UZE2sRBymZ4K_TSTY"
  },
  {
    "name": "The Clinic Osteopathy & Dry Needling",
    "address": "14/157 Crown St, Wollongong NSW 2500, Australia",
    "suburb": "Wollongong NSW 2500",
    "state": "NSW",
    "rating": 5,
    "reviews": 28,
    "lat": -34.4255185,
    "lng": 150.8953424,
    "place_id": "ChIJ3wm9-6UZE2sRgO9XylBUaoI",
    "maps_url": "https://www.google.com/maps/place/?q=place_id:ChIJ3wm9-6UZE2sRgO9XylBUaoI"
  },
  {
    "name": "Evolve Health Illawarra",
    "address": "38 Swan St, Wollongong NSW 2500, Australia",
    "suburb": "Wollongong NSW 2500",
    "state": "NSW",
    "rating": 4.8,
    "reviews": 23,
    "lat": -34.4354017,
    "lng": 150.893877,
    "place_id": "ChIJB_musfcZE2sRKD7T8e0rc08",
    "maps_url": "https://www.google.com/maps/place/?q=place_id:ChIJB_musfcZE2sRKD7T8e0rc08"
  },
  {
    "name": "Boustani Joelle",
    "address": "7/70 Market St, Wollongong NSW 2500, Australia",
    "suburb": "Wollongong NSW 2500",
    "state": "NSW",
    "rating": 5,
    "reviews": 2,
    "lat": -34.4233521,
    "lng": 150.8942955,
    "place_id": "ChIJQUqMQKYZE2sR4lEP3Edx3Lo",
    "maps_url": "https://www.google.com/maps/place/?q=place_id:ChIJQUqMQKYZE2sR4lEP3Edx3Lo"
  },
  {
    "name": "Cameron Segrave",
    "address": "7/70 Market St, Wollongong NSW 2500, Australia",
    "suburb": "Wollongong NSW 2500",
    "state": "NSW",
    "rating": 5,
    "reviews": 1,
    "lat": -34.4233521,
    "lng": 150.8942955,
    "place_id": "ChIJQUqMQKYZE2sR0q5riZfh4tc",
    "maps_url": "https://www.google.com/maps/place/?q=place_id:ChIJQUqMQKYZE2sR0q5riZfh4tc"
  },
  {
    "name": "Align Health Therapies",
    "address": "3/1 Russell St, Woonona NSW 2517, Australia",
    "suburb": "Woonona NSW 2517",
    "state": "NSW",
    "rating": 5,
    "reviews": 15,
    "lat": -34.3408632,
    "lng": 150.9076926,
    "place_id": "ChIJUaVag6wfE2sRVuPoRLZ9mfU",
    "maps_url": "https://www.google.com/maps/place/?q=place_id:ChIJUaVag6wfE2sRVuPoRLZ9mfU"
  },
  {
    "name": "The Clinic Osteopathy & Dry Needling - Dr Martin McCullock",
    "address": "14/157 Crown St, Wollongong NSW 2500, Australia",
    "suburb": "Wollongong NSW 2500",
    "state": "NSW",
    "rating": 5,
    "reviews": 1,
    "lat": -34.4255185,
    "lng": 150.8953424,
    "place_id": "ChIJs-QE_aUZE2sRH7O6anFcxh8",
    "maps_url": "https://www.google.com/maps/place/?q=place_id:ChIJs-QE_aUZE2sRH7O6anFcxh8"
  },
  {
    "name": "Central Coast Osteopath",
    "address": "Cnr Pemell Street &, Akora Rd, Wyoming NSW 2250, Australia",
    "suburb": "Akora Rd",
    "state": "NSW",
    "rating": 4.2,
    "reviews": 80,
    "lat": -33.4090768,
    "lng": 151.349073,
    "place_id": "ChIJD7NrTLnKcmsRKMHQ4gPGioY",
    "maps_url": "https://www.google.com/maps/place/?q=place_id:ChIJD7NrTLnKcmsRKMHQ4gPGioY"
  },
  {
    "name": "Coast Health Clinic",
    "address": "2 Baker St, Gosford NSW 2250, Australia",
    "suburb": "Gosford NSW 2250",
    "state": "NSW",
    "rating": 5,
    "reviews": 57,
    "lat": -33.4272787,
    "lng": 151.3407141,
    "place_id": "ChIJE4G1BhjLcmsRR24_DrVZJrs",
    "maps_url": "https://www.google.com/maps/place/?q=place_id:ChIJE4G1BhjLcmsRR24_DrVZJrs"
  },
  {
    "name": "Toowoon Bay Osteopathy and Dry Needling",
    "address": "Shop 1/85 Toowoon Bay Rd, Toowoon Bay NSW 2261, Australia",
    "suburb": "Toowoon Bay NSW 2261",
    "state": "NSW",
    "rating": 5,
    "reviews": 36,
    "lat": -33.3582183,
    "lng": 151.4960411,
    "place_id": "ChIJLYhv1W3PcmsRtSG1wdZq4aE",
    "maps_url": "https://www.google.com/maps/place/?q=place_id:ChIJLYhv1W3PcmsRtSG1wdZq4aE"
  },
  {
    "name": "Bodies in Balance Osteopathy",
    "address": "Sports Medicine, 1 Hills St, Gosford NSW 2250, Australia",
    "suburb": "1 Hills St",
    "state": "NSW",
    "rating": 5,
    "reviews": 11,
    "lat": -33.4209712,
    "lng": 151.3444889,
    "place_id": "ChIJL4aLZRjLcmsR3sTDsjPtAEs",
    "maps_url": "https://www.google.com/maps/place/?q=place_id:ChIJL4aLZRjLcmsR3sTDsjPtAEs"
  },
  {
    "name": "Pat Bourke 'Back2Health' Osteopath Central Coast",
    "address": "19 Chetwynd Rd, Erina NSW 2250, Australia",
    "suburb": "Erina NSW 2250",
    "state": "NSW",
    "rating": 5,
    "reviews": 4,
    "lat": -33.4335113,
    "lng": 151.397498,
    "place_id": "ChIJN5Mqc3fKcmsRsTOpD1uFSqw",
    "maps_url": "https://www.google.com/maps/place/?q=place_id:ChIJN5Mqc3fKcmsRsTOpD1uFSqw"
  },
  {
    "name": "Rachel Gordge RG Osteopathy at Alara Women's Health Centre",
    "address": "6 Reliance Dr, Tuggerah NSW 2259, Australia",
    "suburb": "Tuggerah NSW 2259",
    "state": "NSW",
    "rating": 5,
    "reviews": 14,
    "lat": -33.3162172,
    "lng": 151.4207034,
    "place_id": "ChIJxa8Eo5jPcmsRZcRJDdNV_zI",
    "maps_url": "https://www.google.com/maps/place/?q=place_id:ChIJxa8Eo5jPcmsRZcRJDdNV_zI"
  },
  {
    "name": "Dr. Lisa Vaughan - Osteopath",
    "address": "17 Margherita Ave, Bateau Bay NSW 2261, Australia",
    "suburb": "Bateau Bay NSW 2261",
    "state": "NSW",
    "rating": 5,
    "reviews": 2,
    "lat": -33.3808997,
    "lng": 151.4665997,
    "place_id": "ChIJLzJ5gtvIcmsRsDPKbhJwMZA",
    "maps_url": "https://www.google.com/maps/place/?q=place_id:ChIJLzJ5gtvIcmsRsDPKbhJwMZA"
  },
  {
    "name": "Triple H Osteocare | Osteopath Central Coast, Kincumber",
    "address": "3/34 Avoca Dr, Kincumber NSW 2251, Australia",
    "suburb": "Kincumber NSW 2251",
    "state": "NSW",
    "rating": 4.5,
    "reviews": 17,
    "lat": -33.4679938,
    "lng": 151.3814876,
    "place_id": "ChIJdw9kV6S1cmsR5_4Jhfwo2R4",
    "maps_url": "https://www.google.com/maps/place/?q=place_id:ChIJdw9kV6S1cmsR5_4Jhfwo2R4"
  },
  {
    "name": "Complete Health Clinic",
    "address": "Mariner's Centre of Excellence, SHOP 412/1 Bryant Dr, Tuggerah NSW 2259, Australia",
    "suburb": "SHOP 412/1 Bryant Dr",
    "state": "NSW",
    "rating": 4.5,
    "reviews": 17,
    "lat": -33.3131294,
    "lng": 151.4226531,
    "place_id": "ChIJYZzLQHnLcmsR7aDrgFHYAkk",
    "maps_url": "https://www.google.com/maps/place/?q=place_id:ChIJYZzLQHnLcmsR7aDrgFHYAkk"
  },
  {
    "name": "Health Tribe - Osteopaths & Chiropractors in Penrith",
    "address": "Shop 1/14-17 The Crescent, Penrith NSW 2750, Australia",
    "suburb": "Penrith NSW 2750",
    "state": "NSW",
    "rating": 5,
    "reviews": 122,
    "lat": -33.7525415,
    "lng": 150.7052264,
    "place_id": "ChIJh2PuHA2FEmsROe0mpiDEVKE",
    "maps_url": "https://www.google.com/maps/place/?q=place_id:ChIJh2PuHA2FEmsROe0mpiDEVKE"
  },
  {
    "name": "Penrith Osteopathy",
    "address": "30 The Crescent, Penrith NSW 2750, Australia",
    "suburb": "Penrith NSW 2750",
    "state": "NSW",
    "rating": 4.4,
    "reviews": 14,
    "lat": -33.751498,
    "lng": 150.7027601,
    "place_id": "ChIJwwksy42FEmsRgJtmfa8QQ2I",
    "maps_url": "https://www.google.com/maps/place/?q=place_id:ChIJwwksy42FEmsRgJtmfa8QQ2I"
  },
  {
    "name": "Evolution Medical Care",
    "address": "16 Castlereagh St, Penrith NSW 2750, Australia",
    "suburb": "Penrith NSW 2750",
    "state": "NSW",
    "rating": 5,
    "reviews": 855,
    "lat": -33.7555492,
    "lng": 150.6990096,
    "place_id": "ChIJU3Pv6_SFEmsRcQ_8aGvqxW8",
    "maps_url": "https://www.google.com/maps/place/?q=place_id:ChIJU3Pv6_SFEmsRcQ_8aGvqxW8"
  },
  {
    "name": "Blue Mountains Osteopathy",
    "address": "25 Bellbird Cres, Blaxland NSW 2774, Australia",
    "suburb": "Blaxland NSW 2774",
    "state": "NSW",
    "rating": 5,
    "reviews": 12,
    "lat": -33.7459693,
    "lng": 150.6252973,
    "place_id": "ChIJocE1TBd9EmsR7SVF1hSPv00",
    "maps_url": "https://www.google.com/maps/place/?q=place_id:ChIJocE1TBd9EmsR7SVF1hSPv00"
  },
  {
    "name": "Dr Daniel Hurley - Health Tribe now open in Penrith",
    "address": "Shop 1/14-17 The Crescent, Penrith NSW 2750, Australia",
    "suburb": "Penrith NSW 2750",
    "state": "NSW",
    "rating": 5,
    "reviews": 3,
    "lat": -33.7525415,
    "lng": 150.7052264,
    "place_id": "ChIJ-57Sw2mIEmsRXy4qhbmmgBk",
    "maps_url": "https://www.google.com/maps/place/?q=place_id:ChIJ-57Sw2mIEmsRXy4qhbmmgBk"
  },
  {
    "name": "Osteopathy 11",
    "address": "Suite 5, Level 3/13 Barber Ave, Kingswood NSW 2747, Australia",
    "suburb": "Level 3/13 Barber Ave",
    "state": "NSW",
    "rating": null,
    "reviews": 0,
    "lat": -33.7578344,
    "lng": 150.712253,
    "place_id": "ChIJ6XzyWIKFEmsRC2bhqesjXF4",
    "maps_url": "https://www.google.com/maps/place/?q=place_id:ChIJ6XzyWIKFEmsRC2bhqesjXF4"
  },
  {
    "name": "Back 2 Life Penrith",
    "address": "Back 2 Life, 6 Elm Terrace, Penrith CA11 7JY, UK",
    "suburb": "6 Elm Terrace",
    "state": "NSW",
    "rating": 5,
    "reviews": 18,
    "lat": 54.664764,
    "lng": -2.7566061,
    "place_id": "ChIJAQ-TWY_7fEgRZcD51jO_c-Y",
    "maps_url": "https://www.google.com/maps/place/?q=place_id:ChIJAQ-TWY_7fEgRZcD51jO_c-Y"
  },
  {
    "name": "The Wellness Practice",
    "address": "suite 205/13 Barber Ave, Kingswood NSW 2747, Australia",
    "suburb": "Kingswood NSW 2747",
    "state": "NSW",
    "rating": 4.8,
    "reviews": 45,
    "lat": -33.7577403,
    "lng": 150.7122735,
    "place_id": "ChIJUbFo8C6FEmsRZ0ydkIhZKYo",
    "maps_url": "https://www.google.com/maps/place/?q=place_id:ChIJUbFo8C6FEmsRZ0ydkIhZKYo"
  },
  {
    "name": "Nepean & Parramatta Osteopathic Care",
    "address": "14/69 York Rd, Penrith NSW 2750, Australia",
    "suburb": "Penrith NSW 2750",
    "state": "NSW",
    "rating": null,
    "reviews": 0,
    "lat": -33.7688626,
    "lng": 150.6873626,
    "place_id": "ChIJlYV_jkWPEmsRZs8837dlhKs",
    "maps_url": "https://www.google.com/maps/place/?q=place_id:ChIJlYV_jkWPEmsRZs8837dlhKs"
  },
  {
    "name": "Blacktown Osteopathy",
    "address": "21 Meath Pl, Blacktown NSW 2148, Australia",
    "suburb": "Blacktown NSW 2148",
    "state": "NSW",
    "rating": 5,
    "reviews": 1,
    "lat": -33.769267,
    "lng": 150.887301,
    "place_id": "ChIJN6ADqKGZEmsRBQzjbd4xADs",
    "maps_url": "https://www.google.com/maps/place/?q=place_id:ChIJN6ADqKGZEmsRBQzjbd4xADs"
  },
  {
    "name": "Liverpool Osteopathic Physiotherapy Clinic",
    "address": "225 Longmoor Ln, Fazakerley, Liverpool L9 0ED, UK",
    "suburb": "Fazakerley",
    "state": "NSW",
    "rating": 4.8,
    "reviews": 177,
    "lat": 53.4667009,
    "lng": -2.9497493,
    "place_id": "ChIJ6UK9TeQje0gR_EOg0k2SlE8",
    "maps_url": "https://www.google.com/maps/place/?q=place_id:ChIJ6UK9TeQje0gR_EOg0k2SlE8"
  },
  {
    "name": "Liverpool Natural Health Care",
    "address": "1 Secant St, Liverpool NSW 2170, Australia",
    "suburb": "Liverpool NSW 2170",
    "state": "NSW",
    "rating": 4.6,
    "reviews": 128,
    "lat": -33.9179035,
    "lng": 150.9211213,
    "place_id": "ChIJS3X0bfCVEmsRWQXYGSF3AXc",
    "maps_url": "https://www.google.com/maps/place/?q=place_id:ChIJS3X0bfCVEmsRWQXYGSF3AXc"
  },
  {
    "name": "Dr Adam Dabboussi (Formerly - Living Health Clinic)",
    "address": "7 Dangin Cl, Bonnyrigg NSW 2177, Australia",
    "suburb": "Bonnyrigg NSW 2177",
    "state": "NSW",
    "rating": 4.9,
    "reviews": 86,
    "lat": -33.8975997,
    "lng": 150.8937603,
    "place_id": "ChIJo2FojLuVEmsRtB8C9_3NVHQ",
    "maps_url": "https://www.google.com/maps/place/?q=place_id:ChIJo2FojLuVEmsRtB8C9_3NVHQ"
  },
  {
    "name": "Liverpool Osteopaths and Sports Injury Clinic",
    "address": "125A Ullet Rd, Liverpool L17 2AB, UK",
    "suburb": "Liverpool L17 2AB",
    "state": "NSW",
    "rating": 4.9,
    "reviews": 59,
    "lat": 53.3902991,
    "lng": -2.9311913,
    "place_id": "ChIJI4YH_nIge0gRxEwADop_2Rc",
    "maps_url": "https://www.google.com/maps/place/?q=place_id:ChIJI4YH_nIge0gRxEwADop_2Rc"
  },
  {
    "name": "Activ Therapy Liverpool - Physiotherapy & Chiropractic",
    "address": "Shop 199A Westfield Liverpool Cnr Elizabeth Street and, George St, Liverpool NSW 2170, Australia",
    "suburb": "George St",
    "state": "NSW",
    "rating": 4.8,
    "reviews": 274,
    "lat": -33.9202414,
    "lng": 150.9251686,
    "place_id": "ChIJkSxBNL-VEmsRkW4AzwT71L8",
    "maps_url": "https://www.google.com/maps/place/?q=place_id:ChIJkSxBNL-VEmsRkW4AzwT71L8"
  },
  {
    "name": "West Derby Osteopaths Liverpool",
    "address": "138 Town Row, Liverpool L12 8SN, UK",
    "suburb": "Liverpool L12 8SN",
    "state": "NSW",
    "rating": 5,
    "reviews": 21,
    "lat": 53.428858,
    "lng": -2.9028315,
    "place_id": "ChIJl5eo8eQhe0gRIWmHBvtRXaA",
    "maps_url": "https://www.google.com/maps/place/?q=place_id:ChIJl5eo8eQhe0gRIWmHBvtRXaA"
  },
  {
    "name": "Moorebank Chiropractic and Allied Health Clinic",
    "address": "25 Maddecks Ave, Moorebank NSW 2170, Australia",
    "suburb": "Moorebank NSW 2170",
    "state": "NSW",
    "rating": 4.9,
    "reviews": 105,
    "lat": -33.9340259,
    "lng": 150.9488629,
    "place_id": "ChIJBzIpuIiVEmsRdisUNokaHqM",
    "maps_url": "https://www.google.com/maps/place/?q=place_id:ChIJBzIpuIiVEmsRdisUNokaHqM"
  },
  {
    "name": "Saad Osteopathy",
    "address": "F4, 21-23 Old Hall St, Liverpool L3 9BS, UK",
    "suburb": "21-23 Old Hall St",
    "state": "NSW",
    "rating": 5,
    "reviews": 16,
    "lat": 53.408767,
    "lng": -2.9937089,
    "place_id": "ChIJo-oSWzIhe0gRmceuYCb46mg",
    "maps_url": "https://www.google.com/maps/place/?q=place_id:ChIJo-oSWzIhe0gRmceuYCb46mg"
  },
  {
    "name": "Holistic Physiotherapy",
    "address": "16/17 21 Moore St, Liverpool NSW 2170, Australia",
    "suburb": "Liverpool NSW 2170",
    "state": "NSW",
    "rating": 5,
    "reviews": 19,
    "lat": -33.9225936,
    "lng": 150.9262443,
    "place_id": "ChIJP5Sewb6VEmsROsqAXOGLEn0",
    "maps_url": "https://www.google.com/maps/place/?q=place_id:ChIJP5Sewb6VEmsROsqAXOGLEn0"
  },
  {
    "name": "Rejuvenate Healthcare Co - Osteopath Manly",
    "address": "5 Rialto Ln, Manly NSW 2095, Australia",
    "suburb": "Manly NSW 2095",
    "state": "NSW",
    "rating": 5,
    "reviews": 97,
    "lat": -33.798168,
    "lng": 151.287248,
    "place_id": "ChIJDaLJdI6rEmsRKXWgYK3zSy8",
    "maps_url": "https://www.google.com/maps/place/?q=place_id:ChIJDaLJdI6rEmsRKXWgYK3zSy8"
  },
  {
    "name": "Longevity Exercise Physiology and Personal Training - Liverpool",
    "address": "The Grove Homemaker Centre, R15 2/18 Orange Grove Rd, Liverpool NSW 2170, Australia",
    "suburb": "R15 2/18 Orange Grove Rd",
    "state": "NSW",
    "rating": 5,
    "reviews": 45,
    "lat": -33.9076,
    "lng": 150.9199199,
    "place_id": "ChIJzSVDsdGVEmsRWrq_yzBRkE4",
    "maps_url": "https://www.google.com/maps/place/?q=place_id:ChIJzSVDsdGVEmsRWrq_yzBRkE4"
  },
  {
    "name": "Revesby Chiropractic & Osteopathy Clinic",
    "address": "145 The River Rd, Revesby NSW 2212, Australia",
    "suburb": "Revesby NSW 2212",
    "state": "NSW",
    "rating": 4.9,
    "reviews": 70,
    "lat": -33.9527392,
    "lng": 151.0174291,
    "place_id": "ChIJZZT2-OW-EmsR5oQbPxm-jKo",
    "maps_url": "https://www.google.com/maps/place/?q=place_id:ChIJZZT2-OW-EmsR5oQbPxm-jKo"
  },
  {
    "name": "Hills Osteopaths",
    "address": "1A/10-12 Old Castle Hill Rd, Castle Hill NSW 2154, Australia",
    "suburb": "Castle Hill NSW 2154",
    "state": "NSW",
    "rating": 4.8,
    "reviews": 17,
    "lat": -33.7305751,
    "lng": 151.0089582,
    "place_id": "ChIJPVPDJwyhEmsRd55n9FQim1M",
    "maps_url": "https://www.google.com/maps/place/?q=place_id:ChIJPVPDJwyhEmsRd55n9FQim1M"
  },
  {
    "name": "Rejuvenate Healthcare Co",
    "address": "133/117 Old Pittwater Rd, Brookvale NSW 2100, Australia",
    "suburb": "Brookvale NSW 2100",
    "state": "NSW",
    "rating": 5,
    "reviews": 112,
    "lat": -33.7667447,
    "lng": 151.2627856,
    "place_id": "ChIJY9QLPNerEmsRacpTO-X-RPc",
    "maps_url": "https://www.google.com/maps/place/?q=place_id:ChIJY9QLPNerEmsRacpTO-X-RPc"
  },
  {
    "name": "Sally Lake - Osteopath",
    "address": "120 Smith St, Summer Hill NSW 2130, Australia",
    "suburb": "Summer Hill NSW 2130",
    "state": "NSW",
    "rating": 5,
    "reviews": 11,
    "lat": -33.892086,
    "lng": 151.1382147,
    "place_id": "ChIJBzR-JAa7EmsRl54cOmsvfOo",
    "maps_url": "https://www.google.com/maps/place/?q=place_id:ChIJBzR-JAa7EmsRl54cOmsvfOo"
  },
  {
    "name": "Andrea Hood",
    "address": "1 Centennial Dr, Campbelltown NSW 2560, Australia",
    "suburb": "Campbelltown NSW 2560",
    "state": "NSW",
    "rating": 5,
    "reviews": 1,
    "lat": -34.0735969,
    "lng": 150.8035216,
    "place_id": "ChIJ48Y3g63vEmsRCb6jtAIhRcM",
    "maps_url": "https://www.google.com/maps/place/?q=place_id:ChIJ48Y3g63vEmsRCb6jtAIhRcM"
  },
  {
    "name": "Macarthur Osteopathy",
    "address": "5/1 Centennial Dr, Campbelltown NSW 2560, Australia",
    "suburb": "Campbelltown NSW 2560",
    "state": "NSW",
    "rating": 4.3,
    "reviews": 6,
    "lat": -34.0735579,
    "lng": 150.8035461,
    "place_id": "ChIJ48Y3g63vEmsRS1it0bbipJ4",
    "maps_url": "https://www.google.com/maps/place/?q=place_id:ChIJ48Y3g63vEmsRS1it0bbipJ4"
  },
  {
    "name": "Greenacre Sports Medicine Clinic",
    "address": "56 Pandora St, Greenacre NSW 2190, Australia",
    "suburb": "Greenacre NSW 2190",
    "state": "NSW",
    "rating": 5,
    "reviews": 69,
    "lat": -33.903062,
    "lng": 151.058516,
    "place_id": "ChIJnbLp4I-7EmsRn-DSeBjLjus",
    "maps_url": "https://www.google.com/maps/place/?q=place_id:ChIJnbLp4I-7EmsRn-DSeBjLjus"
  },
  {
    "name": "Masnad Health Clinic Bankstown",
    "address": "3 Sir Joseph Banks St, Bankstown NSW 2200, Australia",
    "suburb": "Bankstown NSW 2200",
    "state": "NSW",
    "rating": 4.9,
    "reviews": 650,
    "lat": -33.914057,
    "lng": 151.039058,
    "place_id": "ChIJlb0-8A68EmsRQDy-Ulntdvg",
    "maps_url": "https://www.google.com/maps/place/?q=place_id:ChIJlb0-8A68EmsRQDy-Ulntdvg"
  },
  {
    "name": "Dr Dean Zekis",
    "address": "10/15 South Terrace, Punchbowl NSW 2196, Australia",
    "suburb": "Punchbowl NSW 2196",
    "state": "NSW",
    "rating": 4.6,
    "reviews": 7,
    "lat": -33.925429,
    "lng": 151.053663,
    "place_id": "ChIJRaLZ-vu7EmsR8sexlneGOd8",
    "maps_url": "https://www.google.com/maps/place/?q=place_id:ChIJRaLZ-vu7EmsR8sexlneGOd8"
  },
  {
    "name": "ChiroKinetix Sports Medicine Clinic",
    "address": "1/24 Restwell St, Bankstown NSW 2200, Australia",
    "suburb": "Bankstown NSW 2200",
    "state": "NSW",
    "rating": 4.9,
    "reviews": 836,
    "lat": -33.9193611,
    "lng": 151.0350494,
    "place_id": "ChIJ8cipLRu8EmsRx48qeiljNBg",
    "maps_url": "https://www.google.com/maps/place/?q=place_id:ChIJ8cipLRu8EmsRx48qeiljNBg"
  },
  {
    "name": "The Back Clinic - Chiropractor Bankstown",
    "address": "6/434 Chapel Rd, Bankstown NSW 2200, Australia",
    "suburb": "Bankstown NSW 2200",
    "state": "NSW",
    "rating": 4.8,
    "reviews": 205,
    "lat": -33.9145203,
    "lng": 151.0337297,
    "place_id": "ChIJnaBnORC8EmsRZDNM1FARoaI",
    "maps_url": "https://www.google.com/maps/place/?q=place_id:ChIJnaBnORC8EmsRZDNM1FARoaI"
  },
  {
    "name": "Ryde Natural Health Clinic",
    "address": "1/22 Blenheim Rd, North Ryde NSW 2113, Australia",
    "suburb": "North Ryde NSW 2113",
    "state": "NSW",
    "rating": 4.9,
    "reviews": 1693,
    "lat": -33.8008376,
    "lng": 151.131157,
    "place_id": "ChIJZeQCr_GlEmsRb8WjqaYrGRc",
    "maps_url": "https://www.google.com/maps/place/?q=place_id:ChIJZeQCr_GlEmsRb8WjqaYrGRc"
  },
  {
    "name": "South Terrace Health Centre",
    "address": "10/15 South Terrace, Punchbowl NSW 2196, Australia",
    "suburb": "Punchbowl NSW 2196",
    "state": "NSW",
    "rating": 4.7,
    "reviews": 50,
    "lat": -33.925493,
    "lng": 151.0535991,
    "place_id": "ChIJRaLZ-vu7EmsR4oerjmCLH8Q",
    "maps_url": "https://www.google.com/maps/place/?q=place_id:ChIJRaLZ-vu7EmsR4oerjmCLH8Q"
  },
  {
    "name": "Integrated Therapy & Fitness",
    "address": "1/302 Chapel Rd, Bankstown NSW 2200, Australia",
    "suburb": "Bankstown NSW 2200",
    "state": "NSW",
    "rating": 5,
    "reviews": 80,
    "lat": -33.9193598,
    "lng": 151.0316438,
    "place_id": "ChIJB75g8xq8EmsRXt_dXKaz1us",
    "maps_url": "https://www.google.com/maps/place/?q=place_id:ChIJB75g8xq8EmsRXt_dXKaz1us"
  },
  {
    "name": "Triumph Health",
    "address": "126 Bankstown City Plaza, Bankstown NSW 2200, Australia",
    "suburb": "Bankstown NSW 2200",
    "state": "NSW",
    "rating": 5,
    "reviews": 39,
    "lat": -33.917622,
    "lng": 151.033836,
    "place_id": "ChIJd6da6Rq8EmsR66KJ9NRzg30",
    "maps_url": "https://www.google.com/maps/place/?q=place_id:ChIJd6da6Rq8EmsR66KJ9NRzg30"
  },
  {
    "name": "Next Phase Injury Therapy",
    "address": "444 Hume Hwy, Yagoona NSW 2199, Australia",
    "suburb": "Yagoona NSW 2199",
    "state": "NSW",
    "rating": 5,
    "reviews": 294,
    "lat": -33.9075915,
    "lng": 151.0266565,
    "place_id": "ChIJ___mtBW8EmsRaB5AOwvEIx4",
    "maps_url": "https://www.google.com/maps/place/?q=place_id:ChIJ___mtBW8EmsRaB5AOwvEIx4"
  },
  {
    "name": "Bankstown Physiotherapy & Sports Injury Centre",
    "address": "68 Eldridge Rd, Bankstown NSW 2200, Australia",
    "suburb": "Bankstown NSW 2200",
    "state": "NSW",
    "rating": 4.9,
    "reviews": 330,
    "lat": -33.9321429,
    "lng": 151.0205763,
    "place_id": "ChIJuYzbe5e-EmsRklGaisdiDHY",
    "maps_url": "https://www.google.com/maps/place/?q=place_id:ChIJuYzbe5e-EmsRklGaisdiDHY"
  },
  {
    "name": "ESPR Physiotherapy",
    "address": "67 Rickard Rd, Bankstown NSW 2200, Australia",
    "suburb": "Bankstown NSW 2200",
    "state": "NSW",
    "rating": 5,
    "reviews": 165,
    "lat": -33.9142523,
    "lng": 151.0354004,
    "place_id": "ChIJuVasczS9EmsRVMG7zeboWnY",
    "maps_url": "https://www.google.com/maps/place/?q=place_id:ChIJuVasczS9EmsRVMG7zeboWnY"
  },
  {
    "name": "Sports Medicine Clinic Peakhurst 2210",
    "address": "144 Boundary Rd, Peakhurst NSW 2210, Australia",
    "suburb": "Peakhurst NSW 2210",
    "state": "NSW",
    "rating": 5,
    "reviews": 43,
    "lat": -33.961398,
    "lng": 151.0663498,
    "place_id": "ChIJdSXzQDy5EmsRb853sXPBd20",
    "maps_url": "https://www.google.com/maps/place/?q=place_id:ChIJdSXzQDy5EmsRb853sXPBd20"
  },
  {
    "name": "KT Health & Wellness",
    "address": "Shop 3/12-16 Macmahon Pl, Menai NSW 2234, Australia",
    "suburb": "Menai NSW 2234",
    "state": "NSW",
    "rating": 5,
    "reviews": 341,
    "lat": -34.015146,
    "lng": 151.0130281,
    "place_id": "ChIJZ0xeM0y_EmsRTl3AJWYN9Jc",
    "maps_url": "https://www.google.com/maps/place/?q=place_id:ChIJZ0xeM0y_EmsRTl3AJWYN9Jc"
  },
  {
    "name": "Sutherland Osteopathy",
    "address": "1 Poplar Pl, Kirrawee NSW 2232, Australia",
    "suburb": "Kirrawee NSW 2232",
    "state": "NSW",
    "rating": 5,
    "reviews": 18,
    "lat": -34.0283946,
    "lng": 151.0712224,
    "place_id": "ChIJlaRidLzltAERLfgiiKkW9XQ",
    "maps_url": "https://www.google.com/maps/place/?q=place_id:ChIJlaRidLzltAERLfgiiKkW9XQ"
  },
  {
    "name": "Zekis Osteopathic Paediatric Centre",
    "address": "15 South Terrace, Punchbowl NSW 2196, Australia",
    "suburb": "Punchbowl NSW 2196",
    "state": "NSW",
    "rating": null,
    "reviews": 0,
    "lat": -33.9254559,
    "lng": 151.0536629,
    "place_id": "ChIJe5185fu7EmsRqxCtbalAcdw",
    "maps_url": "https://www.google.com/maps/place/?q=place_id:ChIJe5185fu7EmsRqxCtbalAcdw"
  },
  {
    "name": "The Body Project",
    "address": "Level 4/6 Help St, Chatswood NSW 2067, Australia",
    "suburb": "Chatswood NSW 2067",
    "state": "NSW",
    "rating": 5,
    "reviews": 72,
    "lat": -33.7959328,
    "lng": 151.1796839,
    "place_id": "ChIJX0DY1B2pEmsREfWsWE1qR8g",
    "maps_url": "https://www.google.com/maps/place/?q=place_id:ChIJX0DY1B2pEmsREfWsWE1qR8g"
  },
  {
    "name": "Chatswood Osteopathic Back Care Clinic",
    "address": "Suite 600 Level 6/8 Help St, Chatswood NSW 2067, Australia",
    "suburb": "Chatswood NSW 2067",
    "state": "NSW",
    "rating": null,
    "reviews": 0,
    "lat": -33.7959574,
    "lng": 151.1796044,
    "place_id": "ChIJt5gpjNOoEmsRnv-TUJIIjy8",
    "maps_url": "https://www.google.com/maps/place/?q=place_id:ChIJt5gpjNOoEmsRnv-TUJIIjy8"
  },
  {
    "name": "One&All — Osteopathy, Physiotherapy, Remedial Massage",
    "address": "UNIT 5/132 Pacific Hwy, Roseville NSW 2069, Australia",
    "suburb": "Roseville NSW 2069",
    "state": "NSW",
    "rating": 5,
    "reviews": 102,
    "lat": -33.784101,
    "lng": 151.1757788,
    "place_id": "ChIJt21vWR2vEmsRfTGMZruEefw",
    "maps_url": "https://www.google.com/maps/place/?q=place_id:ChIJt21vWR2vEmsRfTGMZruEefw"
  },
  {
    "name": "The Mindful Spine Clinic Osteopath",
    "address": "208/3 Bruce St, Crows Nest NSW 2065, Australia",
    "suburb": "Crows Nest NSW 2065",
    "state": "NSW",
    "rating": 5,
    "reviews": 53,
    "lat": -33.8294216,
    "lng": 151.2013724,
    "place_id": "ChIJ3Xt64eiuEmsRqxlRJSVUzzo",
    "maps_url": "https://www.google.com/maps/place/?q=place_id:ChIJ3Xt64eiuEmsRqxlRJSVUzzo"
  },
  {
    "name": "Chatswood Allied Health | Chatswood Physiotherapy & Sports Injury Clinic",
    "address": "3a/36 Bertram St, Chatswood NSW 2067, Australia",
    "suburb": "Chatswood NSW 2067",
    "state": "NSW",
    "rating": 4.9,
    "reviews": 121,
    "lat": -33.7964034,
    "lng": 151.1863667,
    "place_id": "ChIJMTUo_dWoEmsRSSyOPCmFecY",
    "maps_url": "https://www.google.com/maps/place/?q=place_id:ChIJMTUo_dWoEmsRSSyOPCmFecY"
  },
  {
    "name": "Infinite Health",
    "address": "Suite 201, Level 2, 71/73 Archer St, Chatswood NSW 2067, Australia",
    "suburb": "Level 2",
    "state": "NSW",
    "rating": 5,
    "reviews": 578,
    "lat": -33.796083,
    "lng": 151.186073,
    "place_id": "ChIJOz7FCNaoEmsRfii3Uz9B1kg",
    "maps_url": "https://www.google.com/maps/place/?q=place_id:ChIJOz7FCNaoEmsRfii3Uz9B1kg"
  },
  {
    "name": "Movement 101 Chatswood",
    "address": "2/1A Freeman Rd, Chatswood NSW 2067, Australia",
    "suburb": "Chatswood NSW 2067",
    "state": "NSW",
    "rating": 5,
    "reviews": 154,
    "lat": -33.7999632,
    "lng": 151.1787289,
    "place_id": "ChIJTRdQK5OvEmsRRL90f4JNrqo",
    "maps_url": "https://www.google.com/maps/place/?q=place_id:ChIJTRdQK5OvEmsRRL90f4JNrqo"
  },
  {
    "name": "Topaz Health - Fiona Lovett",
    "address": "The Body Project, 4/6 Help St, Chatswood NSW 2067, Australia",
    "suburb": "4/6 Help St",
    "state": "NSW",
    "rating": 5,
    "reviews": 2,
    "lat": -33.7959328,
    "lng": 151.1796839,
    "place_id": "ChIJW_H5Jv6pEmsRcZGGNbs8_fk",
    "maps_url": "https://www.google.com/maps/place/?q=place_id:ChIJW_H5Jv6pEmsRcZGGNbs8_fk"
  },
  {
    "name": "Chatswood Physio Care, Chiropractic, Pilates, PT & Massage",
    "address": "202/24 Thomas St, Chatswood NSW 2067, Australia",
    "suburb": "Chatswood NSW 2067",
    "state": "NSW",
    "rating": 5,
    "reviews": 63,
    "lat": -33.7985727,
    "lng": 151.1793176,
    "place_id": "ChIJc9nV1OKpEmsRjNvZm5H_01w",
    "maps_url": "https://www.google.com/maps/place/?q=place_id:ChIJc9nV1OKpEmsRjNvZm5H_01w"
  },
  {
    "name": "Osteopathy Australia",
    "address": "4/11 Railway St, Chatswood NSW 2067, Australia",
    "suburb": "Chatswood NSW 2067",
    "state": "NSW",
    "rating": 4.6,
    "reviews": 5,
    "lat": -33.793725,
    "lng": 151.180298,
    "place_id": "ChIJdzTGR9GoEmsRZfvL6l0jDeY",
    "maps_url": "https://www.google.com/maps/place/?q=place_id:ChIJdzTGR9GoEmsRZfvL6l0jDeY"
  },
  {
    "name": "Welcome Health: Chiropractic and Physiotherapy",
    "address": "SHOP 26, Lemon Grove Shopping Centre, 427/441 Victoria Ave, Chatswood NSW 2067, Australia",
    "suburb": "Lemon Grove Shopping Centre",
    "state": "NSW",
    "rating": 5,
    "reviews": 256,
    "lat": -33.7960555,
    "lng": 151.1824963,
    "place_id": "ChIJr50Y7NGpEmsRmyXSdWrQaNU",
    "maps_url": "https://www.google.com/maps/place/?q=place_id:ChIJr50Y7NGpEmsRmyXSdWrQaNU"
  },
  {
    "name": "EC Health Clinic Physiotherapy and Pilates",
    "address": "Suite 20, Level 2/445 Victoria Ave, Chatswood NSW 2067, Australia",
    "suburb": "Level 2/445 Victoria Ave",
    "state": "NSW",
    "rating": 5,
    "reviews": 221,
    "lat": -33.7962801,
    "lng": 151.1818177,
    "place_id": "ChIJOShsnNaoEmsR8Xj8o4p9N1c",
    "maps_url": "https://www.google.com/maps/place/?q=place_id:ChIJOShsnNaoEmsR8Xj8o4p9N1c"
  },
  {
    "name": "Endurance Health Lab",
    "address": "24 Endeavour St, Chatswood NSW 2067, Australia",
    "suburb": "Chatswood NSW 2067",
    "state": "NSW",
    "rating": 5,
    "reviews": 51,
    "lat": -33.7955382,
    "lng": 151.1821317,
    "place_id": "ChIJKWnQJBepEmsRXK1FDDWUjWQ",
    "maps_url": "https://www.google.com/maps/place/?q=place_id:ChIJKWnQJBepEmsRXK1FDDWUjWQ"
  },
  {
    "name": "DMC Health & Wellness",
    "address": "Level 1/171 Victoria Ave, Chatswood NSW 2067, Australia",
    "suburb": "Chatswood NSW 2067",
    "state": "NSW",
    "rating": 5,
    "reviews": 50,
    "lat": -33.79258,
    "lng": 151.1943763,
    "place_id": "ChIJq6pOOumuEmsRTCFIeCfe5m0",
    "maps_url": "https://www.google.com/maps/place/?q=place_id:ChIJq6pOOumuEmsRTCFIeCfe5m0"
  },
  {
    "name": "DoT Wellness",
    "address": "Suite 82/47 Neridah St, Chatswood NSW 2067, Australia",
    "suburb": "Chatswood NSW 2067",
    "state": "NSW",
    "rating": 5,
    "reviews": 19,
    "lat": -33.7955601,
    "lng": 151.1876709,
    "place_id": "ChIJ2-x5GACpEmsR_0UItqdtbOs",
    "maps_url": "https://www.google.com/maps/place/?q=place_id:ChIJ2-x5GACpEmsR_0UItqdtbOs"
  },
  {
    "name": "Feel Amazing Wellness Centre",
    "address": "shop 10/3-9 Spring St, Chatswood NSW 2067, Australia",
    "suburb": "Chatswood NSW 2067",
    "state": "NSW",
    "rating": 4.9,
    "reviews": 62,
    "lat": -33.7968091,
    "lng": 151.1850314,
    "place_id": "ChIJRZMS8taoEmsRN1YonbQGO0E",
    "maps_url": "https://www.google.com/maps/place/?q=place_id:ChIJRZMS8taoEmsRN1YonbQGO0E"
  },
  {
    "name": "Complete Health Chiropractic",
    "address": "103/1 Spring St, Chatswood NSW 2067, Australia",
    "suburb": "Chatswood NSW 2067",
    "state": "NSW",
    "rating": 4.8,
    "reviews": 139,
    "lat": -33.797124,
    "lng": 151.185286,
    "place_id": "ChIJH34lwdWoEmsRoGr_7xYznCA",
    "maps_url": "https://www.google.com/maps/place/?q=place_id:ChIJH34lwdWoEmsRoGr_7xYznCA"
  },
  {
    "name": "Spirit Link Massage & Acupuncture Centre",
    "address": "350/1 Anderson St, Chatswood NSW 2067, Australia",
    "suburb": "Chatswood NSW 2067",
    "state": "NSW",
    "rating": 4.4,
    "reviews": 323,
    "lat": -33.7970421,
    "lng": 151.1841668,
    "place_id": "ChIJdz-zXzNbkWsRhReGU57v18M",
    "maps_url": "https://www.google.com/maps/place/?q=place_id:ChIJdz-zXzNbkWsRhReGU57v18M"
  },
  {
    "name": "The Footwork Clinic - Functional Foot Solutions & Sports Podiatry Chatswood Podiatrist, NSW",
    "address": "G Floor, Shop 251, High Park Tower, L1/813 Pacific Hwy, Chatswood NSW 2067, Australia",
    "suburb": "Shop 251",
    "state": "NSW",
    "rating": 4.9,
    "reviews": 277,
    "lat": -33.796543,
    "lng": 151.1782818,
    "place_id": "ChIJle2_VtuoEmsRwwkd0DhtGhg",
    "maps_url": "https://www.google.com/maps/place/?q=place_id:ChIJle2_VtuoEmsRwwkd0DhtGhg"
  },
  {
    "name": "Body Therapy Chiropractic",
    "address": "Suite 204/6 Help St, Chatswood NSW 2067, Australia",
    "suburb": "Chatswood NSW 2067",
    "state": "NSW",
    "rating": 5,
    "reviews": 208,
    "lat": -33.79599049999999,
    "lng": 151.179637,
    "place_id": "ChIJebfg0CypEmsRZEze2Ss7Pv8",
    "maps_url": "https://www.google.com/maps/place/?q=place_id:ChIJebfg0CypEmsRZEze2Ss7Pv8"
  },
  {
    "name": "Above Health",
    "address": "Hornsby Health Centre, Suite 707/90 George St, Hornsby NSW 2077, Australia",
    "suburb": "Suite 707/90 George St",
    "state": "NSW",
    "rating": 5,
    "reviews": 16,
    "lat": -33.7013465,
    "lng": 151.1002495,
    "place_id": "ChIJOQzkso-nEmsR03h7TAQBjIg",
    "maps_url": "https://www.google.com/maps/place/?q=place_id:ChIJOQzkso-nEmsR03h7TAQBjIg"
  },
  {
    "name": "Osteo of the Northern Beaches",
    "address": "3/307-317 Condamine St, Manly Vale NSW 2093, Australia",
    "suburb": "Manly Vale NSW 2093",
    "state": "NSW",
    "rating": 5,
    "reviews": 9,
    "lat": -33.784333,
    "lng": 151.2669109,
    "place_id": "ChIJuet31ZurEmsRO-flXlnSHu8",
    "maps_url": "https://www.google.com/maps/place/?q=place_id:ChIJuet31ZurEmsRO-flXlnSHu8"
  },
  {
    "name": "OsteoStrong Manly",
    "address": "45 Sydney Rd, Manly NSW 2095, Australia",
    "suburb": "Manly NSW 2095",
    "state": "NSW",
    "rating": 5,
    "reviews": 32,
    "lat": -33.7971334,
    "lng": 151.2856547,
    "place_id": "ChIJwwrdXX-rEmsRQJfmy_L_sDM",
    "maps_url": "https://www.google.com/maps/place/?q=place_id:ChIJwwrdXX-rEmsRQJfmy_L_sDM"
  },
  {
    "name": "Back 2 Form Osteopathy",
    "address": "Shop 1/510 Pittwater Rd, Manly NSW 2100, Australia",
    "suburb": "Manly NSW 2100",
    "state": "NSW",
    "rating": 5,
    "reviews": 8,
    "lat": -33.774758,
    "lng": 151.270573,
    "place_id": "ChIJj4Y8yxmrEmsRUuOaKQ6JUAg",
    "maps_url": "https://www.google.com/maps/place/?q=place_id:ChIJj4Y8yxmrEmsRUuOaKQ6JUAg"
  },
  {
    "name": "Manly Vale Chiropractic & Osteopathy Bret Gambrill & Stephen Barnes",
    "address": "3/307-317 Condamine St, Manly Vale NSW 2093, Australia",
    "suburb": "Manly Vale NSW 2093",
    "state": "NSW",
    "rating": 5,
    "reviews": 4,
    "lat": -33.784333,
    "lng": 151.2669108,
    "place_id": "ChIJSdTjQrKrEmsR97P7NX7rOkI",
    "maps_url": "https://www.google.com/maps/place/?q=place_id:ChIJSdTjQrKrEmsR97P7NX7rOkI"
  },
  {
    "name": "The Better Health Clinic",
    "address": "shop 4/20 Spring St, Bondi Junction NSW 2022, Australia",
    "suburb": "Bondi Junction NSW 2022",
    "state": "NSW",
    "rating": 4.9,
    "reviews": 137,
    "lat": -33.8919237,
    "lng": 151.2461517,
    "place_id": "ChIJ4fo3v_GtEmsRcCXh0aAdmLg",
    "maps_url": "https://www.google.com/maps/place/?q=place_id:ChIJ4fo3v_GtEmsRcCXh0aAdmLg"
  },
  {
    "name": "Christopher Jones Osteopath",
    "address": "809/251 Oxford St, Bondi Junction NSW 2022, Australia",
    "suburb": "Bondi Junction NSW 2022",
    "state": "NSW",
    "rating": 4.9,
    "reviews": 46,
    "lat": -33.8916472,
    "lng": 151.2523962,
    "place_id": "ChIJF10xFvGtEmsRSC3sLFgRMgM",
    "maps_url": "https://www.google.com/maps/place/?q=place_id:ChIJF10xFvGtEmsRSC3sLFgRMgM"
  },
  {
    "name": "Eastern Suburbs Osteopathy Sydney",
    "address": "Unit 603/282-290 Oxford St, Bondi Junction NSW 2022, Australia",
    "suburb": "Bondi Junction NSW 2022",
    "state": "NSW",
    "rating": 5,
    "reviews": 7,
    "lat": -33.8908192,
    "lng": 151.2450257,
    "place_id": "ChIJ8xFRefqtEmsRkuXi2bg_Rj0",
    "maps_url": "https://www.google.com/maps/place/?q=place_id:ChIJ8xFRefqtEmsRkuXi2bg_Rj0"
  },
  {
    "name": "Integrated Osteopathy",
    "address": "4 Bennett St, Bondi NSW 2026, Australia",
    "suburb": "Bondi NSW 2026",
    "state": "NSW",
    "rating": 5,
    "reviews": 13,
    "lat": -33.8940988,
    "lng": 151.2609262,
    "place_id": "ChIJ2edPt42tEmsRirfAInGEmCM",
    "maps_url": "https://www.google.com/maps/place/?q=place_id:ChIJ2edPt42tEmsRirfAInGEmCM"
  },
  {
    "name": "Dr Luke Rickards, Osteopath",
    "address": "L15, Suite 1504, Tower 1, 520 Oxford St, Bondi Junction NSW 2022, Australia",
    "suburb": "Suite 1504",
    "state": "NSW",
    "rating": 5,
    "reviews": 14,
    "lat": -33.8918597,
    "lng": 151.2508036,
    "place_id": "ChIJ-7C7JamMtAER3EZeafd-gr8",
    "maps_url": "https://www.google.com/maps/place/?q=place_id:ChIJ-7C7JamMtAER3EZeafd-gr8"
  },
  {
    "name": "Oasis Osteo",
    "address": "1/92 Glenayr Ave, North Bondi NSW 2026, Australia",
    "suburb": "North Bondi NSW 2026",
    "state": "NSW",
    "rating": 4.6,
    "reviews": 9,
    "lat": -33.8852551,
    "lng": 151.2744215,
    "place_id": "ChIJR45ScTmtEmsRFMdBZtw_HCM",
    "maps_url": "https://www.google.com/maps/place/?q=place_id:ChIJR45ScTmtEmsRFMdBZtw_HCM"
  },
  {
    "name": "Harley Place Health",
    "address": "809/251 Oxford St, Bondi Junction NSW 2022, Australia",
    "suburb": "Bondi Junction NSW 2022",
    "state": "NSW",
    "rating": 5,
    "reviews": 12,
    "lat": -33.891642,
    "lng": 151.252472,
    "place_id": "ChIJ5VakOPKtEmsRMSPisKBLsGQ",
    "maps_url": "https://www.google.com/maps/place/?q=place_id:ChIJ5VakOPKtEmsRMSPisKBLsGQ"
  },
  {
    "name": "The Movement Philosophy: Osteopathy",
    "address": "Elixr, 2C, 9 Bronte Rd, Bondi Junction NSW 2022, Australia",
    "suburb": "2C",
    "state": "NSW",
    "rating": 5,
    "reviews": 34,
    "lat": -33.8930584,
    "lng": 151.2492032,
    "place_id": "ChIJaf6_J8utEmsRoB7CboPjdnE",
    "maps_url": "https://www.google.com/maps/place/?q=place_id:ChIJaf6_J8utEmsRoB7CboPjdnE"
  },
  {
    "name": "Peter Green Osteopath",
    "address": "809/251 Oxford St, Bondi Junction NSW 2022, Australia",
    "suburb": "Bondi Junction NSW 2022",
    "state": "NSW",
    "rating": 4.6,
    "reviews": 17,
    "lat": -33.891642,
    "lng": 151.252472,
    "place_id": "ChIJwaI0TECuEmsRC0RaNxm8gZM",
    "maps_url": "https://www.google.com/maps/place/?q=place_id:ChIJwaI0TECuEmsRC0RaNxm8gZM"
  },
  {
    "name": "Daniel Turner - Osteopath",
    "address": "4/2 Grosvenor St, Bondi Junction NSW 2022, Australia",
    "suburb": "Bondi Junction NSW 2022",
    "state": "NSW",
    "rating": 5,
    "reviews": 5,
    "lat": -33.891739,
    "lng": 151.2496304,
    "place_id": "ChIJCxvGkPGtEmsRxrucNZ4e--M",
    "maps_url": "https://www.google.com/maps/place/?q=place_id:ChIJCxvGkPGtEmsRxrucNZ4e--M"
  },
  {
    "name": "KIRO PLUS",
    "address": "Suite 1801/101 Grafton St, Bondi Junction NSW 2022, Australia",
    "suburb": "Bondi Junction NSW 2022",
    "state": "NSW",
    "rating": 5,
    "reviews": 48,
    "lat": -33.8913574,
    "lng": 151.2506962,
    "place_id": "ChIJOwS4i_GtEmsRUM6CzDJr0Vw",
    "maps_url": "https://www.google.com/maps/place/?q=place_id:ChIJOwS4i_GtEmsRUM6CzDJr0Vw"
  },
  {
    "name": "Dr Tim Hulbert Osteopath",
    "address": "Harley place, Floor Eight, 809/251 Oxford St, Bondi Junction NSW 2022, Australia",
    "suburb": "Floor Eight",
    "state": "NSW",
    "rating": 5,
    "reviews": 20,
    "lat": -33.8916347,
    "lng": 151.2523396,
    "place_id": "ChIJ_2AUHfStEmsREdTdUcjVR5w",
    "maps_url": "https://www.google.com/maps/place/?q=place_id:ChIJ_2AUHfStEmsREdTdUcjVR5w"
  },
  {
    "name": "Bruce Lang Osteopath",
    "address": "Suite 403/2 Grosvenor St, Bondi Junction NSW 2022, Australia",
    "suburb": "Bondi Junction NSW 2022",
    "state": "NSW",
    "rating": 3.6,
    "reviews": 7,
    "lat": -33.8917996,
    "lng": 151.2495322,
    "place_id": "ChIJ41h-l_GtEmsRVQm8UCEaaTI",
    "maps_url": "https://www.google.com/maps/place/?q=place_id:ChIJ41h-l_GtEmsRVQm8UCEaaTI"
  },
  {
    "name": "Marcus Ng Osteopath",
    "address": "Level 8, Suite 809/251 Oxford St, Bondi Junction NSW 2022, Australia",
    "suburb": "Suite 809/251 Oxford St",
    "state": "NSW",
    "rating": 5,
    "reviews": 2,
    "lat": -33.8916555,
    "lng": 151.2524141,
    "place_id": "ChIJ44j4g4KtEmsRiplW3fQF0-Q",
    "maps_url": "https://www.google.com/maps/place/?q=place_id:ChIJ44j4g4KtEmsRiplW3fQF0-Q"
  },
  {
    "name": "Sam McCarthy Osteopath",
    "address": "shop 4/20 Spring St, Bondi Junction NSW 2022, Australia",
    "suburb": "Bondi Junction NSW 2022",
    "state": "NSW",
    "rating": 5,
    "reviews": 1,
    "lat": -33.8919237,
    "lng": 151.2461517,
    "place_id": "ChIJCczps_OuEmsRGPdvSN56RQg",
    "maps_url": "https://www.google.com/maps/place/?q=place_id:ChIJCczps_OuEmsRGPdvSN56RQg"
  },
  {
    "name": "Dan Turner Sydney Osteopathy",
    "address": "2 Grosvenor St, Bondi Junction NSW 2022, Australia",
    "suburb": "Bondi Junction NSW 2022",
    "state": "NSW",
    "rating": 5,
    "reviews": 5,
    "lat": -33.8916863,
    "lng": 151.2494698,
    "place_id": "ChIJDxUyl_GtEmsRsf2WDta3MwE",
    "maps_url": "https://www.google.com/maps/place/?q=place_id:ChIJDxUyl_GtEmsRsf2WDta3MwE"
  },
  {
    "name": "Solano Michael",
    "address": "282-290 Oxford St, Bondi Junction NSW 2022, Australia",
    "suburb": "Bondi Junction NSW 2022",
    "state": "NSW",
    "rating": 5,
    "reviews": 1,
    "lat": -33.890824,
    "lng": 151.245003,
    "place_id": "ChIJ8xFRefqtEmsRZkx__XBMmnA",
    "maps_url": "https://www.google.com/maps/place/?q=place_id:ChIJ8xFRefqtEmsRZkx__XBMmnA"
  },
  {
    "name": "George Asproukos | Osteopath Bondi Junction",
    "address": "Suite 403, Level 4/2 Grosvenor St, Bondi Junction NSW 2022, Australia",
    "suburb": "Level 4/2 Grosvenor St",
    "state": "NSW",
    "rating": 5,
    "reviews": 4,
    "lat": -33.8917465,
    "lng": 151.2495997,
    "place_id": "ChIJMwqD7imuEmsRfq0Ea3-EPo8",
    "maps_url": "https://www.google.com/maps/place/?q=place_id:ChIJMwqD7imuEmsRfq0Ea3-EPo8"
  },
  {
    "name": "Sports & Spinal Albury Wodonga (Albury clinic)",
    "address": "715 Young St, Albury NSW 2640, Australia",
    "suburb": "Albury NSW 2640",
    "state": "NSW",
    "rating": 5,
    "reviews": 189,
    "lat": -36.0705635,
    "lng": 146.9257807,
    "place_id": "ChIJZ-SZQNjhI2sRxcqiybOGabg",
    "maps_url": "https://www.google.com/maps/place/?q=place_id:ChIJZ-SZQNjhI2sRxcqiybOGabg"
  },
  {
    "name": "Kate Johnson Osteo",
    "address": "Suite 5, Level 1/490 David St, Albury NSW 2640, Australia",
    "suburb": "Level 1/490 David St",
    "state": "NSW",
    "rating": 5,
    "reviews": 6,
    "lat": -36.0819201,
    "lng": 146.921055,
    "place_id": "ChIJWb8RT5dfIWsRpAfLJ8Dh2Ls",
    "maps_url": "https://www.google.com/maps/place/?q=place_id:ChIJWb8RT5dfIWsRpAfLJ8Dh2Ls"
  },
  {
    "name": "Albury Connected Therapies",
    "address": "467 Smollett St, Albury NSW 2640, Australia",
    "suburb": "Albury NSW 2640",
    "state": "NSW",
    "rating": 5,
    "reviews": 26,
    "lat": -36.0835928,
    "lng": 146.9196703,
    "place_id": "ChIJgQwCb9jhI2sRP7VfVg2IEyY",
    "maps_url": "https://www.google.com/maps/place/?q=place_id:ChIJgQwCb9jhI2sRP7VfVg2IEyY"
  },
  {
    "name": "O-health",
    "address": "799 Mate St, North Albury NSW 2640, Australia",
    "suburb": "North Albury NSW 2640",
    "state": "NSW",
    "rating": 4.6,
    "reviews": 42,
    "lat": -36.0667152,
    "lng": 146.9304504,
    "place_id": "ChIJ6Y714SrgI2sR2jxjJzfmUgU",
    "maps_url": "https://www.google.com/maps/place/?q=place_id:ChIJ6Y714SrgI2sR2jxjJzfmUgU"
  },
  {
    "name": "Wodonga Osteopathic Clinic",
    "address": "218 Lawrence St, Wodonga VIC 3690, Australia",
    "suburb": "Wodonga VIC 3690",
    "state": "NSW",
    "rating": 5,
    "reviews": 5,
    "lat": -36.1230663,
    "lng": 146.8790843,
    "place_id": "ChIJS9rRYf9YIWsRqPS5RdRaU2s",
    "maps_url": "https://www.google.com/maps/place/?q=place_id:ChIJS9rRYf9YIWsRqPS5RdRaU2s"
  },
  {
    "name": "Sports & Spinal Albury Wodonga (Wodonga clinic)",
    "address": "Shop 2/19 South St, Wodonga VIC 3690, Australia",
    "suburb": "Wodonga VIC 3690",
    "state": "NSW",
    "rating": 4.9,
    "reviews": 70,
    "lat": -36.11837980000001,
    "lng": 146.8883747,
    "place_id": "ChIJTZIJWaZZIWsRTnqYig9W6no",
    "maps_url": "https://www.google.com/maps/place/?q=place_id:ChIJTZIJWaZZIWsRTnqYig9W6no"
  },
  {
    "name": "Inspire Health Albury",
    "address": "657 David St, Albury NSW 2640, Australia",
    "suburb": "Albury NSW 2640",
    "state": "NSW",
    "rating": 4.3,
    "reviews": 12,
    "lat": -36.0731812,
    "lng": 146.9215166,
    "place_id": "ChIJq6o-_NXhI2sRzp-md1lL5GM",
    "maps_url": "https://www.google.com/maps/place/?q=place_id:ChIJq6o-_NXhI2sRzp-md1lL5GM"
  },
  {
    "name": "John Swinton Osteopath",
    "address": "1064 Waugh Rd, North Albury NSW 2640, Australia",
    "suburb": "North Albury NSW 2640",
    "state": "NSW",
    "rating": 5,
    "reviews": 2,
    "lat": -36.0545834,
    "lng": 146.9305726,
    "place_id": "ChIJe9qsgnNsE2sR7wqi5-dNge0",
    "maps_url": "https://www.google.com/maps/place/?q=place_id:ChIJe9qsgnNsE2sR7wqi5-dNge0"
  },
  {
    "name": "Muna Osteopathy & Wellness",
    "address": "Body Compass, Unit 1/40 Morrow St, Wagga Wagga NSW 2650, Australia",
    "suburb": "Unit 1/40 Morrow St",
    "state": "NSW",
    "rating": 5,
    "reviews": 166,
    "lat": -35.1099371,
    "lng": 147.3692652,
    "place_id": "ChIJ0QIDtYGZGGsRFFrld9RkPZo",
    "maps_url": "https://www.google.com/maps/place/?q=place_id:ChIJ0QIDtYGZGGsRFFrld9RkPZo"
  },
  {
    "name": "Aleasha Ball",
    "address": "4 Tompson St, Wagga Wagga NSW 2650, Australia",
    "suburb": "Wagga Wagga NSW 2650",
    "state": "NSW",
    "rating": 5,
    "reviews": 3,
    "lat": -35.1126241,
    "lng": 147.3739987,
    "place_id": "ChIJzwKeJX-ZGGsRJIdg3OthMdc",
    "maps_url": "https://www.google.com/maps/place/?q=place_id:ChIJzwKeJX-ZGGsRJIdg3OthMdc"
  },
  {
    "name": "Inner Balance Osteopathy",
    "address": "Unit 1/150 Peel St, Tamworth NSW 2340, Australia",
    "suburb": "Tamworth NSW 2340",
    "state": "NSW",
    "rating": 5,
    "reviews": 1,
    "lat": -31.081422,
    "lng": 150.9217049,
    "place_id": "ChIJI-Qb6Y6fCmsRlaCeNfo1G3s",
    "maps_url": "https://www.google.com/maps/place/?q=place_id:ChIJI-Qb6Y6fCmsRlaCeNfo1G3s"
  },
  {
    "name": "OPH Osteopathy Tamworth",
    "address": "20 Murray St, Tamworth NSW 2340, Australia",
    "suburb": "Tamworth NSW 2340",
    "state": "NSW",
    "rating": 5,
    "reviews": 3,
    "lat": -31.0968692,
    "lng": 150.9379839,
    "place_id": "ChIJZYZMClqZCmsRDWbEZxuLj1I",
    "maps_url": "https://www.google.com/maps/place/?q=place_id:ChIJZYZMClqZCmsRDWbEZxuLj1I"
  },
  {
    "name": "Tamworth Osteopath",
    "address": "6 Churchill St, South Tamworth NSW 2340, Australia",
    "suburb": "South Tamworth NSW 2340",
    "state": "NSW",
    "rating": null,
    "reviews": 0,
    "lat": -31.1137045,
    "lng": 150.9181217,
    "place_id": "ChIJYcknjmmZCmsR7f2xLx9Epm8",
    "maps_url": "https://www.google.com/maps/place/?q=place_id:ChIJYcknjmmZCmsR7f2xLx9Epm8"
  },
  {
    "name": "Health Allies",
    "address": "8 William St, Orange NSW 2800, Australia",
    "suburb": "Orange NSW 2800",
    "state": "NSW",
    "rating": 4.1,
    "reviews": 7,
    "lat": -33.2845791,
    "lng": 149.1059023,
    "place_id": "ChIJVVVpHi3TEWsRwbQN6DizTss",
    "maps_url": "https://www.google.com/maps/place/?q=place_id:ChIJVVVpHi3TEWsRwbQN6DizTss"
  },
  {
    "name": "Osteopathy in Orange",
    "address": "Orange Arcade, 18/142 Summer St, Orange NSW 2800, Australia",
    "suburb": "18/142 Summer St",
    "state": "NSW",
    "rating": 5,
    "reviews": 1,
    "lat": -33.2833136,
    "lng": 149.096979,
    "place_id": "ChIJaekeitAsEGsRdD0skDupzcA",
    "maps_url": "https://www.google.com/maps/place/?q=place_id:ChIJaekeitAsEGsRdD0skDupzcA"
  },
  {
    "name": "Dr. Kenneth Cheeseman",
    "address": "Orange Arcade, 18/142 Summer St, Orange NSW 2800, Australia",
    "suburb": "18/142 Summer St",
    "state": "NSW",
    "rating": null,
    "reviews": 0,
    "lat": -33.283506,
    "lng": 149.096866,
    "place_id": "ChIJ34EeitAsEGsRXWElmF92z9A",
    "maps_url": "https://www.google.com/maps/place/?q=place_id:ChIJ34EeitAsEGsRXWElmF92z9A"
  },
  {
    "name": "Cultivate Health Centre Dubbo",
    "address": "3/55 Douglas Mawson Dr, Dubbo NSW 2830, Australia",
    "suburb": "Dubbo NSW 2830",
    "state": "NSW",
    "rating": 5,
    "reviews": 7,
    "lat": -32.2492845,
    "lng": 148.6457863,
    "place_id": "ChIJmagjSfNr1GoRhbajo4iNURM",
    "maps_url": "https://www.google.com/maps/place/?q=place_id:ChIJmagjSfNr1GoRhbajo4iNURM"
  },
  {
    "name": "Coffs Coast Osteopathy",
    "address": "74 Albany St, Coffs Harbour NSW 2450, Australia",
    "suburb": "Coffs Harbour NSW 2450",
    "state": "NSW",
    "rating": 5,
    "reviews": 10,
    "lat": -30.3009867,
    "lng": 153.1155814,
    "place_id": "ChIJxUpt1XcOnGsRZjltD-FzDRw",
    "maps_url": "https://www.google.com/maps/place/?q=place_id:ChIJxUpt1XcOnGsRZjltD-FzDRw"
  },
  {
    "name": "Coffs Harbour Osteopathy",
    "address": "9 Lophostemon Dr, North Boambee Valley NSW 2450, Australia",
    "suburb": "North Boambee Valley NSW 2450",
    "state": "NSW",
    "rating": 5,
    "reviews": 3,
    "lat": -30.305264,
    "lng": 153.094936,
    "place_id": "ChIJgcikKBIOnGsRwUqkUnbD-5Q",
    "maps_url": "https://www.google.com/maps/place/?q=place_id:ChIJgcikKBIOnGsRwUqkUnbD-5Q"
  },
  {
    "name": "DR CISCO SCHMETZER",
    "address": "74 Albany St, Coffs Harbour NSW 2450, Australia",
    "suburb": "Coffs Harbour NSW 2450",
    "state": "NSW",
    "rating": 5,
    "reviews": 4,
    "lat": -30.3009867,
    "lng": 153.1155814,
    "place_id": "ChIJ9TY1EtwNnGsRTEonr4VzpAw",
    "maps_url": "https://www.google.com/maps/place/?q=place_id:ChIJ9TY1EtwNnGsRTEonr4VzpAw"
  },
  {
    "name": "Back to Centre Osteopathy",
    "address": "Jetty 2450, Shop 4/30 Orlando St, Coffs Harbour NSW 2450, Australia",
    "suburb": "Shop 4/30 Orlando St",
    "state": "NSW",
    "rating": 5,
    "reviews": 10,
    "lat": -30.299735,
    "lng": 153.13824,
    "place_id": "ChIJnfTzyr4NnGsR-m8S14Yqz-A",
    "maps_url": "https://www.google.com/maps/place/?q=place_id:ChIJnfTzyr4NnGsR-m8S14Yqz-A"
  },
  {
    "name": "Claire Thompson Osteopath",
    "address": "Suite 2/69 Hickory St, Dorrigo NSW 2450, Australia",
    "suburb": "Dorrigo NSW 2450",
    "state": "NSW",
    "rating": 5,
    "reviews": 2,
    "lat": -30.339172,
    "lng": 152.7122046,
    "place_id": "ChIJEWvtKrkNnGsRrQjxZLfd_bA",
    "maps_url": "https://www.google.com/maps/place/?q=place_id:ChIJEWvtKrkNnGsRrQjxZLfd_bA"
  },
  {
    "name": "Combine Street Osteopathic Clinic",
    "address": "96 Combine St, Coffs Harbour NSW 2450, Australia",
    "suburb": "Coffs Harbour NSW 2450",
    "state": "NSW",
    "rating": null,
    "reviews": 0,
    "lat": -30.3007723,
    "lng": 153.0986136,
    "place_id": "ChIJo4aetXIOnGsRajgxWwRoO4E",
    "maps_url": "https://www.google.com/maps/place/?q=place_id:ChIJo4aetXIOnGsRajgxWwRoO4E"
  },
  {
    "name": "Back to Centre Osteopathy",
    "address": "Specialist Medical Center, Suite 12 Ground Floor/343 Pacific Hwy, Coffs Harbour NSW 2450, Australia",
    "suburb": "Suite 12 Ground Floor/343 Pacific Hwy",
    "state": "NSW",
    "rating": null,
    "reviews": 0,
    "lat": -30.316132,
    "lng": 153.092566,
    "place_id": "ChIJV1BZDBwOnGsR_hghH8IfA-Q",
    "maps_url": "https://www.google.com/maps/place/?q=place_id:ChIJV1BZDBwOnGsR_hghH8IfA-Q"
  },
  {
    "name": "Hoys Allied Health + Wellness",
    "address": "361 Harbour Dr, Coffs Harbour NSW 2450, Australia",
    "suburb": "Coffs Harbour NSW 2450",
    "state": "NSW",
    "rating": 4.9,
    "reviews": 66,
    "lat": -30.3028654,
    "lng": 153.137586,
    "place_id": "ChIJX7-HZrkNnGsRLz5zBWvst38",
    "maps_url": "https://www.google.com/maps/place/?q=place_id:ChIJX7-HZrkNnGsRLz5zBWvst38"
  },
  {
    "name": "Harris Chiropractic Coffs Harbour",
    "address": "5 Salamander St, Coffs Harbour NSW 2450, Australia",
    "suburb": "Coffs Harbour NSW 2450",
    "state": "NSW",
    "rating": 5,
    "reviews": 118,
    "lat": -30.3032671,
    "lng": 153.1204363,
    "place_id": "ChIJ02f7Kd0NnGsRMKwN676AlHg",
    "maps_url": "https://www.google.com/maps/place/?q=place_id:ChIJ02f7Kd0NnGsRMKwN676AlHg"
  },
  {
    "name": "Burke Kenneth",
    "address": "96 Combine St, Coffs Harbour NSW 2450, Australia",
    "suburb": "Coffs Harbour NSW 2450",
    "state": "NSW",
    "rating": null,
    "reviews": 0,
    "lat": -30.3007723,
    "lng": 153.0986136,
    "place_id": "ChIJo4aetXIOnGsR905R9l4b2LU",
    "maps_url": "https://www.google.com/maps/place/?q=place_id:ChIJo4aetXIOnGsR905R9l4b2LU"
  },
  {
    "name": "Port Macquarie Osteopathic Centre",
    "address": "37 Lake Rd, Port Macquarie NSW 2444, Australia",
    "suburb": "Port Macquarie NSW 2444",
    "state": "NSW",
    "rating": 5,
    "reviews": 8,
    "lat": -31.4377553,
    "lng": 152.9096516,
    "place_id": "ChIJwY9J4y__nWsRlEl1SQgLRIY",
    "maps_url": "https://www.google.com/maps/place/?q=place_id:ChIJwY9J4y__nWsRlEl1SQgLRIY"
  },
  {
    "name": "BodyIQ Osteopathy, Physiotherapy, Acupuncture, Chinese Medicine, & Pilates",
    "address": "98 Lake Rd, Port Macquarie NSW 2444, Australia",
    "suburb": "Port Macquarie NSW 2444",
    "state": "NSW",
    "rating": 5,
    "reviews": 10,
    "lat": -31.4426746,
    "lng": 152.9081682,
    "place_id": "ChIJ9_KDAzr_nWsREA7vXLSPSEY",
    "maps_url": "https://www.google.com/maps/place/?q=place_id:ChIJ9_KDAzr_nWsREA7vXLSPSEY"
  },
  {
    "name": "ONE HEALTH Centre | Osteopathy, Remedial Massage, Physiotherapy, Psychology, Psychiatry | Port Macquarie",
    "address": "1b Hastings River Dr, Port Macquarie NSW 2444, Australia",
    "suburb": "Port Macquarie NSW 2444",
    "state": "NSW",
    "rating": 4.9,
    "reviews": 28,
    "lat": -31.4343405,
    "lng": 152.9004576,
    "place_id": "ChIJ1ZE1yif_nWsRgCAPrTE9w-I",
    "maps_url": "https://www.google.com/maps/place/?q=place_id:ChIJ1ZE1yif_nWsRgCAPrTE9w-I"
  },
  {
    "name": "Port Macquarie Osteopath Kim Ritchie",
    "address": "2/64 Clarence St, Port Macquarie NSW 2444, Australia",
    "suburb": "Port Macquarie NSW 2444",
    "state": "NSW",
    "rating": 5,
    "reviews": 3,
    "lat": -31.42946499999999,
    "lng": 152.9075099,
    "place_id": "ChIJ1ZE1yif_nWsRYJSjixvWEn4",
    "maps_url": "https://www.google.com/maps/place/?q=place_id:ChIJ1ZE1yif_nWsRYJSjixvWEn4"
  },
  {
    "name": "Total Balance Osteopathy & Natural Therapies",
    "address": "2/64 Clarence St, Port Macquarie NSW 2444, Australia",
    "suburb": "Port Macquarie NSW 2444",
    "state": "NSW",
    "rating": 5,
    "reviews": 6,
    "lat": -31.4294009,
    "lng": 152.9075367,
    "place_id": "ChIJg-_Eyif_nWsRY_2Ednlk3yM",
    "maps_url": "https://www.google.com/maps/place/?q=place_id:ChIJg-_Eyif_nWsRY_2Ednlk3yM"
  },
  {
    "name": "Jaime Barry, Barry Allied Health Services Pty Ltd",
    "address": "37 Lake Rd, Port Macquarie NSW 2444, Australia",
    "suburb": "Port Macquarie NSW 2444",
    "state": "NSW",
    "rating": 5,
    "reviews": 2,
    "lat": -31.4377326,
    "lng": 152.9096284,
    "place_id": "ChIJdSnxc7H_nWsRgEeQC-mkOD8",
    "maps_url": "https://www.google.com/maps/place/?q=place_id:ChIJdSnxc7H_nWsRgEeQC-mkOD8"
  },
  {
    "name": "Dr. Matt Hempsell, Port Macquarie Osteopath, Sports Therapist, Fitness Professional, Nutrition",
    "address": "1B Hastings River Dr, Port Macquarie NSW 2444, Australia",
    "suburb": "Port Macquarie NSW 2444",
    "state": "NSW",
    "rating": null,
    "reviews": 0,
    "lat": -31.434338,
    "lng": 152.900413,
    "place_id": "ChIJ8x1OGSP_nWsR_rsFJf9o650",
    "maps_url": "https://www.google.com/maps/place/?q=place_id:ChIJ8x1OGSP_nWsR_rsFJf9o650"
  },
  {
    "name": "Coastline Chiropractic Centre",
    "address": "19 Ocean Dr, Port Macquarie NSW 2444, Australia",
    "suburb": "Port Macquarie NSW 2444",
    "state": "NSW",
    "rating": 4.9,
    "reviews": 83,
    "lat": -31.4363995,
    "lng": 152.900105,
    "place_id": "ChIJLUZdKSP_nWsRpXKkONZFHwc",
    "maps_url": "https://www.google.com/maps/place/?q=place_id:ChIJLUZdKSP_nWsRpXKkONZFHwc"
  },
  {
    "name": "Port Macquarie Sports Medicine Centre",
    "address": "21 Gore St, Port Macquarie NSW 2444, Australia",
    "suburb": "Port Macquarie NSW 2444",
    "state": "NSW",
    "rating": 5,
    "reviews": 63,
    "lat": -31.4339139,
    "lng": 152.9022907,
    "place_id": "ChIJowUnsUv_nWsRdM8Xpp2AWCo",
    "maps_url": "https://www.google.com/maps/place/?q=place_id:ChIJowUnsUv_nWsRdM8Xpp2AWCo"
  },
  {
    "name": "Rob Southwood",
    "address": "112 Hindman St, Port Macquarie NSW 2444, Australia",
    "suburb": "Port Macquarie NSW 2444",
    "state": "NSW",
    "rating": null,
    "reviews": 0,
    "lat": -31.4436591,
    "lng": 152.8959314,
    "place_id": "ChIJpzMkbBX_nWsRan2E6mBeGUo",
    "maps_url": "https://www.google.com/maps/place/?q=place_id:ChIJpzMkbBX_nWsRan2E6mBeGUo"
  },
  {
    "name": "Lismore Osteopathy",
    "address": "3/15 Woodlark St, Lismore NSW 2480, Australia",
    "suburb": "Lismore NSW 2480",
    "state": "NSW",
    "rating": 5,
    "reviews": 11,
    "lat": -28.8070143,
    "lng": 153.2776283,
    "place_id": "ChIJN4OpOImdkGsRu5rR_z7kJoA",
    "maps_url": "https://www.google.com/maps/place/?q=place_id:ChIJN4OpOImdkGsRu5rR_z7kJoA"
  },
  {
    "name": "Evolve Osteopathy Lismore",
    "address": "401 Dunoon Rd, Tullera NSW 2480, Australia",
    "suburb": "Tullera NSW 2480",
    "state": "NSW",
    "rating": 5,
    "reviews": 41,
    "lat": -28.769253,
    "lng": 153.291486,
    "place_id": "ChIJ09VENJefkGsRUTVrPr71F74",
    "maps_url": "https://www.google.com/maps/place/?q=place_id:ChIJ09VENJefkGsRUTVrPr71F74"
  },
  {
    "name": "Hinterland Osteopathy and Allied Health",
    "address": "32 Molesworth St, Lismore NSW 2480, Australia",
    "suburb": "Lismore NSW 2480",
    "state": "NSW",
    "rating": 5,
    "reviews": 15,
    "lat": -28.8054329,
    "lng": 153.2786944,
    "place_id": "ChIJJZSZ4lWJkGsRECcR6hIWZRc",
    "maps_url": "https://www.google.com/maps/place/?q=place_id:ChIJJZSZ4lWJkGsRECcR6hIWZRc"
  },
  {
    "name": "Osteo with Izzy",
    "address": "39 Woodlark St, Lismore NSW 2480, Australia",
    "suburb": "Lismore NSW 2480",
    "state": "NSW",
    "rating": 5,
    "reviews": 4,
    "lat": -28.8073388,
    "lng": 153.2780472,
    "place_id": "ChIJU4Oy8bifkGsRQqntKDUf3KE",
    "maps_url": "https://www.google.com/maps/place/?q=place_id:ChIJU4Oy8bifkGsRQqntKDUf3KE"
  },
  {
    "name": "Bluefern Osteopathy",
    "address": "1 Club Ln, Lismore NSW 2480, Australia",
    "suburb": "Lismore NSW 2480",
    "state": "NSW",
    "rating": 5,
    "reviews": 8,
    "lat": -28.80747869999999,
    "lng": 153.2760238,
    "place_id": "ChIJAQcMBDSfkGsRWm7BAKsGnUE",
    "maps_url": "https://www.google.com/maps/place/?q=place_id:ChIJAQcMBDSfkGsRWm7BAKsGnUE"
  },
  {
    "name": "Olé Wellness",
    "address": "Shop 7/21 Conway St, Lismore NSW 2480, Australia",
    "suburb": "Lismore NSW 2480",
    "state": "NSW",
    "rating": 4.9,
    "reviews": 208,
    "lat": -28.8113581,
    "lng": 153.2753497,
    "place_id": "ChIJT2wmWnOxEmsRRurgxwJClao",
    "maps_url": "https://www.google.com/maps/place/?q=place_id:ChIJT2wmWnOxEmsRRurgxwJClao"
  },
  {
    "name": "Dr Laurence Axtens (Osteopath)",
    "address": "6 Slater St, Lismore NSW 2480, Australia",
    "suburb": "Lismore NSW 2480",
    "state": "NSW",
    "rating": 5,
    "reviews": 2,
    "lat": -28.79827199999999,
    "lng": 153.274999,
    "place_id": "ChIJNQqAHQOekGsRYBMgVLjNmv0",
    "maps_url": "https://www.google.com/maps/place/?q=place_id:ChIJNQqAHQOekGsRYBMgVLjNmv0"
  },
  {
    "name": "Balanced Bodies Osteopathy",
    "address": "Goonellabah Business Hub, 6/8 Slade St, Goonellabah NSW 2480, Australia",
    "suburb": "6/8 Slade St",
    "state": "NSW",
    "rating": 5,
    "reviews": 7,
    "lat": -28.817882,
    "lng": 153.3472459,
    "place_id": "ChIJl3WhARyekGsRY0csd2C6Qg4",
    "maps_url": "https://www.google.com/maps/place/?q=place_id:ChIJl3WhARyekGsRY0csd2C6Qg4"
  },
  {
    "name": "The Heights Osteopathy",
    "address": "293 Rosebank Rd, Rosebank NSW 2480, Australia",
    "suburb": "Rosebank NSW 2480",
    "state": "NSW",
    "rating": 5,
    "reviews": 3,
    "lat": -28.6823286,
    "lng": 153.3863311,
    "place_id": "ChIJbXuy5SOfkGsRkbDeLTvvV7I",
    "maps_url": "https://www.google.com/maps/place/?q=place_id:ChIJbXuy5SOfkGsRkbDeLTvvV7I"
  },
  {
    "name": "Northern Rivers Health - GOONELLABAH - Osteopathy, Massage, Myotherapy, Decongestive Lymphatic Therapy",
    "address": "Goonellabah Medical Centre, 616 Ballina Rd, Goonellabah NSW 2480, Australia",
    "suburb": "616 Ballina Rd",
    "state": "NSW",
    "rating": 5,
    "reviews": 4,
    "lat": -28.8174208,
    "lng": 153.324722,
    "place_id": "ChIJDQ1S2MGdkGsRaqe3cm7s_B4",
    "maps_url": "https://www.google.com/maps/place/?q=place_id:ChIJDQ1S2MGdkGsRaqe3cm7s_B4"
  },
  {
    "name": "Jenssen-Clare Sue",
    "address": "95 Molesworth St, Lismore NSW 2480, Australia",
    "suburb": "Lismore NSW 2480",
    "state": "NSW",
    "rating": 5,
    "reviews": 1,
    "lat": -28.8081531,
    "lng": 153.2760238,
    "place_id": "ChIJR5Nm6BiekGsRmHHpK5Qw3U8",
    "maps_url": "https://www.google.com/maps/place/?q=place_id:ChIJR5Nm6BiekGsRmHHpK5Qw3U8"
  },
  {
    "name": "Body In Health Osteopathy",
    "address": "791 Ballina Rd, Goonellabah NSW 2480, Australia",
    "suburb": "Goonellabah NSW 2480",
    "state": "NSW",
    "rating": 5,
    "reviews": 2,
    "lat": -28.8125579,
    "lng": 153.3452368,
    "place_id": "ChIJIZPgC0WdkGsRSINMRWowcdk",
    "maps_url": "https://www.google.com/maps/place/?q=place_id:ChIJIZPgC0WdkGsRSINMRWowcdk"
  },
  {
    "name": "Alstonville Osteopathy - Goonellabah",
    "address": "612 Ballina Rd, Goonellabah NSW 2480, Australia",
    "suburb": "Goonellabah NSW 2480",
    "state": "NSW",
    "rating": 4.5,
    "reviews": 2,
    "lat": -28.8173491,
    "lng": 153.3239603,
    "place_id": "ChIJDYPVTAadkGsRTsXlkIlN88c",
    "maps_url": "https://www.google.com/maps/place/?q=place_id:ChIJDYPVTAadkGsRTsXlkIlN88c"
  },
  {
    "name": "Cynamon Thomas Osteopath & Naturopath",
    "address": "9 Somerville Ave, East Lismore NSW 2480, Australia",
    "suburb": "East Lismore NSW 2480",
    "state": "NSW",
    "rating": null,
    "reviews": 0,
    "lat": -28.8209146,
    "lng": 153.2928309,
    "place_id": "ChIJ02VPfRSfkGsRw55sBcKHCYw",
    "maps_url": "https://www.google.com/maps/place/?q=place_id:ChIJ02VPfRSfkGsRw55sBcKHCYw"
  },
  {
    "name": "Chiaki Sakurai Osteopathy",
    "address": "Shop 7/21 Conway St, Lismore NSW 2480, Australia",
    "suburb": "Lismore NSW 2480",
    "state": "NSW",
    "rating": 5,
    "reviews": 4,
    "lat": -28.8112243,
    "lng": 153.2751269,
    "place_id": "ChIJ-bh73FqJkGsR3BnrmK8fZk0",
    "maps_url": "https://www.google.com/maps/place/?q=place_id:ChIJ-bh73FqJkGsR3BnrmK8fZk0"
  },
  {
    "name": "Betty McKew Osteopath",
    "address": "32 Molesworth St, Lismore NSW 2480, Australia",
    "suburb": "Lismore NSW 2480",
    "state": "NSW",
    "rating": null,
    "reviews": 0,
    "lat": -28.8054329,
    "lng": 153.2786944,
    "place_id": "ChIJ8-yTnQuJkGsRMSUru45ZUHk",
    "maps_url": "https://www.google.com/maps/place/?q=place_id:ChIJ8-yTnQuJkGsRMSUru45ZUHk"
  },
  {
    "name": "Chiaki Sakurai Osteopathy (at Olé Wellness)",
    "address": "21 Conway St, Lismore NSW 2480, Australia",
    "suburb": "Lismore NSW 2480",
    "state": "NSW",
    "rating": null,
    "reviews": 0,
    "lat": -28.8111273,
    "lng": 153.2750334,
    "place_id": "ChIJ7bOQB6yfkGsRnNU4VGSG2m8",
    "maps_url": "https://www.google.com/maps/place/?q=place_id:ChIJ7bOQB6yfkGsRnNU4VGSG2m8"
  },
  {
    "name": "Ballina Movement Lab",
    "address": "162/164 River St, Ballina NSW 2478, Australia",
    "suburb": "Ballina NSW 2478",
    "state": "NSW",
    "rating": 5,
    "reviews": 28,
    "lat": -28.8705643,
    "lng": 153.5595843,
    "place_id": "ChIJY7kawNyBkGsRheUq58NEYzY",
    "maps_url": "https://www.google.com/maps/place/?q=place_id:ChIJY7kawNyBkGsRheUq58NEYzY"
  },
  {
    "name": "Ballina Lifestyle Osteopathy",
    "address": "109 Cherry St, Ballina NSW 2478, Australia",
    "suburb": "Ballina NSW 2478",
    "state": "NSW",
    "rating": 5,
    "reviews": 12,
    "lat": -28.8613827,
    "lng": 153.5669186,
    "place_id": "ChIJe-NbpNeBkGsRjHN2S-toYN4",
    "maps_url": "https://www.google.com/maps/place/?q=place_id:ChIJe-NbpNeBkGsRjHN2S-toYN4"
  },
  {
    "name": "Ballina Osteopathic Centre",
    "address": "suite1/243 River St, Ballina NSW 2478, Australia",
    "suburb": "Ballina NSW 2478",
    "state": "NSW",
    "rating": 5,
    "reviews": 21,
    "lat": -28.8688192,
    "lng": 153.5567585,
    "place_id": "ChIJj8eLASKAkGsRabsVZzc-UkU",
    "maps_url": "https://www.google.com/maps/place/?q=place_id:ChIJj8eLASKAkGsRabsVZzc-UkU"
  },
  {
    "name": "Foundation Health Osteopathy",
    "address": "2/44 Links Ave, East Ballina NSW 2478, Australia",
    "suburb": "East Ballina NSW 2478",
    "state": "NSW",
    "rating": 5,
    "reviews": 27,
    "lat": -28.8507873,
    "lng": 153.583257,
    "place_id": "ChIJUTtMAtl_kGsRNu2fm7q2Ato",
    "maps_url": "https://www.google.com/maps/place/?q=place_id:ChIJUTtMAtl_kGsRNu2fm7q2Ato"
  },
  {
    "name": "Foundation Health Osteopathy | Ballina",
    "address": "39 River St, Ballina NSW 2478, Australia",
    "suburb": "Ballina NSW 2478",
    "state": "NSW",
    "rating": 5,
    "reviews": 11,
    "lat": -28.8715241,
    "lng": 153.5632507,
    "place_id": "ChIJ8z8V4JqBkGsRLr5MCZF7aPQ",
    "maps_url": "https://www.google.com/maps/place/?q=place_id:ChIJ8z8V4JqBkGsRLr5MCZF7aPQ"
  },
  {
    "name": "Fluid Motion Osteopathy Ballina",
    "address": "Shop 3/35 Fawcett St, Ballina NSW 2478, Australia",
    "suburb": "Ballina NSW 2478",
    "state": "NSW",
    "rating": 4.9,
    "reviews": 45,
    "lat": -28.8713287,
    "lng": 153.5607855,
    "place_id": "ChIJk2TyFcCBkGsR-t0q9RP0-Gs",
    "maps_url": "https://www.google.com/maps/place/?q=place_id:ChIJk2TyFcCBkGsR-t0q9RP0-Gs"
  },
  {
    "name": "Riverside Wellness Centre",
    "address": "5/243 River St, Ballina NSW 2478, Australia",
    "suburb": "Ballina NSW 2478",
    "state": "NSW",
    "rating": 5,
    "reviews": 3,
    "lat": -28.8688192,
    "lng": 153.5567585,
    "place_id": "ChIJlwfMCbyBkGsR8SSSm2Vb_dA",
    "maps_url": "https://www.google.com/maps/place/?q=place_id:ChIJlwfMCbyBkGsR8SSSm2Vb_dA"
  },
  {
    "name": "North Coast Head Neck & Jaw Centre",
    "address": "32 Tamar St, Ballina NSW 2478, Australia",
    "suburb": "Ballina NSW 2478",
    "state": "NSW",
    "rating": 5,
    "reviews": 13,
    "lat": -28.8713108,
    "lng": 153.5650044,
    "place_id": "ChIJuXEdh6WBkGsRAzrfj9zxxu0",
    "maps_url": "https://www.google.com/maps/place/?q=place_id:ChIJuXEdh6WBkGsRAzrfj9zxxu0"
  },
  {
    "name": "Kentro Health",
    "address": "18 Cherry St, Ballina NSW 2478, Australia",
    "suburb": "Ballina NSW 2478",
    "state": "NSW",
    "rating": 5,
    "reviews": 6,
    "lat": -28.8701834,
    "lng": 153.5614611,
    "place_id": "ChIJCzyJFlyBkGsRi5gApZ53Du4",
    "maps_url": "https://www.google.com/maps/place/?q=place_id:ChIJCzyJFlyBkGsRi5gApZ53Du4"
  },
  {
    "name": "Habit Osteopathy",
    "address": "162 River St, Ballina NSW 2478, Australia",
    "suburb": "Ballina NSW 2478",
    "state": "NSW",
    "rating": null,
    "reviews": 0,
    "lat": -28.8705752,
    "lng": 153.55959,
    "place_id": "ChIJ3fzyF6OBkGsRToiIX9v--sU",
    "maps_url": "https://www.google.com/maps/place/?q=place_id:ChIJ3fzyF6OBkGsRToiIX9v--sU"
  },
  {
    "name": "Dr Stina Wangqvist Osteopath",
    "address": "17 Tara Downs, Lennox Head NSW 2478, Australia",
    "suburb": "Lennox Head NSW 2478",
    "state": "NSW",
    "rating": 5,
    "reviews": 27,
    "lat": -28.8185912,
    "lng": 153.5867663,
    "place_id": "ChIJBTF8wNN_kGsRy1A0GAnU53Y",
    "maps_url": "https://www.google.com/maps/place/?q=place_id:ChIJBTF8wNN_kGsRy1A0GAnU53Y"
  },
  {
    "name": "Northern Rivers Health - LENNOX HEAD - Osteopathy, Massage, Naturopathy, Kinesiology & Infrared Sauna",
    "address": "Unit 9/90-92 Ballina St, Lennox Head NSW 2478, Australia",
    "suburb": "Lennox Head NSW 2478",
    "state": "NSW",
    "rating": 5,
    "reviews": 26,
    "lat": -28.7943144,
    "lng": 153.5935945,
    "place_id": "ChIJzbovn4J9kGsRwR1-FimgdlQ",
    "maps_url": "https://www.google.com/maps/place/?q=place_id:ChIJzbovn4J9kGsRwR1-FimgdlQ"
  },
  {
    "name": "Dr Dean Hardy, Osteopath",
    "address": "Unit 2/23 Byron St, Lennox Head NSW 2478, Australia",
    "suburb": "Lennox Head NSW 2478",
    "state": "NSW",
    "rating": 5,
    "reviews": 5,
    "lat": -28.7936748,
    "lng": 153.5914945,
    "place_id": "ChIJxx92Of19kGsRCy8VsZtG1xw",
    "maps_url": "https://www.google.com/maps/place/?q=place_id:ChIJxx92Of19kGsRCy8VsZtG1xw"
  },
  {
    "name": "Dr Jo Meon Osteopath",
    "address": "Shop 3/35 Fawcett St, Ballina NSW 2478, Australia",
    "suburb": "Ballina NSW 2478",
    "state": "NSW",
    "rating": null,
    "reviews": 0,
    "lat": -28.8715172,
    "lng": 153.5608063,
    "place_id": "ChIJ8Xu8-Rr1kGsRKbKBejN8ahc",
    "maps_url": "https://www.google.com/maps/place/?q=place_id:ChIJ8Xu8-Rr1kGsRKbKBejN8ahc"
  },
  {
    "name": "Coolangatta-Tweed Osteopathy",
    "address": "3/29 Boyd St, Tweed Heads NSW 2485, Australia",
    "suburb": "Tweed Heads NSW 2485",
    "state": "NSW",
    "rating": 5,
    "reviews": 95,
    "lat": -28.1778358,
    "lng": 153.5395105,
    "place_id": "ChIJEZECBS8AkWsRiJVx2dfu_Wc",
    "maps_url": "https://www.google.com/maps/place/?q=place_id:ChIJEZECBS8AkWsRiJVx2dfu_Wc"
  },
  {
    "name": "Aspire Osteopathy - Tweed Heads South",
    "address": "Unit5, 39/41 Corporation Cct, Tweed Heads South NSW 2486, Australia",
    "suburb": "39/41 Corporation Cct",
    "state": "NSW",
    "rating": 4.9,
    "reviews": 57,
    "lat": -28.2078007,
    "lng": 153.537778,
    "place_id": "ChIJNxCcSrL_kGsRV8pcHtD4cgI",
    "maps_url": "https://www.google.com/maps/place/?q=place_id:ChIJNxCcSrL_kGsRV8pcHtD4cgI"
  },
  {
    "name": "Move Easy Health Studio Tweed Heads",
    "address": "67B Minjungbal Dr, Tweed Heads South NSW 2486, Australia",
    "suburb": "Tweed Heads South NSW 2486",
    "state": "NSW",
    "rating": 5,
    "reviews": 91,
    "lat": -28.1940082,
    "lng": 153.5415086,
    "place_id": "ChIJJdXbBzX_kGsRu8-ImqtIFg0",
    "maps_url": "https://www.google.com/maps/place/?q=place_id:ChIJJdXbBzX_kGsRu8-ImqtIFg0"
  },
  {
    "name": "Medela Osteopathy & Co",
    "address": "Unit 9/69 Wharf St, Tweed Heads NSW 2485, Australia",
    "suburb": "Tweed Heads NSW 2485",
    "state": "NSW",
    "rating": 5,
    "reviews": 124,
    "lat": -28.1726101,
    "lng": 153.5422306,
    "place_id": "ChIJNz0li2oBkWsRho2AkfgTABU",
    "maps_url": "https://www.google.com/maps/place/?q=place_id:ChIJNz0li2oBkWsRho2AkfgTABU"
  },
  {
    "name": "LivMotus Physiotherapy & Osteopathy",
    "address": "4/24 Minjungbal Dr, Tweed Heads South NSW 2486, Australia",
    "suburb": "Tweed Heads South NSW 2486",
    "state": "NSW",
    "rating": 5,
    "reviews": 43,
    "lat": -28.1979557,
    "lng": 153.5440219,
    "place_id": "ChIJdeWsisj_kGsRmyzd9qtiGIE",
    "maps_url": "https://www.google.com/maps/place/?q=place_id:ChIJdeWsisj_kGsRmyzd9qtiGIE"
  },
  {
    "name": "Life in Motion Osteopathy",
    "address": "Corporate House 25 &, 26/8 Corporation Cct, Tweed Heads South NSW 2486, Australia",
    "suburb": "26/8 Corporation Cct",
    "state": "NSW",
    "rating": 5,
    "reviews": 4,
    "lat": -28.2063539,
    "lng": 153.5384296,
    "place_id": "ChIJKUInwrP_kGsRxZrGQrBDw-w",
    "maps_url": "https://www.google.com/maps/place/?q=place_id:ChIJKUInwrP_kGsRxZrGQrBDw-w"
  },
  {
    "name": "The health trek clinic - Stacey Townsend Osteopath",
    "address": "4/40 Machinery Dr, Tweed Heads South NSW 2486, Australia",
    "suburb": "Tweed Heads South NSW 2486",
    "state": "NSW",
    "rating": 5,
    "reviews": 2,
    "lat": -28.2048843,
    "lng": 153.5422084,
    "place_id": "ChIJe019ytv_kGsRdGDH8HyoD5k",
    "maps_url": "https://www.google.com/maps/place/?q=place_id:ChIJe019ytv_kGsRdGDH8HyoD5k"
  },
  {
    "name": "Kingscliff Osteopathy & Rehabilitation",
    "address": "Shop 1 & 2, Doctors, 22-24 Pearl St, Kingscliff NSW 2487, Australia",
    "suburb": "Doctors",
    "state": "NSW",
    "rating": 5,
    "reviews": 32,
    "lat": -28.2565919,
    "lng": 153.5754831,
    "place_id": "ChIJidEfihP_kGsR-IjsLWgXwKo",
    "maps_url": "https://www.google.com/maps/place/?q=place_id:ChIJidEfihP_kGsR-IjsLWgXwKo"
  },
  {
    "name": "Coastal Therapies",
    "address": "2/47 Tweed Coast Rd, Cabarita Beach NSW 2488, Australia",
    "suburb": "Cabarita Beach NSW 2488",
    "state": "NSW",
    "rating": 5,
    "reviews": 63,
    "lat": -28.3322717,
    "lng": 153.5693864,
    "place_id": "ChIJFzXB9m34kGsRzjFRbPuQSic",
    "maps_url": "https://www.google.com/maps/place/?q=place_id:ChIJFzXB9m34kGsRzjFRbPuQSic"
  },
  {
    "name": "Dale & Sharon Frazer",
    "address": "8 Corporation Cct, Tweed Heads South NSW 2486, Australia",
    "suburb": "Tweed Heads South NSW 2486",
    "state": "NSW",
    "rating": 4,
    "reviews": 4,
    "lat": -28.206197,
    "lng": 153.5382097,
    "place_id": "ChIJ7TICwLP_kGsRER-SQSMG2nI",
    "maps_url": "https://www.google.com/maps/place/?q=place_id:ChIJ7TICwLP_kGsRER-SQSMG2nI"
  },
  {
    "name": "Tugun Osteopathy",
    "address": "5 Toolona St, Tugun QLD 4224, Australia",
    "suburb": "Tugun QLD 4224",
    "state": "NSW",
    "rating": 5,
    "reviews": 65,
    "lat": -28.1432705,
    "lng": 153.4951602,
    "place_id": "ChIJU3GZALYBkWsRFrXa4nj-EgQ",
    "maps_url": "https://www.google.com/maps/place/?q=place_id:ChIJU3GZALYBkWsRFrXa4nj-EgQ"
  },
  {
    "name": "Palm Beach Osteopathy",
    "address": "46-48 Sixth Ave, Palm Beach QLD 4221, Australia",
    "suburb": "Palm Beach QLD 4221",
    "state": "NSW",
    "rating": 5,
    "reviews": 123,
    "lat": -28.1216015,
    "lng": 153.4691716,
    "place_id": "ChIJMc_h-tgDkWsRsvamGzdG838",
    "maps_url": "https://www.google.com/maps/place/?q=place_id:ChIJMc_h-tgDkWsRsvamGzdG838"
  },
  {
    "name": "Coastal Osteopathy and Family Health Clinic",
    "address": "471 Golden Four Dr, Tugun QLD 4224, Australia",
    "suburb": "Tugun QLD 4224",
    "state": "NSW",
    "rating": 5,
    "reviews": 18,
    "lat": -28.1424028,
    "lng": 153.493508,
    "place_id": "ChIJoeJfYg4BkWsRUVyLDEng9wI",
    "maps_url": "https://www.google.com/maps/place/?q=place_id:ChIJoeJfYg4BkWsRUVyLDEng9wI"
  },
  {
    "name": "Casuarina Osteo",
    "address": "Unit 9/38 Ocean Ave, Kingscliff NSW 2487, Australia",
    "suburb": "Kingscliff NSW 2487",
    "state": "NSW",
    "rating": 5,
    "reviews": 6,
    "lat": -28.2842888,
    "lng": 153.5758535,
    "place_id": "ChIJY6ajTSD5kGsRNJMDQLprAA4",
    "maps_url": "https://www.google.com/maps/place/?q=place_id:ChIJY6ajTSD5kGsRNJMDQLprAA4"
  },
  {
    "name": "My Rehab Co",
    "address": "Suite 4/164 Duringan St, Currumbin QLD 4223, Australia",
    "suburb": "Currumbin QLD 4223",
    "state": "NSW",
    "rating": 5,
    "reviews": 251,
    "lat": -28.1388898,
    "lng": 153.4748549,
    "place_id": "ChIJ8_9rWdkDkWsRSEZinSig1YM",
    "maps_url": "https://www.google.com/maps/place/?q=place_id:ChIJ8_9rWdkDkWsRSEZinSig1YM"
  },
  {
    "name": "Morning Osteopathy",
    "address": "21 McLean St, Coolangatta QLD 4225, Australia",
    "suburb": "Coolangatta QLD 4225",
    "state": "NSW",
    "rating": 5,
    "reviews": 7,
    "lat": -28.1677066,
    "lng": 153.5349929,
    "place_id": "ChIJGRzNSWkBkWsRXt7UP8ygWU0",
    "maps_url": "https://www.google.com/maps/place/?q=place_id:ChIJGRzNSWkBkWsRXt7UP8ygWU0"
  },
  {
    "name": "South Eastern Osteopathy",
    "address": "3 Currumbin Creek Rd, Currumbin Waters QLD 4223, Australia",
    "suburb": "Currumbin Waters QLD 4223",
    "state": "NSW",
    "rating": 4.8,
    "reviews": 23,
    "lat": -28.1392439,
    "lng": 153.4723448,
    "place_id": "ChIJEYxL5DwCkWsRoK-1bufR3tQ",
    "maps_url": "https://www.google.com/maps/place/?q=place_id:ChIJEYxL5DwCkWsRoK-1bufR3tQ"
  },
  {
    "name": "Tweed Heads Holistic Health",
    "address": "4/40 Machinery Dr, Tweed Heads South NSW 2486, Australia",
    "suburb": "Tweed Heads South NSW 2486",
    "state": "NSW",
    "rating": 5,
    "reviews": 5,
    "lat": -28.2048843,
    "lng": 153.5422084,
    "place_id": "ChIJlZLTZBD_kGsRgBpeGI042ec",
    "maps_url": "https://www.google.com/maps/place/?q=place_id:ChIJlZLTZBD_kGsRgBpeGI042ec"
  },
  {
    "name": "Tweed Health for Everyone Superclinic",
    "address": "33/35 Corporation Cct, Tweed Heads South NSW 2486, Australia",
    "suburb": "Tweed Heads South NSW 2486",
    "state": "NSW",
    "rating": 3.8,
    "reviews": 158,
    "lat": -28.2069113,
    "lng": 153.5390751,
    "place_id": "ChIJ-VPp8LP_kGsRCUVFVqbyix0",
    "maps_url": "https://www.google.com/maps/place/?q=place_id:ChIJ-VPp8LP_kGsRCUVFVqbyix0"
  },
  {
    "name": "Tweed Coast Acupuncture and Integrative Health Clinic",
    "address": "101 Wharf St, Tweed Heads NSW 2485, Australia",
    "suburb": "Tweed Heads NSW 2485",
    "state": "NSW",
    "rating": 5,
    "reviews": 44,
    "lat": -28.1748179,
    "lng": 153.541708,
    "place_id": "ChIJIW0UslsakWsRs1SCNyH9XjQ",
    "maps_url": "https://www.google.com/maps/place/?q=place_id:ChIJIW0UslsakWsRs1SCNyH9XjQ"
  },
  {
    "name": "Melbourne City Osteopathy",
    "address": "507/55 Swanston St, Melbourne VIC 3000, Australia",
    "suburb": "Melbourne VIC 3000",
    "state": "VIC",
    "rating": 4.9,
    "reviews": 150,
    "lat": -37.8162439,
    "lng": 144.9666518,
    "place_id": "ChIJ0_gjcstC1moRD6bZjpf0YtI",
    "maps_url": "https://www.google.com/maps/place/?q=place_id:ChIJ0_gjcstC1moRD6bZjpf0YtI"
  },
  {
    "name": "Principle Four Osteopathy",
    "address": "Level 4/178 Collins St, Melbourne VIC 3000, Australia",
    "suburb": "Melbourne VIC 3000",
    "state": "VIC",
    "rating": 5,
    "reviews": 170,
    "lat": -37.814816,
    "lng": 144.9675325,
    "place_id": "ChIJY3bqarVC1moRSbYdVB9PxN0",
    "maps_url": "https://www.google.com/maps/place/?q=place_id:ChIJY3bqarVC1moRSbYdVB9PxN0"
  },
  {
    "name": "Melbourne City Osteopathy",
    "address": "5/15 Collins St, Melbourne VIC 3000, Australia",
    "suburb": "Melbourne VIC 3000",
    "state": "VIC",
    "rating": 5,
    "reviews": 49,
    "lat": -37.8139461,
    "lng": 144.9734456,
    "place_id": "ChIJ44yOKbRC1moRLhRniD4KXNI",
    "maps_url": "https://www.google.com/maps/place/?q=place_id:ChIJ44yOKbRC1moRLhRniD4KXNI"
  },
  {
    "name": "Melbourne Osteopathy Sports Injury Centre Bourke Street",
    "address": "Suite 903, Level 9/140 Bourke St, Melbourne VIC 3000, Australia",
    "suburb": "Level 9/140 Bourke St",
    "state": "VIC",
    "rating": 5,
    "reviews": 88,
    "lat": -37.8121898,
    "lng": 144.9689341,
    "place_id": "ChIJy753B8lC1moRW0hHr_MrUjw",
    "maps_url": "https://www.google.com/maps/place/?q=place_id:ChIJy753B8lC1moRW0hHr_MrUjw"
  },
  {
    "name": "Melbourne Osteohealth",
    "address": "Unit 1/100 Queensberry St, Carlton VIC 3053, Australia",
    "suburb": "Carlton VIC 3053",
    "state": "VIC",
    "rating": 5,
    "reviews": 74,
    "lat": -37.8046626,
    "lng": 144.9656151,
    "place_id": "ChIJ20lPYSdD1moRvHklXwD5X_E",
    "maps_url": "https://www.google.com/maps/place/?q=place_id:ChIJ20lPYSdD1moRvHklXwD5X_E"
  },
  {
    "name": "Melbourne Osteopathy Sports Injury Centre",
    "address": "Suite 308, Level 3/546 Collins St, Melbourne VIC 3000, Australia",
    "suburb": "Level 3/546 Collins St",
    "state": "VIC",
    "rating": 4.8,
    "reviews": 23,
    "lat": -37.818247,
    "lng": 144.955845,
    "place_id": "ChIJP7Wo4U1d1moRS_bDHNcbKcw",
    "maps_url": "https://www.google.com/maps/place/?q=place_id:ChIJP7Wo4U1d1moRS_bDHNcbKcw"
  },
  {
    "name": "Melbourne City Osteopathy Docklands",
    "address": "Suite 128/838 Collins St, Docklands VIC 3008, Australia",
    "suburb": "Docklands VIC 3008",
    "state": "VIC",
    "rating": 5,
    "reviews": 68,
    "lat": -37.821349,
    "lng": 144.9451111,
    "place_id": "ChIJrWrsTlld1moRYuTMo8rplAY",
    "maps_url": "https://www.google.com/maps/place/?q=place_id:ChIJrWrsTlld1moRYuTMo8rplAY"
  },
  {
    "name": "Osteopathy CBD",
    "address": "Suite 1005/125 Swanston St, Melbourne VIC 3000, Australia",
    "suburb": "Melbourne VIC 3000",
    "state": "VIC",
    "rating": 4.9,
    "reviews": 9,
    "lat": -37.8146964,
    "lng": 144.9658189,
    "place_id": "ChIJfQRSRkxd1moR_SMnDDdw144",
    "maps_url": "https://www.google.com/maps/place/?q=place_id:ChIJfQRSRkxd1moR_SMnDDdw144"
  },
  {
    "name": "Back In Health Osteopathy",
    "address": "Level 9/179 Queen St, Melbourne VIC 3000, Australia",
    "suburb": "Melbourne VIC 3000",
    "state": "VIC",
    "rating": 5,
    "reviews": 21,
    "lat": -37.8143151,
    "lng": 144.9601996,
    "place_id": "ChIJc2xFuk1d1moRKXex60XWgR8",
    "maps_url": "https://www.google.com/maps/place/?q=place_id:ChIJc2xFuk1d1moRKXex60XWgR8"
  },