[
  {
    "name": "Upscale Painting & Decorating",
    "address": "Seabridge House, 70/377 Kent St, Sydney NSW 2000, Australia",
    "suburb": "70/377 Kent St",
    "state": "NSW",
    "rating": 5,
    "reviews": 85,
    "lat": -33.8695537,
    "lng": 151.2043272,
    "place_id": "ChIJiy2tk2O9EmsRCqHZEnd3LxE",
    "maps_url": "https://www.google.com/maps/place/?q=place_id:ChIJiy2tk2O9EmsRCqHZEnd3LxE"
  },
  {
    "name": "OPC Painting",
    "address": "Suite 2, Level 9/515 Kent St, Sydney NSW 2000, Australia",
    "suburb": "Level 9/515 Kent St",
    "state": "NSW",
    "rating": 5,
    "reviews": 33,
    "lat": -33.8745164,
    "lng": 151.2051596,
    "place_id": "ChIJoXVsH1KkEmsRMyNBYKwelmM",
    "maps_url": "https://www.google.com/maps/place/?q=place_id:ChIJoXVsH1KkEmsRMyNBYKwelmM"
  },
  {
    "name": "opal professional company",
    "address": "Sydney NSW 2000, Australia",
    "suburb": "Australia",
    "state": "NSW",
    "rating": 5,
    "reviews": 99,
    "lat": -33.8727763,
    "lng": 151.2056408,
    "place_id": "ChIJPcoDlrO9EmsRCuwknANCg_A",
    "maps_url": "https://www.google.com/maps/place/?q=place_id:ChIJPcoDlrO9EmsRCuwknANCg_A"
  },
  {
    "name": "Mk master Pty Ltd",
    "address": "343 Pitt St, Sydney NSW 2000, Australia",
    "suburb": "Sydney NSW 2000",
    "state": "NSW",
    "rating": 5,
    "reviews": 21,
    "lat": -33.8753582,
    "lng": 151.2076363,
    "place_id": "ChIJKTXyLxTpVIMRrpPfHDJwRt4",
    "maps_url": "https://www.google.com/maps/place/?q=place_id:ChIJKTXyLxTpVIMRrpPfHDJwRt4"
  },
  {
    "name": "Advanced Painting And Decorating Pty Ltd",
    "address": "44B Tempe St, Greenacre NSW 2190, Australia",
    "suburb": "Greenacre NSW 2190",
    "state": "NSW",
    "rating": 5,
    "reviews": 77,
    "lat": -33.9027934,
    "lng": 151.0595599,
    "place_id": "ChIJJece1I27EmsRGcPGruKW5L4",
    "maps_url": "https://www.google.com/maps/place/?q=place_id:ChIJJece1I27EmsRGcPGruKW5L4"
  },
  {
    "name": "Mi Painting & Maintenance",
    "address": "Unit 3/44-46 Harrow Rd, Auburn NSW 2144, Australia",
    "suburb": "Auburn NSW 2144",
    "state": "NSW",
    "rating": 5,
    "reviews": 143,
    "lat": -33.8555433,
    "lng": 151.0309651,
    "place_id": "ChIJOVJ3Ze-9EmsRzTYPwDn7I74",
    "maps_url": "https://www.google.com/maps/place/?q=place_id:ChIJOVJ3Ze-9EmsRzTYPwDn7I74"
  },
  {
    "name": "Clear Finish Painting",
    "address": "Level 33/264 George St, Sydney NSW 2000, Australia",
    "suburb": "Sydney NSW 2000",
    "state": "NSW",
    "rating": 5,
    "reviews": 32,
    "lat": -33.864468,
    "lng": 151.2071629,
    "place_id": "ChIJAQDQMc2iEmsRFkmr8xePabk",
    "maps_url": "https://www.google.com/maps/place/?q=place_id:ChIJAQDQMc2iEmsRFkmr8xePabk"
  },
  {
    "name": "Tony Isgrove's Painting and Decorating",
    "address": "2/87-89 Whiting St, Artarmon NSW 2064, Australia",
    "suburb": "Artarmon NSW 2064",
    "state": "NSW",
    "rating": 5,
    "reviews": 432,
    "lat": -33.8165405,
    "lng": 151.1801232,
    "place_id": "ChIJ7WYAwiOvEmsRaiXL24xFfZM",
    "maps_url": "https://www.google.com/maps/place/?q=place_id:ChIJ7WYAwiOvEmsRaiXL24xFfZM"
  },
  {
    "name": "Painting and Decorating Specialist 20 years experience",
    "address": "Servicing Parramatta, Hills District, North Shore, Eastern Suburbs Blacktown, Bankstown, Fairfield, Liverpool, Greystanes, Westmead, Ryde Pemulwuy, Wentworthville, Granville, Guildford, Clyde, 30B Sovereign Ave, Kellyville Ridge NSW 2155, Australia",
    "suburb": "Hills District",
    "state": "NSW",
    "rating": 5,
    "reviews": 142,
    "lat": -33.7000143,
    "lng": 150.9208879,
    "place_id": "ChIJqS9zItDQUQkRIi7irUkblhc",
    "maps_url": "https://www.google.com/maps/place/?q=place_id:ChIJqS9zItDQUQkRIi7irUkblhc"
  },
  {
    "name": "Commercial Painting Sydney",
    "address": "26-28 Wentworth Ave, Surry Hills NSW 2010, Australia",
    "suburb": "Surry Hills NSW 2010",
    "state": "NSW",
    "rating": 5,
    "reviews": 9,
    "lat": -33.8781017,
    "lng": 151.2115974,
    "place_id": "ChIJe6iKwBeuEmsRK1an1sFFBNE",
    "maps_url": "https://www.google.com/maps/place/?q=place_id:ChIJe6iKwBeuEmsRK1an1sFFBNE"
  },
  {
    "name": "General Painting Contractors",
    "address": "Unit 13/22/24 President Ave, Kogarah NSW 2217, Australia",
    "suburb": "Kogarah NSW 2217",
    "state": "NSW",
    "rating": 5,
    "reviews": 108,
    "lat": -33.9642446,
    "lng": 151.1393636,
    "place_id": "ChIJTcRn_ml3k2sR_3dUR4wf210",
    "maps_url": "https://www.google.com/maps/place/?q=place_id:ChIJTcRn_ml3k2sR_3dUR4wf210"
  },
  {
    "name": "North Sydney Painting",
    "address": "73 Lower Bent St, Neutral Bay NSW 2089, Australia",
    "suburb": "Neutral Bay NSW 2089",
    "state": "NSW",
    "rating": 5,
    "reviews": 48,
    "lat": -33.8327466,
    "lng": 151.2149805,
    "place_id": "ChIJ3Ye34eKvEmsRxo2MEim94bs",
    "maps_url": "https://www.google.com/maps/place/?q=place_id:ChIJ3Ye34eKvEmsRxo2MEim94bs"
  },
  {
    "name": "Sydney Shine Painting",
    "address": "2/355 Sussex St, Sydney NSW 2000, Australia",
    "suburb": "Sydney NSW 2000",
    "state": "NSW",
    "rating": 5,
    "reviews": 4,
    "lat": -33.8764506,
    "lng": 151.2042845,
    "place_id": "ChIJUb5zbravEmsR2iv5KKXYpU8",
    "maps_url": "https://www.google.com/maps/place/?q=place_id:ChIJUb5zbravEmsR2iv5KKXYpU8"
  },
  {
    "name": "Sydney Painting Experts",
    "address": "288 Pacific Hwy, Greenwich NSW 2065, Australia",
    "suburb": "Greenwich NSW 2065",
    "state": "NSW",
    "rating": 5,
    "reviews": 153,
    "lat": -33.8178953,
    "lng": 151.1812215,
    "place_id": "ChIJUYKUypyvEmsREYdtKseNS1Y",
    "maps_url": "https://www.google.com/maps/place/?q=place_id:ChIJUYKUypyvEmsREYdtKseNS1Y"
  },
  {
    "name": "Sydney Star Painting And Decorating .",
    "address": "41/142 Moore St, Liverpool NSW 2170, Australia",
    "suburb": "Liverpool NSW 2170",
    "state": "NSW",
    "rating": 4.9,
    "reviews": 55,
    "lat": -33.9219797,
    "lng": 150.9174657,
    "place_id": "ChIJTzx3wyKVEmsRwrNk5e5Y_x8",
    "maps_url": "https://www.google.com/maps/place/?q=place_id:ChIJTzx3wyKVEmsRwrNk5e5Y_x8"
  },
  {
    "name": "C STAR Painting And Decorating",
    "address": "6/40 _, 44 Fullers Rd, Chatswood NSW 2067, Australia",
    "suburb": "44 Fullers Rd",
    "state": "NSW",
    "rating": 5,
    "reviews": 100,
    "lat": -33.7966079,
    "lng": 151.1733814,
    "place_id": "ChIJi3rsf9uoEmsR1ohxexdlHIA",
    "maps_url": "https://www.google.com/maps/place/?q=place_id:ChIJi3rsf9uoEmsR1ohxexdlHIA"
  },
  {
    "name": "Bel Opal Painters and Decorators",
    "address": "281 Elizabeth St, Sydney NSW 2000, Australia",
    "suburb": "Sydney NSW 2000",
    "state": "NSW",
    "rating": 5,
    "reviews": 8,
    "lat": -33.8762137,
    "lng": 151.2091058,
    "place_id": "ChIJc0iccgyvEmsRWmsteE0pkp0",
    "maps_url": "https://www.google.com/maps/place/?q=place_id:ChIJc0iccgyvEmsRWmsteE0pkp0"
  },
  {
    "name": "Sydney Wide Painters & Decorators",
    "address": "45 Swete St, Lidcombe NSW 2141, Australia",
    "suburb": "Lidcombe NSW 2141",
    "state": "NSW",
    "rating": 5,
    "reviews": 12,
    "lat": -33.8603089,
    "lng": 151.0492961,
    "place_id": "ChIJazb0RVi7EmsR4fO0czuQ4KQ",
    "maps_url": "https://www.google.com/maps/place/?q=place_id:ChIJazb0RVi7EmsR4fO0czuQ4KQ"
  },
  {
    "name": "Advance Painting & Decorating",
    "address": "Church St, Parramatta NSW 2150, Australia",
    "suburb": "Parramatta NSW 2150",
    "state": "NSW",
    "rating": 5,
    "reviews": 44,
    "lat": -33.8092148,
    "lng": 151.0055558,
    "place_id": "ChIJAVN9-TGjEmsRivdHRvod6ko",
    "maps_url": "https://www.google.com/maps/place/?q=place_id:ChIJAVN9-TGjEmsRivdHRvod6ko"
  },
  {
    "name": "Prime Colours Painting Pty Ltd",
    "address": "8 Cowper St, Parramatta NSW 2150, Australia",
    "suburb": "Parramatta NSW 2150",
    "state": "NSW",
    "rating": 5,
    "reviews": 47,
    "lat": -33.8212294,
    "lng": 151.0070216,
    "place_id": "ChIJp8CbFl6jEmsRU3KM2O6GfdA",
    "maps_url": "https://www.google.com/maps/place/?q=place_id:ChIJp8CbFl6jEmsRU3KM2O6GfdA"
  },
  {
    "name": "VIP Painting Decorating Services Pty Ltd",
    "address": "24 Ritchie St, Rosehill NSW 2142, Australia",
    "suburb": "Rosehill NSW 2142",
    "state": "NSW",
    "rating": 4.9,
    "reviews": 82,
    "lat": -33.8266222,
    "lng": 151.014275,
    "place_id": "ChIJ__9rHTujEmsRH02e_3cwCHg",
    "maps_url": "https://www.google.com/maps/place/?q=place_id:ChIJ__9rHTujEmsRH02e_3cwCHg"
  },
  {
    "name": "Classic Perfection Painting",
    "address": "42 Isabella St, North Parramatta NSW 2151, Australia",
    "suburb": "North Parramatta NSW 2151",
    "state": "NSW",
    "rating": 5,
    "reviews": 135,
    "lat": -33.8029657,
    "lng": 151.0120466,
    "place_id": "ChIJRdCBxt6jEmsRcD_S2Skmup8",
    "maps_url": "https://www.google.com/maps/place/?q=place_id:ChIJRdCBxt6jEmsRcD_S2Skmup8"
  },
  {
    "name": "VD Painting",
    "address": "7/11 Elizabeth St, Parramatta NSW 2150, Australia",
    "suburb": "Parramatta NSW 2150",
    "state": "NSW",
    "rating": 5,
    "reviews": 5,
    "lat": -33.8113182,
    "lng": 151.0083289,
    "place_id": "ChIJKbibqDOjEmsRpuvY9qKRVFM",
    "maps_url": "https://www.google.com/maps/place/?q=place_id:ChIJKbibqDOjEmsRpuvY9qKRVFM"
  },
  {
    "name": "Final touch painting&plastering services",
    "address": "Pitt St, Parramatta NSW 2150, Australia",
    "suburb": "Parramatta NSW 2150",
    "state": "NSW",
    "rating": 5,
    "reviews": 27,
    "lat": -33.8147072,
    "lng": 150.9977644,
    "place_id": "ChIJv6b1bCG9EmsRczoCQSt_NYk",
    "maps_url": "https://www.google.com/maps/place/?q=place_id:ChIJv6b1bCG9EmsRczoCQSt_NYk"
  },
  {
    "name": "Lotus Painting Group",
    "address": "130 Good St, Harris Park NSW 2150, Australia",
    "suburb": "Harris Park NSW 2150",
    "state": "NSW",
    "rating": 5,
    "reviews": 20,
    "lat": -33.8248939,
    "lng": 151.0129191,
    "place_id": "ChIJO052UzL2j2oRxOZj2hxr73I",
    "maps_url": "https://www.google.com/maps/place/?q=place_id:ChIJO052UzL2j2oRxOZj2hxr73I"
  },
  {
    "name": "Supreme Painting Group",
    "address": "Pitt St, Parramatta NSW 2150, Australia",
    "suburb": "Parramatta NSW 2150",
    "state": "NSW",
    "rating": 5,
    "reviews": 10,
    "lat": -33.8191311,
    "lng": 150.9964653,
    "place_id": "ChIJwzJEucSjEmsRog17dzaWHFw",
    "maps_url": "https://www.google.com/maps/place/?q=place_id:ChIJwzJEucSjEmsRog17dzaWHFw"
  },
  {
    "name": "Orbit Painting & Decorating",
    "address": "45a Burley Rd, Padstow NSW 2211, Australia",
    "suburb": "Padstow NSW 2211",
    "state": "NSW",
    "rating": 5,
    "reviews": 28,
    "lat": -33.9558093,
    "lng": 151.03324,
    "place_id": "ChIJGV5ibOa9EmsRRaHoEZLeFpU",
    "maps_url": "https://www.google.com/maps/place/?q=place_id:ChIJGV5ibOa9EmsRRaHoEZLeFpU"
  },
  {
    "name": "Luma Painting",
    "address": "Unit 11/12-22 Railway Parade, Granville NSW 2142, Australia",
    "suburb": "Granville NSW 2142",
    "state": "NSW",
    "rating": 5,
    "reviews": 46,
    "lat": -33.8326347,
    "lng": 151.0108549,
    "place_id": "ChIJ32ksbm6jEmsR7GwOt7V7-fw",
    "maps_url": "https://www.google.com/maps/place/?q=place_id:ChIJ32ksbm6jEmsR7GwOt7V7-fw"
  },
  {
    "name": "Vertex professional painting",
    "address": "140 Church St, Parramatta NSW 2150, Australia",
    "suburb": "Parramatta NSW 2150",
    "state": "NSW",
    "rating": 5,
    "reviews": 8,
    "lat": -33.8178456,
    "lng": 151.0039909,
    "place_id": "ChIJf8dOGGI7fSIRVecUbEQOYMM",
    "maps_url": "https://www.google.com/maps/place/?q=place_id:ChIJf8dOGGI7fSIRVecUbEQOYMM"
  },
  {
    "name": "TS PRIME PAINTING PTY LTD",
    "address": "3 Broughton St, Parramatta NSW 2150, Australia",
    "suburb": "Parramatta NSW 2150",
    "state": "NSW",
    "rating": 5,
    "reviews": 6,
    "lat": -33.813757,
    "lng": 151.0187558,
    "place_id": "ChIJ0wBh1Hq8pUMR9waL-b_Iyb4",
    "maps_url": "https://www.google.com/maps/place/?q=place_id:ChIJ0wBh1Hq8pUMR9waL-b_Iyb4"
  },
  {
    "name": "Rainbow Painting and Decorating",
    "address": "35 Barker Ave, Silverwater NSW 2128, Australia",
    "suburb": "Silverwater NSW 2128",
    "state": "NSW",
    "rating": 5,
    "reviews": 56,
    "lat": -33.8420892,
    "lng": 151.046294,
    "place_id": "ChIJjU7zRPmjEmsRAMfCQo2rHsI",
    "maps_url": "https://www.google.com/maps/place/?q=place_id:ChIJjU7zRPmjEmsRAMfCQo2rHsI"
  },
  {
    "name": "Maxim Painting",
    "address": "6 Kirby St, Rydalmere NSW 2116, Australia",
    "suburb": "Rydalmere NSW 2116",
    "state": "NSW",
    "rating": 5,
    "reviews": 83,
    "lat": -33.8148536,
    "lng": 151.0486593,
    "place_id": "ChIJZbE4qwWjEmsRYD_B_vKMTrs",
    "maps_url": "https://www.google.com/maps/place/?q=place_id:ChIJZbE4qwWjEmsRYD_B_vKMTrs"
  },
  {
    "name": "Sanoos Painting & Decorating- NSW",
    "address": "5/122 Auburn Rd, Auburn NSW 2144, Australia",
    "suburb": "Auburn NSW 2144",
    "state": "NSW",
    "rating": 4.9,
    "reviews": 49,
    "lat": -33.8581027,
    "lng": 151.0315928,
    "place_id": "ChIJYWp1Wui9EmsR30xI4PnOQdE",
    "maps_url": "https://www.google.com/maps/place/?q=place_id:ChIJYWp1Wui9EmsR30xI4PnOQdE"
  },
  {
    "name": "PAINTING BROTHERS",
    "address": "29 Gooreen St, Lidcombe NSW 2141, Australia",
    "suburb": "Lidcombe NSW 2141",
    "state": "NSW",
    "rating": 5,
    "reviews": 52,
    "lat": -33.850717,
    "lng": 151.0466124,
    "place_id": "ChIJj7U08Pi7EmsRgBxOsmEIg5A",
    "maps_url": "https://www.google.com/maps/place/?q=place_id:ChIJj7U08Pi7EmsRgBxOsmEIg5A"
  },
  {
    "name": "Paint Genius Pty.Ltd",
    "address": "2/82-84 Albert St, North Parramatta NSW 2151, Australia",
    "suburb": "North Parramatta NSW 2151",
    "state": "NSW",
    "rating": 5,
    "reviews": 10,
    "lat": -33.8039879,
    "lng": 151.0122576,
    "place_id": "ChIJNZuGdF-jEmsRyjm8XYkJxcc",
    "maps_url": "https://www.google.com/maps/place/?q=place_id:ChIJNZuGdF-jEmsRyjm8XYkJxcc"
  },
  {
    "name": "SAGE Painting",
    "address": "21 Ella St, Adamstown NSW 2289, Australia",
    "suburb": "Adamstown NSW 2289",
    "state": "NSW",
    "rating": 4.9,
    "reviews": 86,
    "lat": -32.9393798,
    "lng": 151.735293,
    "place_id": "ChIJkS-XLMEVc2sR2pkI8MB038E",
    "maps_url": "https://www.google.com/maps/place/?q=place_id:ChIJkS-XLMEVc2sR2pkI8MB038E"
  },
  {
    "name": "Platinum Painting & Maintenance",
    "address": "Unit 31/8 Spit Island Cl, Mayfield West NSW 2304, Australia",
    "suburb": "Mayfield West NSW 2304",
    "state": "NSW",
    "rating": 5,
    "reviews": 60,
    "lat": -32.8778146,
    "lng": 151.7242834,
    "place_id": "ChIJyW74GmaaqQMRexFLBuJJI-U",
    "maps_url": "https://www.google.com/maps/place/?q=place_id:ChIJyW74GmaaqQMRexFLBuJJI-U"
  },
  {
    "name": "Eric's Painting Services",
    "address": "Cameron Park NSW 2285, Australia",
    "suburb": "Australia",
    "state": "NSW",
    "rating": 5,
    "reviews": 46,
    "lat": -32.91104200000001,
    "lng": 151.6187856,
    "place_id": "ChIJAW6dwx08c2sRSsZDwVLSwmI",
    "maps_url": "https://www.google.com/maps/place/?q=place_id:ChIJAW6dwx08c2sRSsZDwVLSwmI"
  },
  {
    "name": "The Home Painter Newcastle PTY LTD",
    "address": "9 Sir Edward St, Karuah NSW 2324, Australia",
    "suburb": "Karuah NSW 2324",
    "state": "NSW",
    "rating": 5,
    "reviews": 40,
    "lat": -32.6433959,
    "lng": 151.9566568,
    "place_id": "ChIJ7WV1jMWdoWwR1wBkab2A07U",
    "maps_url": "https://www.google.com/maps/place/?q=place_id:ChIJ7WV1jMWdoWwR1wBkab2A07U"
  },
  {
    "name": "Instyle Painting",
    "address": "301/25 Llewellyn St, Merewether NSW 2291, Australia",
    "suburb": "Merewether NSW 2291",
    "state": "NSW",
    "rating": 4.7,
    "reviews": 27,
    "lat": -32.943024,
    "lng": 151.7514139,
    "place_id": "ChIJw2VY28oic2sRtDwvUNWRaec",
    "maps_url": "https://www.google.com/maps/place/?q=place_id:ChIJw2VY28oic2sRtDwvUNWRaec"
  },
  {
    "name": "Thats Us Painting",
    "address": "Unit 2/97 Bourke St, Carrington NSW 2294, Australia",
    "suburb": "Carrington NSW 2294",
    "state": "NSW",
    "rating": 4.9,
    "reviews": 48,
    "lat": -32.9122533,
    "lng": 151.7674959,
    "place_id": "ChIJZ6WcNtsVc2sRIPtH5rZ-zxo",
    "maps_url": "https://www.google.com/maps/place/?q=place_id:ChIJZ6WcNtsVc2sRIPtH5rZ-zxo"
  },
  {
    "name": "A-Z property painting",
    "address": "Hunter St, Newcastle NSW 2300, Australia",
    "suburb": "Newcastle NSW 2300",
    "state": "NSW",
    "rating": 5,
    "reviews": 1,
    "lat": -32.9275813,
    "lng": 151.7671969,
    "place_id": "ChIJ94iN9pEVc2sRH7rdz2WbS9U",
    "maps_url": "https://www.google.com/maps/place/?q=place_id:ChIJ94iN9pEVc2sRH7rdz2WbS9U"
  },
  {
    "name": "George.Painting - Lake Macquarie & Newcastle",
    "address": "19 Sabrina Pl, Cooranbong NSW 2265, Australia",
    "suburb": "Cooranbong NSW 2265",
    "state": "NSW",
    "rating": 5,
    "reviews": 19,
    "lat": -33.0740589,
    "lng": 151.4609941,
    "place_id": "ChIJfd_hdHQpc2sRzlSW3uyISVc",
    "maps_url": "https://www.google.com/maps/place/?q=place_id:ChIJfd_hdHQpc2sRzlSW3uyISVc"
  },
  {
    "name": "Happy Newcastle painting",
    "address": "North, North Lambton NSW 2299, Australia",
    "suburb": "North Lambton NSW 2299",
    "state": "NSW",
    "rating": 5,
    "reviews": 6,
    "lat": -32.904551,
    "lng": 151.7027928,
    "place_id": "ChIJq9FV5L2ZLQIRckFt5AG6NUA",
    "maps_url": "https://www.google.com/maps/place/?q=place_id:ChIJq9FV5L2ZLQIRckFt5AG6NUA"
  },
  {
    "name": "Azul Painting & Decorating",
    "address": "Unit 11/15-17 Hillview Cres, The Hill NSW 2300, Australia",
    "suburb": "The Hill NSW 2300",
    "state": "NSW",
    "rating": 5,
    "reviews": 18,
    "lat": -32.9325247,
    "lng": 151.7772654,
    "place_id": "ChIJ3ZCTORRXiEwRClMFftrpSOw",
    "maps_url": "https://www.google.com/maps/place/?q=place_id:ChIJ3ZCTORRXiEwRClMFftrpSOw"
  },
  {
    "name": "Dinsdale Decorating Services",
    "address": "53 Dinsdale Rd, Newcastle upon Tyne NE2 1DN, UK",
    "suburb": "Newcastle upon Tyne NE2 1DN",
    "state": "NSW",
    "rating": 4.9,
    "reviews": 70,
    "lat": 54.9805369,
    "lng": -1.5974608,
    "place_id": "ChIJj_Of_sJwfkgRjmb09B3I0rQ",
    "maps_url": "https://www.google.com/maps/place/?q=place_id:ChIJj_Of_sJwfkgRjmb09B3I0rQ"
  },
  {
    "name": "Charlestown Painting",
    "address": "22 Wakal St, Charlestown NSW 2290, Australia",
    "suburb": "Charlestown NSW 2290",
    "state": "NSW",
    "rating": 5,
    "reviews": 30,
    "lat": -32.9708961,
    "lng": 151.7017402,
    "place_id": "ChIJ0YvomScWc2sRMj_fb6wmTmA",
    "maps_url": "https://www.google.com/maps/place/?q=place_id:ChIJ0YvomScWc2sRMj_fb6wmTmA"
  },
  {
    "name": "Hughesys Painting Newcastle",
    "address": "23 Nott St, Edgeworth NSW 2285, Australia",
    "suburb": "Edgeworth NSW 2285",
    "state": "NSW",
    "rating": 5,
    "reviews": 7,
    "lat": -32.9250989,
    "lng": 151.6109933,
    "place_id": "ChIJTcGlsk5Kh4sRoEZ8EOviyg8",
    "maps_url": "https://www.google.com/maps/place/?q=place_id:ChIJTcGlsk5Kh4sRoEZ8EOviyg8"
  },
  {
    "name": "Laurence Coatings",
    "address": "Unit 8/17 Riverside Dr, Mayfield West NSW 2304, Australia",
    "suburb": "Mayfield West NSW 2304",
    "state": "NSW",
    "rating": 4.9,
    "reviews": 35,
    "lat": -32.877207,
    "lng": 151.7208662,
    "place_id": "ChIJk5RiLBoXc2sRE48xyHYLU90",
    "maps_url": "https://www.google.com/maps/place/?q=place_id:ChIJk5RiLBoXc2sRE48xyHYLU90"
  },
  {
    "name": "Painting Newcastle",
    "address": "73a King St, Warners Bay NSW 2282, Australia",
    "suburb": "Warners Bay NSW 2282",
    "state": "NSW",
    "rating": null,
    "reviews": 0,
    "lat": -32.9750743,
    "lng": 151.6458033,
    "place_id": "ChIJcxUtjTg9c2sR1PUfujC0170",
    "maps_url": "https://www.google.com/maps/place/?q=place_id:ChIJcxUtjTg9c2sR1PUfujC0170"
  },
  {
    "name": "Canli Colours Painting & Decorating",
    "address": "4 Daydream Cl, Ashtonfield NSW 2323, Australia",
    "suburb": "Ashtonfield NSW 2323",
    "state": "NSW",
    "rating": 5,
    "reviews": 31,
    "lat": -32.7712318,
    "lng": 151.6014487,
    "place_id": "ChIJlwu4CdJHc2sRyVYAPP97c9M",
    "maps_url": "https://www.google.com/maps/place/?q=place_id:ChIJlwu4CdJHc2sRyVYAPP97c9M"
  },
  {
    "name": "UrbanOps - Property Makeover Specialists",
    "address": "22/218 Macquarie Rd, Warners Bay NSW 2282, Australia",
    "suburb": "Warners Bay NSW 2282",
    "state": "NSW",
    "rating": 5,
    "reviews": 34,
    "lat": -32.9612833,
    "lng": 151.6559692,
    "place_id": "ChIJgZnj_oY9c2sRi_9Z6BR_JMg",
    "maps_url": "https://www.google.com/maps/place/?q=place_id:ChIJgZnj_oY9c2sRi_9Z6BR_JMg"
  },
  {
    "name": "JRN Painting & Decorating",
    "address": "Kooranga Cres, Cordeaux Heights NSW 2526, Australia",
    "suburb": "Cordeaux Heights NSW 2526",
    "state": "NSW",
    "rating": 4.9,
    "reviews": 131,
    "lat": -34.4472713,
    "lng": 150.8334048,
    "place_id": "ChIJgYj-RKoRE2sRrEe1A_YkDEk",
    "maps_url": "https://www.google.com/maps/place/?q=place_id:ChIJgYj-RKoRE2sRrEe1A_YkDEk"
  },
  {
    "name": "Optimum Painting & Decorating",
    "address": "43 Branch Ave, Figtree NSW 2525, Australia",
    "suburb": "Figtree NSW 2525",
    "state": "NSW",
    "rating": 4.8,
    "reviews": 83,
    "lat": -34.4294242,
    "lng": 150.8483746,
    "place_id": "ChIJUwhGOwutEmsRQRIB2tyRjW8",
    "maps_url": "https://www.google.com/maps/place/?q=place_id:ChIJUwhGOwutEmsRQRIB2tyRjW8"
  },
  {
    "name": "Wollongong painting services",
    "address": "26 Trevor Ave, Lake Heights NSW 2502, Australia",
    "suburb": "Lake Heights NSW 2502",
    "state": "NSW",
    "rating": 5,
    "reviews": 20,
    "lat": -34.488018,
    "lng": 150.8708207,
    "place_id": "ChIJh7fZJuwwY4ERgA_BjqYwC5w",
    "maps_url": "https://www.google.com/maps/place/?q=place_id:ChIJh7fZJuwwY4ERgA_BjqYwC5w"
  },
  {
    "name": "Maintain Painting, Painters Wollongong",
    "address": "18b Murrogun Cres, Cordeaux Heights NSW 2526, Australia",
    "suburb": "Cordeaux Heights NSW 2526",
    "state": "NSW",
    "rating": 5,
    "reviews": 28,
    "lat": -34.4520979,
    "lng": 150.8236415,
    "place_id": "ChIJWSnuLk4bE2sR8pBK0WZFoHE",
    "maps_url": "https://www.google.com/maps/place/?q=place_id:ChIJWSnuLk4bE2sR8pBK0WZFoHE"
  },
  {
    "name": "Illawarra House Painters",
    "address": "26 Robins Creek Dr, Horsley NSW 2530, Australia",
    "suburb": "Horsley NSW 2530",
    "state": "NSW",
    "rating": 5,
    "reviews": 13,
    "lat": -34.4881759,
    "lng": 150.7737106,
    "place_id": "ChIJH90jQxfYpI4R6_gWCP-vmUU",
    "maps_url": "https://www.google.com/maps/place/?q=place_id:ChIJH90jQxfYpI4R6_gWCP-vmUU"
  },
  {
    "name": "D & J Saverino Painting & Decorating",
    "address": "18 Fairy Ave, Fairy Meadow NSW 2519, Australia",
    "suburb": "Fairy Meadow NSW 2519",
    "state": "NSW",
    "rating": 5,
    "reviews": 6,
    "lat": -34.396119,
    "lng": 150.890327,
    "place_id": "ChIJ0-qKU1MZE2sRSNHP7hLVRXY",
    "maps_url": "https://www.google.com/maps/place/?q=place_id:ChIJ0-qKU1MZE2sRSNHP7hLVRXY"
  },
  {
    "name": "Andy Ding Painting & Decorating",
    "address": "61 Rosemont St, Wollongong NSW 2500, Australia",
    "suburb": "Wollongong NSW 2500",
    "state": "NSW",
    "rating": 4.3,
    "reviews": 6,
    "lat": -34.4253829,
    "lng": 150.8775531,
    "place_id": "ChIJ9yt_rigZE2sRhAvXRjevEiE",
    "maps_url": "https://www.google.com/maps/place/?q=place_id:ChIJ9yt_rigZE2sRhAvXRjevEiE"
  },
  {
    "name": "ENLIGHT PAINTING",
    "address": "167 Jacaranda Ave, Figtree NSW 2525, Australia",
    "suburb": "Figtree NSW 2525",
    "state": "NSW",
    "rating": 5,
    "reviews": 20,
    "lat": -34.4323673,
    "lng": 150.8497829,
    "place_id": "ChIJR2b2qHcbE2sRd7JNiejOTlc",
    "maps_url": "https://www.google.com/maps/place/?q=place_id:ChIJR2b2qHcbE2sRd7JNiejOTlc"
  },
  {
    "name": "Cut Price Painting & Decorating",
    "address": "5 Third Ave N, Warrawong NSW 2502, Australia",
    "suburb": "Warrawong NSW 2502",
    "state": "NSW",
    "rating": 5,
    "reviews": 2,
    "lat": -34.4811433,
    "lng": 150.8815007,
    "place_id": "ChIJETkqXj4XE2sR4PcIBQOmDLI",
    "maps_url": "https://www.google.com/maps/place/?q=place_id:ChIJETkqXj4XE2sR4PcIBQOmDLI"
  },
  {
    "name": "Sharpe Painting & Decorating",
    "address": "9/11 Whiting Ave, Terrigal NSW 2260, Australia",
    "suburb": "Terrigal NSW 2260",
    "state": "NSW",
    "rating": 5,
    "reviews": 38,
    "lat": -33.4438536,
    "lng": 151.4407886,
    "place_id": "ChIJKTqC4_7JcmsRvK0sZH9QV5g",
    "maps_url": "https://www.google.com/maps/place/?q=place_id:ChIJKTqC4_7JcmsRvK0sZH9QV5g"
  },
  {
    "name": "Wonderful Painting by DJ | Central Coast Painter",
    "address": "7a Morley Ave, Bateau Bay NSW 2261, Australia",
    "suburb": "Bateau Bay NSW 2261",
    "state": "NSW",
    "rating": 5,
    "reviews": 25,
    "lat": -33.3905327,
    "lng": 151.4649357,
    "place_id": "ChIJkylonG_PcmsR65AZZKcATJk",
    "maps_url": "https://www.google.com/maps/place/?q=place_id:ChIJkylonG_PcmsR65AZZKcATJk"
  },
  {
    "name": "Blue Coast Painting",
    "address": "2 Barinya Ln, Springfield NSW 2250, Australia",
    "suburb": "Springfield NSW 2250",
    "state": "NSW",
    "rating": 4.8,
    "reviews": 74,
    "lat": -33.4320042,
    "lng": 151.3754839,
    "place_id": "ChIJvzNPi47PcmsR7Y_FJ9CVGR8",
    "maps_url": "https://www.google.com/maps/place/?q=place_id:ChIJvzNPi47PcmsR7Y_FJ9CVGR8"
  },
  {
    "name": "Portos Painting & Maintenance | Central Coast Painters",
    "address": "39 Warner Ave, Tuggerawong NSW 2259, Australia",
    "suburb": "Tuggerawong NSW 2259",
    "state": "NSW",
    "rating": 5,
    "reviews": 14,
    "lat": -33.2815017,
    "lng": 151.4697969,
    "place_id": "ChIJXSf2tg3RcmsRAzXZrOdlcJo",
    "maps_url": "https://www.google.com/maps/place/?q=place_id:ChIJXSf2tg3RcmsRAzXZrOdlcJo"
  },
  {
    "name": "Visual Concepts Painting & Decorating",
    "address": "Unit 1/4 Walder Cres, Avoca Beach NSW 2251, Australia",
    "suburb": "Avoca Beach NSW 2251",
    "state": "NSW",
    "rating": 5,
    "reviews": 15,
    "lat": -33.47255,
    "lng": 151.4234618,
    "place_id": "ChIJKcKVSp63cmsRlES_QvuBdvE",
    "maps_url": "https://www.google.com/maps/place/?q=place_id:ChIJKcKVSp63cmsRlES_QvuBdvE"
  },
  {
    "name": "Shaun Grieve Painting",
    "address": "15 Curzon Ave, Bateau Bay NSW 2261, Australia",
    "suburb": "Bateau Bay NSW 2261",
    "state": "NSW",
    "rating": 5,
    "reviews": 27,
    "lat": -33.3802272,
    "lng": 151.4666453,
    "place_id": "ChIJ59LqYn7JcmsR-Iu_XDOeJSI",
    "maps_url": "https://www.google.com/maps/place/?q=place_id:ChIJ59LqYn7JcmsR-Iu_XDOeJSI"
  },
  {
    "name": "CJF Painting & Decorating",
    "address": "105 Maidens Brush Rd, Wyoming NSW 2250, Australia",
    "suburb": "Wyoming NSW 2250",
    "state": "NSW",
    "rating": 5,
    "reviews": 9,
    "lat": -33.4091392,
    "lng": 151.36218,
    "place_id": "ChIJJT1d4_HKcmsRRLihCtqngtw",
    "maps_url": "https://www.google.com/maps/place/?q=place_id:ChIJJT1d4_HKcmsRRLihCtqngtw"
  },
  {
    "name": "Jonny's Home Improvements",
    "address": "56 Hillcrest St, Terrigal NSW 2260, Australia",
    "suburb": "Terrigal NSW 2260",
    "state": "NSW",
    "rating": 5,
    "reviews": 12,
    "lat": -33.4461833,
    "lng": 151.4343592,
    "place_id": "ChIJJS9aOi-wEmsRLdbzgP_foX4",
    "maps_url": "https://www.google.com/maps/place/?q=place_id:ChIJJS9aOi-wEmsRLdbzgP_foX4"
  },
  {
    "name": "Jeff Hendrie Painting and Decorating",
    "address": "Ourringo Ave, Lake Haven NSW 2263, Australia",
    "suburb": "Lake Haven NSW 2263",
    "state": "NSW",
    "rating": 5,
    "reviews": 10,
    "lat": -33.2439213,
    "lng": 151.5146965,
    "place_id": "ChIJTybHnCEnc2sRYvE-PAEQNXM",
    "maps_url": "https://www.google.com/maps/place/?q=place_id:ChIJTybHnCEnc2sRYvE-PAEQNXM"
  },
  {
    "name": "Precision Painting Central Coast",
    "address": "12 Wilton Grove, Woongarrah NSW 2259, Australia",
    "suburb": "Woongarrah NSW 2259",
    "state": "NSW",
    "rating": 5,
    "reviews": 2,
    "lat": -33.2407249,
    "lng": 151.4592195,
    "place_id": "ChIJsfBTaxPZ7WURhz4K4nAyI-o",
    "maps_url": "https://www.google.com/maps/place/?q=place_id:ChIJsfBTaxPZ7WURhz4K4nAyI-o"
  },
  {
    "name": "TGS Rowland Master Painters & Decorators",
    "address": "101 The Esplanade, Ettalong Beach NSW 2257, Australia",
    "suburb": "Ettalong Beach NSW 2257",
    "state": "NSW",
    "rating": 5,
    "reviews": 13,
    "lat": -33.5207154,
    "lng": 151.3315698,
    "place_id": "ChIJz-h0biKkr4wR_Vp-N7Rhuys",
    "maps_url": "https://www.google.com/maps/place/?q=place_id:ChIJz-h0biKkr4wR_Vp-N7Rhuys"
  },
  {
    "name": "JBC Painting & Decorating",
    "address": "3 Marshall Cl, Kariong NSW 2250, Australia",
    "suburb": "Kariong NSW 2250",
    "state": "NSW",
    "rating": 5,
    "reviews": 2,
    "lat": -33.4322931,
    "lng": 151.2883266,
    "place_id": "ChIJl2uptwlLDWsRmsfeatHzf9A",
    "maps_url": "https://www.google.com/maps/place/?q=place_id:ChIJl2uptwlLDWsRmsfeatHzf9A"
  },
  {
    "name": "TG Painting & Decorating",
    "address": "Bay Rd, Toowoon Bay NSW 2261, Australia",
    "suburb": "Toowoon Bay NSW 2261",
    "state": "NSW",
    "rating": 5,
    "reviews": 6,
    "lat": -33.3618023,
    "lng": 151.4984181,
    "place_id": "ChIJ8aqPL2tBeAoR8DadH884gGw",
    "maps_url": "https://www.google.com/maps/place/?q=place_id:ChIJ8aqPL2tBeAoR8DadH884gGw"
  },
  {
    "name": "Painter & Decorator",
    "address": "1 Penrith St, Jamisontown NSW 2750, Australia",
    "suburb": "Jamisontown NSW 2750",
    "state": "NSW",
    "rating": 4.8,
    "reviews": 20,
    "lat": -33.766514,
    "lng": 150.6831547,
    "place_id": "ChIJM8pTjf-PEmsRYvA0f3I-m0M",
    "maps_url": "https://www.google.com/maps/place/?q=place_id:ChIJM8pTjf-PEmsRYvA0f3I-m0M"
  },
  {
    "name": "All Star Painting & Decorating",
    "address": "42 Castlereagh St, Penrith NSW 2750, Australia",
    "suburb": "Penrith NSW 2750",
    "state": "NSW",
    "rating": 5,
    "reviews": 7,
    "lat": -33.7572558,
    "lng": 150.6976038,
    "place_id": "ChIJE8T77QMxGqIRBkDUY4vWJXg",
    "maps_url": "https://www.google.com/maps/place/?q=place_id:ChIJE8T77QMxGqIRBkDUY4vWJXg"
  },
  {
    "name": "Lower Mountains Painting",
    "address": "Great Western Hwy, Blaxland NSW 2774, Australia",
    "suburb": "Blaxland NSW 2774",
    "state": "NSW",
    "rating": 5,
    "reviews": 34,
    "lat": -33.7440131,
    "lng": 150.609506,
    "place_id": "ChIJY667gASFEmsRTWQRkE4745k",
    "maps_url": "https://www.google.com/maps/place/?q=place_id:ChIJY667gASFEmsRTWQRkE4745k"
  },
  {
    "name": "Rad Painting & Decoration Painters",
    "address": "39 Koloona Dr, Emu Plains NSW 2750, Australia",
    "suburb": "Emu Plains NSW 2750",
    "state": "NSW",
    "rating": 5,
    "reviews": 93,
    "lat": -33.7468743,
    "lng": 150.6463175,
    "place_id": "ChIJ6WEtZ-WjEmsR7Zpt62CE7Tc",
    "maps_url": "https://www.google.com/maps/place/?q=place_id:ChIJ6WEtZ-WjEmsR7Zpt62CE7Tc"
  },
  {
    "name": "Brilliant Coatings Painting & Decorating",
    "address": "Unit G.50/1 David Rd, Emu Plains NSW 2750, Australia",
    "suburb": "Emu Plains NSW 2750",
    "state": "NSW",
    "rating": 4.9,
    "reviews": 30,
    "lat": -33.7430567,
    "lng": 150.66248,
    "place_id": "ChIJQ49MM8qPEmsR-Nc2ekRZf68",
    "maps_url": "https://www.google.com/maps/place/?q=place_id:ChIJQ49MM8qPEmsR-Nc2ekRZf68"
  },
  {
    "name": "Blue Mountains Painting",
    "address": "3/575-581 Great Western Hwy, Faulconbridge NSW 2776, Australia",
    "suburb": "Faulconbridge NSW 2776",
    "state": "NSW",
    "rating": 4.9,
    "reviews": 193,
    "lat": -33.6943211,
    "lng": 150.5369826,
    "place_id": "ChIJs1TO3PWHEmsRxH46BpLLORM",
    "maps_url": "https://www.google.com/maps/place/?q=place_id:ChIJs1TO3PWHEmsRxH46BpLLORM"
  },
  {
    "name": "Brian Edwards Painting and Decorating",
    "address": "173 Jamison Rd, Penrith NSW 2750, Australia",
    "suburb": "Penrith NSW 2750",
    "state": "NSW",
    "rating": 5,
    "reviews": 1,
    "lat": -33.7627007,
    "lng": 150.7011888,
    "place_id": "ChIJbZhCZ6OPEmsRtbak6G-2x44",
    "maps_url": "https://www.google.com/maps/place/?q=place_id:ChIJbZhCZ6OPEmsRtbak6G-2x44"
  },
  {
    "name": "MAZ PAINTING",
    "address": "Unit 32/132 Lethbridge St, Penrith NSW 2750, Australia",
    "suburb": "Penrith NSW 2750",
    "state": "NSW",
    "rating": 5,
    "reviews": 11,
    "lat": -33.7563851,
    "lng": 150.6993162,
    "place_id": "ChIJe9fxOAKFEmsR99TvDH1BtKE",
    "maps_url": "https://www.google.com/maps/place/?q=place_id:ChIJe9fxOAKFEmsR99TvDH1BtKE"
  },
  {
    "name": "Pinot & Picasso Penrith - Paint & Sip Penrith",
    "address": "2C/458 High St, Penrith NSW 2750, Australia",
    "suburb": "Penrith NSW 2750",
    "state": "NSW",
    "rating": 4.8,
    "reviews": 116,
    "lat": -33.7534141,
    "lng": 150.6961669,
    "place_id": "ChIJ16FF82SFEmsRWUBbVKpaZJk",
    "maps_url": "https://www.google.com/maps/place/?q=place_id:ChIJ16FF82SFEmsRWUBbVKpaZJk"
  },
  {
    "name": "Expertise Painting Sydney Painter",
    "address": "40 Dagmar Cres, Blacktown NSW 2148, Australia",
    "suburb": "Blacktown NSW 2148",
    "state": "NSW",
    "rating": 5,
    "reviews": 58,
    "lat": -33.7786845,
    "lng": 150.8971487,
    "place_id": "ChIJ__-LtD-jEmsRDCNEuVrbA_Q",
    "maps_url": "https://www.google.com/maps/place/?q=place_id:ChIJ__-LtD-jEmsRDCNEuVrbA_Q"
  },
  {
    "name": "Starlight Painting & Decorating",
    "address": "Glenwood NSW 2768, Australia",
    "suburb": "Australia",
    "state": "NSW",
    "rating": 5,
    "reviews": 52,
    "lat": -33.73986,
    "lng": 150.93857,
    "place_id": "ChIJy4Rt1K2YEmsRobBRP1cE2gI",
    "maps_url": "https://www.google.com/maps/place/?q=place_id:ChIJy4Rt1K2YEmsRobBRP1cE2gI"
  },
  {
    "name": "Colour Spectrum Painting Pty Ltd",
    "address": "11/17-19 Sinclair Ave, Blacktown NSW 2148, Australia",
    "suburb": "Blacktown NSW 2148",
    "state": "NSW",
    "rating": 5,
    "reviews": 15,
    "lat": -33.7822005,
    "lng": 150.9154175,
    "place_id": "ChIJ7eZTksYU-A4RVHABsCDF18o",
    "maps_url": "https://www.google.com/maps/place/?q=place_id:ChIJ7eZTksYU-A4RVHABsCDF18o"
  },
  {
    "name": "Brush Experts | Residential Painting | office painting | Floor Painting | Interior & Exterior Painting NSW",
    "address": "7/18 Ramona St, Quakers Hill NSW 2763, Australia",
    "suburb": "Quakers Hill NSW 2763",
    "state": "NSW",
    "rating": 5,
    "reviews": 77,
    "lat": -33.7281269,
    "lng": 150.8893102,
    "place_id": "ChIJFRyu0aCZEmsRnJrSQolFfD0",
    "maps_url": "https://www.google.com/maps/place/?q=place_id:ChIJFRyu0aCZEmsRnJrSQolFfD0"
  },
  {
    "name": "Finesky Painting",
    "address": "28 Patrick St, Blacktown NSW 2148, Australia",
    "suburb": "Blacktown NSW 2148",
    "state": "NSW",
    "rating": 5,
    "reviews": 14,
    "lat": -33.7724872,
    "lng": 150.9063152,
    "place_id": "ChIJHWYh04T5f2gRyby6xI7Ykgg",
    "maps_url": "https://www.google.com/maps/place/?q=place_id:ChIJHWYh04T5f2gRyby6xI7Ykgg"
  },
  {
    "name": "S T Painting & Decorating PTY LTD",
    "address": "27 Dan Ave, Blacktown NSW 2148, Australia",
    "suburb": "Blacktown NSW 2148",
    "state": "NSW",
    "rating": 5,
    "reviews": 1,
    "lat": -33.76208210000001,
    "lng": 150.8961717,
    "place_id": "ChIJSQdZ1CSZEmsRAd-GGrEylww",
    "maps_url": "https://www.google.com/maps/place/?q=place_id:ChIJSQdZ1CSZEmsRAd-GGrEylww"
  },
  {
    "name": "paint point",
    "address": "lalor rd, Blacktown NSW 2148, Australia",
    "suburb": "Blacktown NSW 2148",
    "state": "NSW",
    "rating": 5,
    "reviews": 5,
    "lat": -33.735879,
    "lng": 150.9263905,
    "place_id": "ChIJV7EoxNBOIQERE_6UmGG668U",
    "maps_url": "https://www.google.com/maps/place/?q=place_id:ChIJV7EoxNBOIQERE_6UmGG668U"
  },
  {
    "name": "Pacific Bros Painting",
    "address": "20 Nathaniel Parade, Kings Langley NSW 2147, Australia",
    "suburb": "Kings Langley NSW 2147",
    "state": "NSW",
    "rating": 4.6,
    "reviews": 11,
    "lat": -33.7523,
    "lng": 150.931771,
    "place_id": "ChIJDcwqJM-YEmsRN7O-Ep7JrCE",
    "maps_url": "https://www.google.com/maps/place/?q=place_id:ChIJDcwqJM-YEmsRN7O-Ep7JrCE"
  },
  {
    "name": "Shaun’s Handyman & Painting Services Blacktown",
    "address": "35 Julie St, Blacktown NSW 2148, Australia",
    "suburb": "Blacktown NSW 2148",
    "state": "NSW",
    "rating": 4.7,
    "reviews": 63,
    "lat": -33.7852956,
    "lng": 150.9032154,
    "place_id": "ChIJJTvAVuAlbWURXw28S_LmZcA",
    "maps_url": "https://www.google.com/maps/place/?q=place_id:ChIJJTvAVuAlbWURXw28S_LmZcA"
  },
  {
    "name": "Transform Painting And Decorating",
    "address": "Greenview Parade, The Ponds NSW 2769, Australia",
    "suburb": "The Ponds NSW 2769",
    "state": "NSW",
    "rating": 5,
    "reviews": 79,
    "lat": -33.700107,
    "lng": 150.9059032,
    "place_id": "ChIJ51RH7tWZEmsR9pCPk6yGpq4",
    "maps_url": "https://www.google.com/maps/place/?q=place_id:ChIJ51RH7tWZEmsR9pCPk6yGpq4"
  },
  {
    "name": "Rudi's Painting Services",
    "address": "8 Torres Pl, Kings Langley NSW 2147, Australia",
    "suburb": "Kings Langley NSW 2147",
    "state": "NSW",
    "rating": 5,
    "reviews": 15,
    "lat": -33.7423686,
    "lng": 150.9269265,
    "place_id": "ChIJt2lZH8mYEmsRjOpapYwCBFw",
    "maps_url": "https://www.google.com/maps/place/?q=place_id:ChIJt2lZH8mYEmsRjOpapYwCBFw"
  },
  {
    "name": "Panther painter",
    "address": "unit 23 54/62 Nijong Dr, Pemulwuy NSW 2145, Australia",
    "suburb": "Pemulwuy NSW 2145",
    "state": "NSW",
    "rating": 5,
    "reviews": 70,
    "lat": -33.814165,
    "lng": 150.9315054,
    "place_id": "ChIJb8RjiKmZEmsRi3_vP_LE_cI",
    "maps_url": "https://www.google.com/maps/place/?q=place_id:ChIJb8RjiKmZEmsRi3_vP_LE_cI"
  },
  {
    "name": "Merseyside Painting",
    "address": "Moorcroft Rd, Liverpool L18 9UQ, UK",
    "suburb": "Liverpool L18 9UQ",
    "state": "NSW",
    "rating": 5,
    "reviews": 38,
    "lat": 53.37170709999999,
    "lng": -2.895478,
    "place_id": "ChIJxcBWpB4ge0gRil2qKhP7QxI",
    "maps_url": "https://www.google.com/maps/place/?q=place_id:ChIJxcBWpB4ge0gRil2qKhP7QxI"
  },
  {
    "name": "Olivares Maintenance & Painting Services",
    "address": "Moore St, Liverpool NSW 2170, Australia",
    "suburb": "Liverpool NSW 2170",
    "state": "NSW",
    "rating": 5,
    "reviews": 20,
    "lat": -33.922004,
    "lng": 150.9180758,
    "place_id": "ChIJ9YeiiiyVEmsRAglQ69FM9NE",
    "maps_url": "https://www.google.com/maps/place/?q=place_id:ChIJ9YeiiiyVEmsRAglQ69FM9NE"
  },
  {
    "name": "ART LINES PAINTING & DECORATION",
    "address": "33 West St, Lurnea NSW 2170, Australia",
    "suburb": "Lurnea NSW 2170",
    "state": "NSW",
    "rating": 5,
    "reviews": 30,
    "lat": -33.9346436,
    "lng": 150.8921729,
    "place_id": "ChIJu5tLH5yVEmsRM-L4m8dd0J8",
    "maps_url": "https://www.google.com/maps/place/?q=place_id:ChIJu5tLH5yVEmsRM-L4m8dd0J8"
  },
  {
    "name": "AC Painters & Decorators",
    "address": "Springs Cl, Liverpool, Bootle L20 3UA, UK",
    "suburb": "Liverpool",
    "state": "NSW",
    "rating": 4.9,
    "reviews": 58,
    "lat": 53.452393,
    "lng": -2.9865486,
    "place_id": "ChIJUwjzo-8je0gRpC9wjKk3OnQ",
    "maps_url": "https://www.google.com/maps/place/?q=place_id:ChIJUwjzo-8je0gRpC9wjKk3OnQ"
  },
  {
    "name": "Allstrokes Painting",
    "address": "22/274-276 Hoxton Park Rd, Prestons NSW 2170, Australia",
    "suburb": "Prestons NSW 2170",
    "state": "NSW",
    "rating": 5,
    "reviews": 23,
    "lat": -33.92882549999999,
    "lng": 150.8903007,
    "place_id": "ChIJSVL5ME6VEmsRCgMWhEj2L8M",
    "maps_url": "https://www.google.com/maps/place/?q=place_id:ChIJSVL5ME6VEmsRCgMWhEj2L8M"
  },
  {
    "name": "Luxury Plus Painting Decorating",
    "address": "30 Vito Glade, Riverstone NSW 2765, Australia",
    "suburb": "Riverstone NSW 2765",
    "state": "NSW",
    "rating": 5,
    "reviews": 35,
    "lat": -33.6729523,
    "lng": 150.8749244,
    "place_id": "ChIJa_COk8qZEmsRfYAI3mslIYk",
    "maps_url": "https://www.google.com/maps/place/?q=place_id:ChIJa_COk8qZEmsRfYAI3mslIYk"
  },
  {
    "name": "Opal Painting & Decorations Sydney",
    "address": "13 Padua Cl, Prestons NSW 2170, Australia",
    "suburb": "Prestons NSW 2170",
    "state": "NSW",
    "rating": 5,
    "reviews": 3,
    "lat": -33.9438475,
    "lng": 150.868682,
    "place_id": "ChIJwcaHstqVEmsRWAlzgyc8YIE",
    "maps_url": "https://www.google.com/maps/place/?q=place_id:ChIJwcaHstqVEmsRWAlzgyc8YIE"
  },
  {
    "name": "ProLux Professionals",
    "address": "3/5 Goldfinch St, Moorebank NSW 2170, Australia",
    "suburb": "Moorebank NSW 2170",
    "state": "NSW",
    "rating": 5,
    "reviews": 9,
    "lat": -33.9365513,
    "lng": 150.9466472,
    "place_id": "ChIJjYmG9iqVEmsRaF2GgLpbp2o",
    "maps_url": "https://www.google.com/maps/place/?q=place_id:ChIJjYmG9iqVEmsRaF2GgLpbp2o"
  },
  {
    "name": "NBN DECORATORS",
    "address": "Liverpool, Merseyside L27, UK",
    "suburb": "Merseyside L27",
    "state": "NSW",
    "rating": 4.9,
    "reviews": 45,
    "lat": 53.3866083,
    "lng": -2.8397628,
    "place_id": "ChIJCYD6YXQfe0gRFuPY-M0Xu_0",
    "maps_url": "https://www.google.com/maps/place/?q=place_id:ChIJCYD6YXQfe0gRFuPY-M0Xu_0"
  },
  {
    "name": "Budget Painting and Decorating",
    "address": "32/10 Lachlan St, Liverpool NSW 2170, Australia",
    "suburb": "Liverpool NSW 2170",
    "state": "NSW",
    "rating": null,
    "reviews": 0,
    "lat": -33.916148,
    "lng": 150.926848,
    "place_id": "ChIJVVWxG8GVEmsRlNwYHyy66a8",
    "maps_url": "https://www.google.com/maps/place/?q=place_id:ChIJVVWxG8GVEmsRlNwYHyy66a8"
  },
  {
    "name": "DEC painting group pty ltd",
    "address": "4/6 8De Meyrick Ave, Casula NSW 2170, Australia",
    "suburb": "Casula NSW 2170",
    "state": "NSW",
    "rating": 5,
    "reviews": 7,
    "lat": -33.9434088,
    "lng": 150.9082543,
    "place_id": "ChIJeww-O76VEmsRF4jgQbo4ojE",
    "maps_url": "https://www.google.com/maps/place/?q=place_id:ChIJeww-O76VEmsRF4jgQbo4ojE"
  },
  {
    "name": "okeir painting services PTY LTD",
    "address": "2 Pensacola Pl, Casula NSW 2170, Australia",
    "suburb": "Casula NSW 2170",
    "state": "NSW",
    "rating": 4.8,
    "reviews": 6,
    "lat": -33.9406402,
    "lng": 150.9130853,
    "place_id": "ChIJYSP-_8OVEmsRmciZVEz_18Q",
    "maps_url": "https://www.google.com/maps/place/?q=place_id:ChIJYSP-_8OVEmsRmciZVEz_18Q"
  },
  {
    "name": "Steve painting services",
    "address": "8 Castlereagh St, Liverpool NSW 2170, Australia",
    "suburb": "Liverpool NSW 2170",
    "state": "NSW",
    "rating": null,
    "reviews": 0,
    "lat": -33.9158296,
    "lng": 150.9216669,
    "place_id": "ChIJMcR8liqVEmsRGw7Ij24woS8",
    "maps_url": "https://www.google.com/maps/place/?q=place_id:ChIJMcR8liqVEmsRGw7Ij24woS8"
  },
  {
    "name": "New Tone painting and decorating",
    "address": "113 Macquarie Ave, Campbelltown NSW 2560, Australia",
    "suburb": "Campbelltown NSW 2560",
    "state": "NSW",
    "rating": 4.9,
    "reviews": 79,
    "lat": -34.0689366,
    "lng": 150.8271615,
    "place_id": "ChIJpf9KN2DvEmsR2O4zUj5-quc",
    "maps_url": "https://www.google.com/maps/place/?q=place_id:ChIJpf9KN2DvEmsR2O4zUj5-quc"
  },
  {
    "name": "Lexi Painting - Painting & Decorating",
    "address": "1/4 Rose St, Campbelltown NSW 2560, Australia",
    "suburb": "Campbelltown NSW 2560",
    "state": "NSW",
    "rating": 5,
    "reviews": 12,
    "lat": -34.0568746,
    "lng": 150.8186987,
    "place_id": "ChIJpcqfVYUgzg0RfMNm32Uu2Fo",
    "maps_url": "https://www.google.com/maps/place/?q=place_id:ChIJpcqfVYUgzg0RfMNm32Uu2Fo"
  },
  {
    "name": "Tibetan Painting",
    "address": "2b Lachlan Pl, Campbelltown NSW 2560, Australia",
    "suburb": "Campbelltown NSW 2560",
    "state": "NSW",
    "rating": 5,
    "reviews": 10,
    "lat": -34.07784669999999,
    "lng": 150.819471,
    "place_id": "ChIJ48g7NUoyliwRdK4X0E4M4_w",
    "maps_url": "https://www.google.com/maps/place/?q=place_id:ChIJ48g7NUoyliwRdK4X0E4M4_w"
  },
  {
    "name": "Perfect Touch Paintings",
    "address": "36 Welling Dr, Narellan Vale NSW 2567, Australia",
    "suburb": "Narellan Vale NSW 2567",
    "state": "NSW",
    "rating": 4.9,
    "reviews": 30,
    "lat": -34.0594024,
    "lng": 150.7397958,
    "place_id": "ChIJTWSrhse-EmsRbtx4XJbb4u4",
    "maps_url": "https://www.google.com/maps/place/?q=place_id:ChIJTWSrhse-EmsRbtx4XJbb4u4"
  },
  {
    "name": "Samco Painting and Decorating Sydney",
    "address": "120 Lockheed St, Raby NSW 2566, Australia",
    "suburb": "Raby NSW 2566",
    "state": "NSW",
    "rating": 5,
    "reviews": 34,
    "lat": -34.0278455,
    "lng": 150.8181685,
    "place_id": "ChIJP0Tqg3_tEmsRyqChf7UiNo0",
    "maps_url": "https://www.google.com/maps/place/?q=place_id:ChIJP0Tqg3_tEmsRyqChf7UiNo0"
  },
  {
    "name": "Perfect House Painting Group",
    "address": "11 Monfarville St, St Marys NSW 2760, Australia",
    "suburb": "St Marys NSW 2760",
    "state": "NSW",
    "rating": 5,
    "reviews": 29,
    "lat": -33.7720208,
    "lng": 150.7771905,
    "place_id": "ChIJa7AlMpALDggRgBanzjWJNNE",
    "maps_url": "https://www.google.com/maps/place/?q=place_id:ChIJa7AlMpALDggRgBanzjWJNNE"
  },
  {
    "name": "JSPD PAINTING SERVICES",
    "address": "Broughton St, Campbelltown NSW 2560, Australia",
    "suburb": "Campbelltown NSW 2560",
    "state": "NSW",
    "rating": 5,
    "reviews": 2,
    "lat": -34.0677249,
    "lng": 150.8204829,
    "place_id": "ChIJhXQ2JUfvEmsR-yepJHA5Yrc",
    "maps_url": "https://www.google.com/maps/place/?q=place_id:ChIJhXQ2JUfvEmsR-yepJHA5Yrc"
  },
  {
    "name": "Alex Painting & decoration",
    "address": "305/27-29 Percy St, Bankstown NSW 2200, Australia",
    "suburb": "Bankstown NSW 2200",
    "state": "NSW",
    "rating": 4.9,
    "reviews": 31,
    "lat": -33.9230825,
    "lng": 151.0369241,
    "place_id": "ChIJfeQZHzW9EmsRy5P2D0o4pP4",
    "maps_url": "https://www.google.com/maps/place/?q=place_id:ChIJfeQZHzW9EmsRy5P2D0o4pP4"
  },
  {
    "name": "All Saints Painting and Decorating",
    "address": "2 Leichhardt St, Ruse NSW 2560, Australia",
    "suburb": "Ruse NSW 2560",
    "state": "NSW",
    "rating": 5,
    "reviews": 7,
    "lat": -34.0616209,
    "lng": 150.8439018,
    "place_id": "ChIJYTNcpIzvEmsRMXOrPBr_w_Q",
    "maps_url": "https://www.google.com/maps/place/?q=place_id:ChIJYTNcpIzvEmsRMXOrPBr_w_Q"
  },
  {
    "name": "SK Group Oz",
    "address": "Unit 1/72 Canterbury Rd, Bankstown NSW 2200, Australia",
    "suburb": "Bankstown NSW 2200",
    "state": "NSW",
    "rating": 4.9,
    "reviews": 60,
    "lat": -33.9346425,
    "lng": 151.0335356,
    "place_id": "ChIJwc5qN5C-EmsR1hQmsDXfOAs",
    "maps_url": "https://www.google.com/maps/place/?q=place_id:ChIJwc5qN5C-EmsR1hQmsDXfOAs"
  },
  {
    "name": "Done Painting & Decorating",
    "address": "57-59 Wattle St, Punchbowl NSW 2196, Australia",
    "suburb": "Punchbowl NSW 2196",
    "state": "NSW",
    "rating": 5,
    "reviews": 1,
    "lat": -33.9166113,
    "lng": 151.0576026,
    "place_id": "ChIJpStPIAePZE4RnLntLuc0b_0",
    "maps_url": "https://www.google.com/maps/place/?q=place_id:ChIJpStPIAePZE4RnLntLuc0b_0"
  },
  {
    "name": "Focus Painting Contractors Pty Ltd",
    "address": "101/13 Weyland St, Punchbowl NSW 2196, Australia",
    "suburb": "Punchbowl NSW 2196",
    "state": "NSW",
    "rating": 5,
    "reviews": 5,
    "lat": -33.933225,
    "lng": 151.0434975,
    "place_id": "ChIJ4y2F7tq_EmsRpmx2cS4mRvA",
    "maps_url": "https://www.google.com/maps/place/?q=place_id:ChIJ4y2F7tq_EmsRpmx2cS4mRvA"
  },
  {
    "name": "Petra for painting and decoration services",
    "address": "3 East Terrace, Bankstown NSW 2200, Australia",
    "suburb": "Bankstown NSW 2200",
    "state": "NSW",
    "rating": null,
    "reviews": 0,
    "lat": -33.918618,
    "lng": 151.0382659,
    "place_id": "ChIJy4HHI0K9EmsRHvGPJn-mqKY",
    "maps_url": "https://www.google.com/maps/place/?q=place_id:ChIJy4HHI0K9EmsRHvGPJn-mqKY"
  },
  {
    "name": "Good Painting",
    "address": "52 St Charbel Way, Punchbowl NSW 2196, Australia",
    "suburb": "Punchbowl NSW 2196",
    "state": "NSW",
    "rating": 5,
    "reviews": 1,
    "lat": -33.9162681,
    "lng": 151.0547069,
    "place_id": "ChIJf9p3lAi7EmsRRKxXSzLIBjs",
    "maps_url": "https://www.google.com/maps/place/?q=place_id:ChIJf9p3lAi7EmsRRKxXSzLIBjs"
  },
  {
    "name": "A1 Professional Painting &Decorating PTY LTD",
    "address": "Unit 3/94 Highclere Ave, Punchbowl NSW 2196, Australia",
    "suburb": "Punchbowl NSW 2196",
    "state": "NSW",
    "rating": 5,
    "reviews": 11,
    "lat": -33.9209957,
    "lng": 151.0555703,
    "place_id": "ChIJ5ZNyeMq7EmsR8dp-hoX4Zj0",
    "maps_url": "https://www.google.com/maps/place/?q=place_id:ChIJ5ZNyeMq7EmsR8dp-hoX4Zj0"
  },
  {
    "name": "Sydney Metro Painting",
    "address": "Unit 2/36 Chestnut Rd, Auburn NSW 2144, Australia",
    "suburb": "Auburn NSW 2144",
    "state": "NSW",
    "rating": 5,
    "reviews": 34,
    "lat": -33.8580633,
    "lng": 151.0250286,
    "place_id": "ChIJseZud7CjEmsR3yHoajBIkds",
    "maps_url": "https://www.google.com/maps/place/?q=place_id:ChIJseZud7CjEmsR3yHoajBIkds"
  },
  {
    "name": "F&S Painting Services",
    "address": "2A Help St, Chatswood NSW 2067, Australia",
    "suburb": "Chatswood NSW 2067",
    "state": "NSW",
    "rating": 5,
    "reviews": 35,
    "lat": -33.7952816,
    "lng": 151.1820209,
    "place_id": "ChIJz13s4ae8EmsRiWvxolVAq-U",
    "maps_url": "https://www.google.com/maps/place/?q=place_id:ChIJz13s4ae8EmsRiWvxolVAq-U"
  },
  {
    "name": "VVD Painting Pty Ltd",
    "address": "Suite 202 A/781 Pacific Hwy, Chatswood NSW 2067, Australia",
    "suburb": "Chatswood NSW 2067",
    "state": "NSW",
    "rating": 4.9,
    "reviews": 24,
    "lat": -33.7986768,
    "lng": 151.1789563,
    "place_id": "ChIJFedT5aO7EmsR68C5vVd8JMI",
    "maps_url": "https://www.google.com/maps/place/?q=place_id:ChIJFedT5aO7EmsR68C5vVd8JMI"
  },
  {
    "name": "AA Active Master Painters",
    "address": "1 Peppercorn Dr, Frenchs Forest NSW 2086, Australia",
    "suburb": "Frenchs Forest NSW 2086",
    "state": "NSW",
    "rating": 5,
    "reviews": 60,
    "lat": -33.74081,
    "lng": 151.23371,
    "place_id": "ChIJEeKtlwKqEmsRMm-55x5IdUQ",
    "maps_url": "https://www.google.com/maps/place/?q=place_id:ChIJEeKtlwKqEmsRMm-55x5IdUQ"
  },
  {
    "name": "Colour Life Painting",
    "address": "Unit 14/2A Bruce Ave, Killara NSW 2071, Australia",
    "suburb": "Killara NSW 2071",
    "state": "NSW",
    "rating": 5,
    "reviews": 141,
    "lat": -33.7612918,
    "lng": 151.155556,
    "place_id": "ChIJP3LDZwiiEmsRGSVr-zSGYwM",
    "maps_url": "https://www.google.com/maps/place/?q=place_id:ChIJP3LDZwiiEmsRGSVr-zSGYwM"
  },
  {
    "name": "2 Coats Painting & Decorating",
    "address": "Unit 12/4 Brand St, Artarmon NSW 2064, Australia",
    "suburb": "Artarmon NSW 2064",
    "state": "NSW",
    "rating": 5,
    "reviews": 33,
    "lat": -33.8070575,
    "lng": 151.1840416,
    "place_id": "ChIJP5oD682uEmsRGHC35M71JvY",
    "maps_url": "https://www.google.com/maps/place/?q=place_id:ChIJP5oD682uEmsRGHC35M71JvY"
  },
  {
    "name": "Zest Painting and Decorating",
    "address": "Chowne Pl, Middle Cove NSW 2068, Australia",
    "suburb": "Middle Cove NSW 2068",
    "state": "NSW",
    "rating": 5,
    "reviews": 10,
    "lat": -33.7889511,
    "lng": 151.2037904,
    "place_id": "ChIJIxU6yN2pEmsRjktEZtDy0bo",
    "maps_url": "https://www.google.com/maps/place/?q=place_id:ChIJIxU6yN2pEmsRjktEZtDy0bo"
  },
  {
    "name": "7 Colours Painting and Maintenance House Painters",
    "address": "Covering Ryde, Hunters Hill, Drummoyne, Balmain, Chiswick, Chatswood, Pymble Mosman, Forestville, Willoughby, Lilyfield, St Ives, Crows Nest, Manly, Gordon, 501/10 Waterview Dr, Lane Cove NSW 2066, Australia",
    "suburb": "Hunters Hill",
    "state": "NSW",
    "rating": 5,
    "reviews": 53,
    "lat": -33.822244,
    "lng": 151.1500144,
    "place_id": "ChIJe_sMVoCvEmsRz8Idv_WtYTc",
    "maps_url": "https://www.google.com/maps/place/?q=place_id:ChIJe_sMVoCvEmsRz8Idv_WtYTc"
  },
  {
    "name": "Dream7 painting",
    "address": "Australia, New South Wales, Chatswood, 38-40",
    "suburb": "New South Wales",
    "state": "NSW",
    "rating": 5,
    "reviews": 2,
    "lat": -33.7960696,
    "lng": 151.1780469,
    "place_id": "ChIJY4Qn8aupEmsRVxpYi06HKqc",
    "maps_url": "https://www.google.com/maps/place/?q=place_id:ChIJY4Qn8aupEmsRVxpYi06HKqc"
  },
  {
    "name": "Multistyle Painting & Decorating PTY LTD",
    "address": "Shop 4/96 Longueville Rd, Lane Cove NSW 2066, Australia",
    "suburb": "Lane Cove NSW 2066",
    "state": "NSW",
    "rating": 5,
    "reviews": 41,
    "lat": -33.813649,
    "lng": 151.1704303,
    "place_id": "ChIJHyQumMavEmsRHMfQw92DFOE",
    "maps_url": "https://www.google.com/maps/place/?q=place_id:ChIJHyQumMavEmsRHMfQw92DFOE"
  },
  {
    "name": "Sydney Paint and Remedial",
    "address": "87A Edinburgh Rd, Castlecrag NSW 2068, Australia",
    "suburb": "Castlecrag NSW 2068",
    "state": "NSW",
    "rating": 5,
    "reviews": 34,
    "lat": -33.802277,
    "lng": 151.2122784,
    "place_id": "ChIJ_8uZcQqpEmsRKIRJ8kJiZp0",
    "maps_url": "https://www.google.com/maps/place/?q=place_id:ChIJ_8uZcQqpEmsRKIRJ8kJiZp0"
  },
  {
    "name": "AUC Painting services Pty Ltd",
    "address": "701 Pacific Hwy, Chatswood NSW 2067, Australia",
    "suburb": "Chatswood NSW 2067",
    "state": "NSW",
    "rating": 4.7,
    "reviews": 29,
    "lat": -33.800482,
    "lng": 151.1798534,
    "place_id": "ChIJm-UzJACvEmsR6xikP0mogh8",
    "maps_url": "https://www.google.com/maps/place/?q=place_id:ChIJm-UzJACvEmsR6xikP0mogh8"
  },
  {
    "name": "Oppa Painting",
    "address": "2a/17 Rhodes St, West Ryde NSW 2114, Australia",
    "suburb": "West Ryde NSW 2114",
    "state": "NSW",
    "rating": 5,
    "reviews": 86,
    "lat": -33.8111221,
    "lng": 151.0916731,
    "place_id": "ChIJCZ9sxoyjEmsR2jiTYDzEAwY",
    "maps_url": "https://www.google.com/maps/place/?q=place_id:ChIJCZ9sxoyjEmsR2jiTYDzEAwY"
  },
  {
    "name": "H2 Painting",
    "address": "Unit 3/118 Sailors Bay Rd, Northbridge NSW 2063, Australia",
    "suburb": "Northbridge NSW 2063",
    "state": "NSW",
    "rating": 5,
    "reviews": 18,
    "lat": -33.81101,
    "lng": 151.2101303,
    "place_id": "ChIJ0V-NB--uEmsR9gjiqdrtKeo",
    "maps_url": "https://www.google.com/maps/place/?q=place_id:ChIJ0V-NB--uEmsR9gjiqdrtKeo"
  },
  {
    "name": "K Painting",
    "address": "3/1-3 Norma Ave, Eastwood NSW 2122, Australia",
    "suburb": "Eastwood NSW 2122",
    "state": "NSW",
    "rating": 5,
    "reviews": 131,
    "lat": -33.7885698,
    "lng": 151.0945868,
    "place_id": "ChIJAeMecIelEmsR1PZZgEgV-JM",
    "maps_url": "https://www.google.com/maps/place/?q=place_id:ChIJAeMecIelEmsR1PZZgEgV-JM"
  },
  {
    "name": "Whitehouse Painting",
    "address": "5 Davies St, Chatswood NSW 2067, Australia",
    "suburb": "Chatswood NSW 2067",
    "state": "NSW",
    "rating": 5,
    "reviews": 4,
    "lat": -33.7957682,
    "lng": 151.1715509,
    "place_id": "ChIJaxzHfFipEmsR_jahXl7HFtQ",
    "maps_url": "https://www.google.com/maps/place/?q=place_id:ChIJaxzHfFipEmsR_jahXl7HFtQ"
  },
  {
    "name": "Spot On Painting & Decorating",
    "address": "73 Jersey St, Hornsby NSW 2077, Australia",
    "suburb": "Hornsby NSW 2077",
    "state": "NSW",
    "rating": 4.9,
    "reviews": 70,
    "lat": -33.69698899999999,
    "lng": 151.0994472,
    "place_id": "ChIJq6puOjhYDWsR-fjIbw-oSAo",
    "maps_url": "https://www.google.com/maps/place/?q=place_id:ChIJq6puOjhYDWsR-fjIbw-oSAo"
  },
  {
    "name": "Painting by Don",
    "address": "7 Linda St, Hornsby NSW 2077, Australia",
    "suburb": "Hornsby NSW 2077",
    "state": "NSW",
    "rating": 5,
    "reviews": 24,
    "lat": -33.7003182,
    "lng": 151.1040285,
    "place_id": "ChIJd2F5Ec2nEmsRLvspe1szDlM",
    "maps_url": "https://www.google.com/maps/place/?q=place_id:ChIJd2F5Ec2nEmsRLvspe1szDlM"
  },
  {
    "name": "MP PAINTING & DECORATING Sydney, Hornsby Shire",
    "address": "Unit 62/5-15 Balmoral St, Waitara NSW 2077, Australia",
    "suburb": "Waitara NSW 2077",
    "state": "NSW",
    "rating": 5,
    "reviews": 19,
    "lat": -33.7105328,
    "lng": 151.1082586,
    "place_id": "ChIJLTdudnmjEmsR72xemrEKscc",
    "maps_url": "https://www.google.com/maps/place/?q=place_id:ChIJLTdudnmjEmsR72xemrEKscc"
  },
  {
    "name": "PB Painting&Decorating",
    "address": "Unit 72/4-6 Park Ave, Waitara NSW 2077, Australia",
    "suburb": "Waitara NSW 2077",
    "state": "NSW",
    "rating": 5,
    "reviews": 21,
    "lat": -33.7101517,
    "lng": 151.1074169,
    "place_id": "ChIJk_Sq-2inEmsRfkZ_WbWD9c4",
    "maps_url": "https://www.google.com/maps/place/?q=place_id:ChIJk_Sq-2inEmsRfkZ_WbWD9c4"
  },
  {
    "name": "Hornsby Painting Services",
    "address": "541 Pacific Hwy, Mount Colah NSW 2079, Australia",
    "suburb": "Mount Colah NSW 2079",
    "state": "NSW",
    "rating": 5,
    "reviews": 4,
    "lat": -33.6759839,
    "lng": 151.1118079,
    "place_id": "ChIJX7AdjH5YDWsRkwjiUoSgMWE",
    "maps_url": "https://www.google.com/maps/place/?q=place_id:ChIJX7AdjH5YDWsRkwjiUoSgMWE"
  },
  {
    "name": "MJK Painting",
    "address": "11 Haldane St, Asquith NSW 2077, Australia",
    "suburb": "Asquith NSW 2077",
    "state": "NSW",
    "rating": 5,
    "reviews": 36,
    "lat": -33.6890439,
    "lng": 151.1086751,
    "place_id": "ChIJIyfZ3cON9GoRvnUV4Mwp5Zs",
    "maps_url": "https://www.google.com/maps/place/?q=place_id:ChIJIyfZ3cON9GoRvnUV4Mwp5Zs"
  },
  {
    "name": "Jin's Painting",
    "address": "133 Somerville Rd, Hornsby Heights NSW 2127, Australia",
    "suburb": "Hornsby Heights NSW 2127",
    "state": "NSW",
    "rating": 4.8,
    "reviews": 19,
    "lat": -33.6624527,
    "lng": 151.102066,
    "place_id": "ChIJK55xbWClEmsRFZNZDkdnqW4",
    "maps_url": "https://www.google.com/maps/place/?q=place_id:ChIJK55xbWClEmsRFZNZDkdnqW4"
  },
  {
    "name": "Thats The Finish Architectural Finishes Pty Ltd",
    "address": "Unit 5/45-47 Leighton Pl, Hornsby NSW 2077, Australia",
    "suburb": "Hornsby NSW 2077",
    "state": "NSW",
    "rating": 5,
    "reviews": 3,
    "lat": -33.6950924,
    "lng": 151.1158653,
    "place_id": "ChIJHa1CixJZDWsRKqg4CwRtTf8",
    "maps_url": "https://www.google.com/maps/place/?q=place_id:ChIJHa1CixJZDWsRKqg4CwRtTf8"
  },
  {
    "name": "Zizi Painting & Decorating",
    "address": "41_45, Waitara Ave, Hornsby NSW 2077, Australia",
    "suburb": "Waitara Ave",
    "state": "NSW",
    "rating": 5,
    "reviews": 2,
    "lat": -33.7069504,
    "lng": 151.1051884,
    "place_id": "ChIJ0bo2dy6nEmsRDALj_YNQkF0",
    "maps_url": "https://www.google.com/maps/place/?q=place_id:ChIJ0bo2dy6nEmsRDALj_YNQkF0"
  },
  {
    "name": "Himalaya painting Services",
    "address": "7 Park Ave, Waitara NSW 2077, Australia",
    "suburb": "Waitara NSW 2077",
    "state": "NSW",
    "rating": 5,
    "reviews": 5,
    "lat": -33.7096621,
    "lng": 151.1065107,
    "place_id": "ChIJ-VU8qROnEmsRdaJHI8mzuBg",
    "maps_url": "https://www.google.com/maps/place/?q=place_id:ChIJ-VU8qROnEmsRdaJHI8mzuBg"
  },
  {
    "name": "Advanced Painting Pty Ltd",
    "address": "Unit 2/11 Harrington Ave, Castle Hill NSW 2154, Australia",
    "suburb": "Castle Hill NSW 2154",
    "state": "NSW",
    "rating": 4.8,
    "reviews": 56,
    "lat": -33.7184047,
    "lng": 150.9744217,
    "place_id": "ChIJ3QTJUSiiEmsRyWc8VeNT0cw",
    "maps_url": "https://www.google.com/maps/place/?q=place_id:ChIJ3QTJUSiiEmsRyWc8VeNT0cw"
  },
  {
    "name": "Premier Painting Company",
    "address": "15/133-137 Beauchamp Rd, Matraville NSW 2036, Australia",
    "suburb": "Matraville NSW 2036",
    "state": "NSW",
    "rating": 4.9,
    "reviews": 73,
    "lat": -33.957924,
    "lng": 151.224408,
    "place_id": "ChIJ04u49lyxEmsRdYu4hbidcCk",
    "maps_url": "https://www.google.com/maps/place/?q=place_id:ChIJ04u49lyxEmsRdYu4hbidcCk"
  },
  {
    "name": "Pierce & Co. Painting Services",
    "address": "42 Crown Rd, Queenscliff NSW 2096, Australia",
    "suburb": "Queenscliff NSW 2096",
    "state": "NSW",
    "rating": 5,
    "reviews": 36,
    "lat": -33.7822809,
    "lng": 151.2864633,
    "place_id": "ChIJg5ZV9XCrEmsRVYPpQ2bZQpg",
    "maps_url": "https://www.google.com/maps/place/?q=place_id:ChIJg5ZV9XCrEmsRVYPpQ2bZQpg"
  },
  {
    "name": "RG Painters",
    "address": "7/15 Laurence St, Manly NSW 2095, Australia",
    "suburb": "Manly NSW 2095",
    "state": "NSW",
    "rating": 5,
    "reviews": 6,
    "lat": -33.7977886,
    "lng": 151.2778536,
    "place_id": "ChIJh2pfGKerEmsRNCa8nZ26aJ8",
    "maps_url": "https://www.google.com/maps/place/?q=place_id:ChIJh2pfGKerEmsRNCa8nZ26aJ8"
  },
  {
    "name": "Labrador Painting",
    "address": "57B Birkley Rd, Manly NSW 2094, Australia",
    "suburb": "Manly NSW 2094",
    "state": "NSW",
    "rating": 5,
    "reviews": 2,
    "lat": -33.7931233,
    "lng": 151.2807183,
    "place_id": "ChIJDRqPjgerEmsRtvdDBdVLt-E",
    "maps_url": "https://www.google.com/maps/place/?q=place_id:ChIJDRqPjgerEmsRtvdDBdVLt-E"
  },
  {
    "name": "Paintii",
    "address": "282 Sydney Rd, Balgowlah NSW 2093, Australia",
    "suburb": "Balgowlah NSW 2093",
    "state": "NSW",
    "rating": 5,
    "reviews": 3,
    "lat": -33.7945416,
    "lng": 151.2672477,
    "place_id": "ChIJ5QrPE3GrEmsRWqD7TxdEZZ0",
    "maps_url": "https://www.google.com/maps/place/?q=place_id:ChIJ5QrPE3GrEmsRWqD7TxdEZZ0"
  },
  {
    "name": "F.E.L Quality Painting",
    "address": "3 Daintrey St, Fairlight NSW 2094, Australia",
    "suburb": "Fairlight NSW 2094",
    "state": "NSW",
    "rating": 5,
    "reviews": 47,
    "lat": -33.7931167,
    "lng": 151.2769885,
    "place_id": "ChIJAbt4vqSrEmsR_2qNDliBO3U",
    "maps_url": "https://www.google.com/maps/place/?q=place_id:ChIJAbt4vqSrEmsR_2qNDliBO3U"
  },
  {
    "name": "Manly Painter",
    "address": "2 Fairway Cl, Balgowlah NSW 2093, Australia",
    "suburb": "Balgowlah NSW 2093",
    "state": "NSW",
    "rating": null,
    "reviews": 0,
    "lat": -33.7863563,
    "lng": 151.2745054,
    "place_id": "ChIJAQCwiaurEmsRRvaRzVj1jkk",
    "maps_url": "https://www.google.com/maps/place/?q=place_id:ChIJAQCwiaurEmsRRvaRzVj1jkk"
  },
  {
    "name": "Sannybee Painting",
    "address": "7 Pittwater Rd, Manly NSW 2095, Australia",
    "suburb": "Manly NSW 2095",
    "state": "NSW",
    "rating": 5,
    "reviews": 2,
    "lat": -33.7951333,
    "lng": 151.2849229,
    "place_id": "ChIJ8e_vmC-rEmsRhxID5EO0TyQ",
    "maps_url": "https://www.google.com/maps/place/?q=place_id:ChIJ8e_vmC-rEmsRhxID5EO0TyQ"
  },
  {
    "name": "House Painters Northern Beaches",
    "address": "Suite 14/7 Grosvenor Pl, Brookvale NSW 2100, Australia",
    "suburb": "Brookvale NSW 2100",
    "state": "NSW",
    "rating": 5,
    "reviews": 1,
    "lat": -33.7681972,
    "lng": 151.2715446,
    "place_id": "ChIJmTaD8fGrEmsRyI12ffcACyk",
    "maps_url": "https://www.google.com/maps/place/?q=place_id:ChIJmTaD8fGrEmsRyI12ffcACyk"
  },
  {
    "name": "MBD Painting",
    "address": "10 Robert Ave, North Manly NSW 2100, Australia",
    "suburb": "North Manly NSW 2100",
    "state": "NSW",
    "rating": 5,
    "reviews": 1,
    "lat": -33.7690646,
    "lng": 151.2695175,
    "place_id": "ChIJ__8b2VqqEmsR3wNjfmpuCGk",
    "maps_url": "https://www.google.com/maps/place/?q=place_id:ChIJ__8b2VqqEmsR3wNjfmpuCGk"
  },
  {
    "name": "Pittwater Painting & Maintenance Services",
    "address": "2/71 Addison Rd, Manly NSW 2095, Australia",
    "suburb": "Manly NSW 2095",
    "state": "NSW",
    "rating": null,
    "reviews": 0,
    "lat": -33.8024838,
    "lng": 151.2885015,
    "place_id": "ChIJD881ZICrEmsR2ncwBb6fnrg",
    "maps_url": "https://www.google.com/maps/place/?q=place_id:ChIJD881ZICrEmsR2ncwBb6fnrg"
  },
  {
    "name": "Crème de la Crème Decor",
    "address": "Unit 3/31 Dalley St, Queenscliff NSW 2096, Australia",
    "suburb": "Queenscliff NSW 2096",
    "state": "NSW",
    "rating": 5,
    "reviews": 4,
    "lat": -33.78097899999999,
    "lng": 151.2813419,
    "place_id": "ChIJmXBg86OrEmsRmbgXrbGpvCU",
    "maps_url": "https://www.google.com/maps/place/?q=place_id:ChIJmXBg86OrEmsRmbgXrbGpvCU"
  },
  {
    "name": "Innovative Roof Painting",
    "address": "76-80 Kenneth Rd, Manly Vale NSW 2093, Australia",
    "suburb": "Manly Vale NSW 2093",
    "state": "NSW",
    "rating": 5,
    "reviews": 103,
    "lat": -33.7863611,
    "lng": 151.2676534,
    "place_id": "ChIJ9byIVM3htGARVOm7ckVUe-s",
    "maps_url": "https://www.google.com/maps/place/?q=place_id:ChIJ9byIVM3htGARVOm7ckVUe-s"
  },
  {
    "name": "Alex Ace Interiors",
    "address": "5a Raglan St, Manly NSW 2095, Australia",
    "suburb": "Manly NSW 2095",
    "state": "NSW",
    "rating": 5,
    "reviews": 2,
    "lat": -33.7958977,
    "lng": 151.2865197,
    "place_id": "ChIJNSTWcnarEmsR3NvuP1ksgzo",
    "maps_url": "https://www.google.com/maps/place/?q=place_id:ChIJNSTWcnarEmsR3NvuP1ksgzo"
  },
  {
    "name": "Absolute Quality Painting Pty Ltd",
    "address": "75 Curlewis St, Bondi NSW 2026, Australia",
    "suburb": "Bondi NSW 2026",
    "state": "NSW",
    "rating": 4.9,
    "reviews": 62,
    "lat": -33.8873716,
    "lng": 151.2715218,
    "place_id": "ChIJAQCUAJmtEmsRzp9o3e9eoxU",
    "maps_url": "https://www.google.com/maps/place/?q=place_id:ChIJAQCUAJmtEmsRzp9o3e9eoxU"
  },
  {
    "name": "Direct Decor Painting",
    "address": "U36/7-9 Gilbert St, Dover Heights NSW 2030, Australia",
    "suburb": "Dover Heights NSW 2030",
    "state": "NSW",
    "rating": 5,
    "reviews": 43,
    "lat": -33.8707019,
    "lng": 151.2779846,
    "place_id": "ChIJCwT9RyytEmsR8pYpWIw8u28",
    "maps_url": "https://www.google.com/maps/place/?q=place_id:ChIJCwT9RyytEmsR8pYpWIw8u28"
  },
  {
    "name": "Ultimate coatings",
    "address": "unit 15 41/47 Ocean St N, Bondi NSW 2026, Australia",
    "suburb": "Bondi NSW 2026",
    "state": "NSW",
    "rating": 5,
    "reviews": 15,
    "lat": -33.8927794,
    "lng": 151.2621734,
    "place_id": "ChIJC_UPbMPiNEIRdWTcAG96yMQ",
    "maps_url": "https://www.google.com/maps/place/?q=place_id:ChIJC_UPbMPiNEIRdWTcAG96yMQ"
  },
  {
    "name": "NS Painting & Decoration",
    "address": "Unit 14/1A Watt Ave, Ryde NSW 2112, Australia",
    "suburb": "Ryde NSW 2112",
    "state": "NSW",
    "rating": 5,
    "reviews": 14,
    "lat": -33.8106464,
    "lng": 151.1087201,
    "place_id": "ChIJAQDE-qikEmsR2HBFXKKHxaM",
    "maps_url": "https://www.google.com/maps/place/?q=place_id:ChIJAQDE-qikEmsR2HBFXKKHxaM"
  },
  {
    "name": "S.A Brosnan Painting and Decorating",
    "address": "4/33 Read St, Bronte NSW 2024, Australia",
    "suburb": "Bronte NSW 2024",
    "state": "NSW",
    "rating": 5,
    "reviews": 3,
    "lat": -33.8997091,
    "lng": 151.2628619,
    "place_id": "ChIJzTZ1fYmtEmsROUVS8evRAc0",
    "maps_url": "https://www.google.com/maps/place/?q=place_id:ChIJzTZ1fYmtEmsROUVS8evRAc0"
  },
  {
    "name": "House Painters Bondi",
    "address": "Level 22, Tower 2/101 Grafton St, Bondi Junction NSW 2022, Australia",
    "suburb": "Tower 2/101 Grafton St",
    "state": "NSW",
    "rating": null,
    "reviews": 0,
    "lat": -33.8913574,
    "lng": 151.2506962,
    "place_id": "ChIJh3vMiPGtEmsRr7bEO3LCUfY",
    "maps_url": "https://www.google.com/maps/place/?q=place_id:ChIJh3vMiPGtEmsRr7bEO3LCUfY"
  },
  {
    "name": "Dupaint Glebe",
    "address": "137/141 Bridge Rd, Glebe NSW 2037, Australia",
    "suburb": "Glebe NSW 2037",
    "state": "NSW",
    "rating": 5,
    "reviews": 27,
    "lat": -33.8789662,
    "lng": 151.1858215,
    "place_id": "ChIJvx8QGxyvEmsRtZTiceGUTxo",
    "maps_url": "https://www.google.com/maps/place/?q=place_id:ChIJvx8QGxyvEmsRtZTiceGUTxo"
  },
  {
    "name": "Italian Touch Handyman",
    "address": "78 Curlewis St, Bondi Beach NSW 2026, Australia",
    "suburb": "Bondi Beach NSW 2026",
    "state": "NSW",
    "rating": 5,
    "reviews": 7,
    "lat": -33.887195,
    "lng": 151.271812,
    "place_id": "ChIJ18B--HkHoogRCnQzrWWviAs",
    "maps_url": "https://www.google.com/maps/place/?q=place_id:ChIJ18B--HkHoogRCnQzrWWviAs"
  },
  {
    "name": "Bondi paints",
    "address": "Penkivil St, Bondi NSW 2026, Australia",
    "suburb": "Bondi NSW 2026",
    "state": "NSW",
    "rating": 5,
    "reviews": 3,
    "lat": -33.8917715,
    "lng": 151.2616119,
    "place_id": "ChIJgQ3MeKutEmsR_mnd0erk3o8",
    "maps_url": "https://www.google.com/maps/place/?q=place_id:ChIJgQ3MeKutEmsR_mnd0erk3o8"
  },
  {
    "name": "Timeframe Group",
    "address": "125 Banksia St, Botany NSW 2019, Australia",
    "suburb": "Botany NSW 2019",
    "state": "NSW",
    "rating": 4.9,
    "reviews": 60,
    "lat": -33.9431215,
    "lng": 151.2062002,
    "place_id": "ChIJsa4kmiSwEmsRZSsnTGmL8jw",
    "maps_url": "https://www.google.com/maps/place/?q=place_id:ChIJsa4kmiSwEmsRZSsnTGmL8jw"
  },
  {
    "name": "A One Korean Painting",
    "address": "35 Maud St, Lidcombe NSW 2141, Australia",
    "suburb": "Lidcombe NSW 2141",
    "state": "NSW",
    "rating": 4.7,
    "reviews": 66,
    "lat": -33.8591529,
    "lng": 151.0485498,
    "place_id": "ChIJO8FNBqG8EmsRe3j-1ff-Y_g",
    "maps_url": "https://www.google.com/maps/place/?q=place_id:ChIJO8FNBqG8EmsRe3j-1ff-Y_g"
  },
  {
    "name": "Painting services sydney",
    "address": "259 Bondi Rd, Bondi NSW 2026, Australia",
    "suburb": "Bondi NSW 2026",
    "state": "NSW",
    "rating": null,
    "reviews": 0,
    "lat": -33.8942351,
    "lng": 151.2655698,
    "place_id": "ChIJGR24zI-tEmsRl7GAfEKNrYU",
    "maps_url": "https://www.google.com/maps/place/?q=place_id:ChIJGR24zI-tEmsRl7GAfEKNrYU"
  },
  {
    "name": "Heritage Painters Pty Ltd",
    "address": "4/330 King St, Newtown NSW 2042, Australia",
    "suburb": "Newtown NSW 2042",
    "state": "NSW",
    "rating": 5,
    "reviews": 6,
    "lat": -33.898236,
    "lng": 151.1788515,
    "place_id": "ChIJZV7C4DawEmsRox7IJyKVqzI",
    "maps_url": "https://www.google.com/maps/place/?q=place_id:ChIJZV7C4DawEmsRox7IJyKVqzI"
  },
  {
    "name": "Dope Deco",
    "address": "St Peters NSW 2044, Australia",
    "suburb": "Australia",
    "state": "NSW",
    "rating": 5,
    "reviews": 14,
    "lat": -33.9153853,
    "lng": 151.1745696,
    "place_id": "ChIJTTFi2E6wEmsRqaiEOhjQ98g",
    "maps_url": "https://www.google.com/maps/place/?q=place_id:ChIJTTFi2E6wEmsRqaiEOhjQ98g"
  },
  {
    "name": "Brush and Sip",
    "address": "547 King St, Newtown NSW 2042, Australia",
    "suburb": "Newtown NSW 2042",
    "state": "NSW",
    "rating": 4.7,
    "reviews": 83,
    "lat": -33.9037331,
    "lng": 151.1797508,
    "place_id": "ChIJKWL-nEmwEmsR87pOiYZrWu0",
    "maps_url": "https://www.google.com/maps/place/?q=place_id:ChIJKWL-nEmwEmsR87pOiYZrWu0"
  },
  {
    "name": "Andrew Harper Painting & Decorating",
    "address": "4/554 Thurgoona St, Albury NSW 2640, Australia",
    "suburb": "Albury NSW 2640",
    "state": "NSW",
    "rating": 5,
    "reviews": 28,
    "lat": -36.0771747,
    "lng": 146.909404,
    "place_id": "ChIJW1gv4p9fIWsRuF-2P342dqA",
    "maps_url": "https://www.google.com/maps/place/?q=place_id:ChIJW1gv4p9fIWsRuF-2P342dqA"
  },
  {
    "name": "Westhill Painting",
    "address": "Unit 1/1 Skipton Ct, Wodonga VIC 3690, Australia",
    "suburb": "Wodonga VIC 3690",
    "state": "NSW",
    "rating": 4.8,
    "reviews": 28,
    "lat": -36.1293422,
    "lng": 146.9073549,
    "place_id": "ChIJmwLUox2pJgMRZ0PsWVXoqX4",
    "maps_url": "https://www.google.com/maps/place/?q=place_id:ChIJmwLUox2pJgMRZ0PsWVXoqX4"
  },
  {
    "name": "Ellison Painting - Wodonga",
    "address": "3 Davis Ct, Tangambalanga VIC 3691, Australia",
    "suburb": "Tangambalanga VIC 3691",
    "state": "NSW",
    "rating": 5,
    "reviews": 18,
    "lat": -36.2475321,
    "lng": 147.0423963,
    "place_id": "ChIJGSV9Xqb7I2sRf_0Q65Gxr6U",
    "maps_url": "https://www.google.com/maps/place/?q=place_id:ChIJGSV9Xqb7I2sRf_0Q65Gxr6U"
  },
  {
    "name": "Albury painting",
    "address": "Lavington NSW 2641, Australia",
    "suburb": "Australia",
    "state": "NSW",
    "rating": 5,
    "reviews": 4,
    "lat": -36.03036549999999,
    "lng": 146.9548653,
    "place_id": "ChIJL5NJOAzfI2sRIAU0iOzMEnc",
    "maps_url": "https://www.google.com/maps/place/?q=place_id:ChIJL5NJOAzfI2sRIAU0iOzMEnc"
  },
  {
    "name": "Expert Painting And Cleaning Service",
    "address": "258 Wantigong St, North Albury NSW 2640, Australia",
    "suburb": "North Albury NSW 2640",
    "state": "NSW",
    "rating": 5,
    "reviews": 2,
    "lat": -36.0568308,
    "lng": 146.9380445,
    "place_id": "ChIJa0gsZV_hI2sRH9l525k7oaQ",
    "maps_url": "https://www.google.com/maps/place/?q=place_id:ChIJa0gsZV_hI2sRH9l525k7oaQ"
  },
  {
    "name": "Farben",
    "address": "331A Townsend St, South Albury NSW 2640, Australia",
    "suburb": "South Albury NSW 2640",
    "state": "NSW",
    "rating": 4.5,
    "reviews": 8,
    "lat": -36.089153,
    "lng": 146.9110621,
    "place_id": "ChIJXXBzolxfIWsR4Ls9WXzjmV8",
    "maps_url": "https://www.google.com/maps/place/?q=place_id:ChIJXXBzolxfIWsR4Ls9WXzjmV8"
  },
  {
    "name": "Wodonga Painting",
    "address": "36 Barton St, West Wodonga VIC 3690, Australia",
    "suburb": "West Wodonga VIC 3690",
    "state": "NSW",
    "rating": 5,
    "reviews": 15,
    "lat": -36.1393469,
    "lng": 146.8564149,
    "place_id": "ChIJQTpZXjtZIWsR__DdPozdfd4",
    "maps_url": "https://www.google.com/maps/place/?q=place_id:ChIJQTpZXjtZIWsR__DdPozdfd4"
  },
  {
    "name": "JAY P PAINTS Albury/Wodonga",
    "address": "64 Urana St, Jindera NSW 2642, Australia",
    "suburb": "Jindera NSW 2642",
    "state": "NSW",
    "rating": 5,
    "reviews": 2,
    "lat": -35.9521182,
    "lng": 146.8871875,
    "place_id": "ChIJAT4-fw1lmiQRpCc7R05hv_k",
    "maps_url": "https://www.google.com/maps/place/?q=place_id:ChIJAT4-fw1lmiQRpCc7R05hv_k"
  },
  {
    "name": "AFFORDABLE PAINTING SERVICES",
    "address": "24 Windsor Dr, albury wodonga VIC 3690, Australia",
    "suburb": "albury wodonga VIC 3690",
    "state": "NSW",
    "rating": 3.5,
    "reviews": 2,
    "lat": -36.1432201,
    "lng": 146.887087,
    "place_id": "ChIJwWH-eFBYIWsRgorAwhYq6Qk",
    "maps_url": "https://www.google.com/maps/place/?q=place_id:ChIJwWH-eFBYIWsRgorAwhYq6Qk"
  },
  {
    "name": "Baranduda Painting",
    "address": "25 Howards Rd, Baranduda VIC 3691, Australia",
    "suburb": "Baranduda VIC 3691",
    "state": "NSW",
    "rating": 5,
    "reviews": 6,
    "lat": -36.1850771,
    "lng": 146.9435643,
    "place_id": "ChIJR7STJ7biI2sR36siJh7gqJ4",
    "maps_url": "https://www.google.com/maps/place/?q=place_id:ChIJR7STJ7biI2sR36siJh7gqJ4"
  },
  {
    "name": "John Stokes Painting Contractor",
    "address": "289 Tracy St, Lavington NSW 2641, Australia",
    "suburb": "Lavington NSW 2641",
    "state": "NSW",
    "rating": null,
    "reviews": 0,
    "lat": -36.0480205,
    "lng": 146.9517031,
    "place_id": "ChIJAwYmXqjhI2sRI1d2ExgGExk",
    "maps_url": "https://www.google.com/maps/place/?q=place_id:ChIJAwYmXqjhI2sRI1d2ExgGExk"
  },
  {
    "name": "ITL Painting Services",
    "address": "Unit 2/9 Premier Cl, Wodonga VIC 3690, Australia",
    "suburb": "Wodonga VIC 3690",
    "state": "NSW",
    "rating": 5,
    "reviews": 1,
    "lat": -36.1182459,
    "lng": 146.9020268,
    "place_id": "ChIJJYzgV75YIWsRHT1XLnXRuCw",
    "maps_url": "https://www.google.com/maps/place/?q=place_id:ChIJJYzgV75YIWsRHT1XLnXRuCw"
  },
  {
    "name": "Sheather's Painting & Decorating",
    "address": "Unit 1/13 Jones St, Wagga Wagga NSW 2650, Australia",
    "suburb": "Wagga Wagga NSW 2650",
    "state": "NSW",
    "rating": 5,
    "reviews": 2,
    "lat": -35.1227759,
    "lng": 147.3870057,
    "place_id": "ChIJu-jS3BKZGGsRO-wJqZ5Gxzs",
    "maps_url": "https://www.google.com/maps/place/?q=place_id:ChIJu-jS3BKZGGsRO-wJqZ5Gxzs"
  },
  {
    "name": "Wils Painting",
    "address": "154 Brooklyn Dr, Bourkelands NSW 2650, Australia",
    "suburb": "Bourkelands NSW 2650",
    "state": "NSW",
    "rating": 5,
    "reviews": 11,
    "lat": -35.1606758,
    "lng": 147.3482366,
    "place_id": "ChIJPXuTQi-ZGGsRNbb4ezXk-CA",
    "maps_url": "https://www.google.com/maps/place/?q=place_id:ChIJPXuTQi-ZGGsRNbb4ezXk-CA"
  },
  {
    "name": "Proline Painting & Decorating Pty Ltd",
    "address": "46 Pearson St, Wagga Wagga NSW 2650, Australia",
    "suburb": "Wagga Wagga NSW 2650",
    "state": "NSW",
    "rating": 4.5,
    "reviews": 13,
    "lat": -35.11738,
    "lng": 147.344391,
    "place_id": "ChIJy0tX5xOZGGsRlZWTvbDq6S0",
    "maps_url": "https://www.google.com/maps/place/?q=place_id:ChIJy0tX5xOZGGsRlZWTvbDq6S0"
  },
  {
    "name": "MA and TP Leddin",
    "address": "81 Huthwaite St, Wagga Wagga NSW 2560, Australia",
    "suburb": "Wagga Wagga NSW 2560",
    "state": "NSW",
    "rating": 3,
    "reviews": 2,
    "lat": -35.137982,
    "lng": 147.3429457,
    "place_id": "ChIJwyvW4zOZGGsRpRXt2aaIKEA",
    "maps_url": "https://www.google.com/maps/place/?q=place_id:ChIJwyvW4zOZGGsRpRXt2aaIKEA"
  },
  {
    "name": "Bills Roof Painting",
    "address": "13 Menzies Ave, Kooringal NSW 2650, Australia",
    "suburb": "Kooringal NSW 2650",
    "state": "NSW",
    "rating": 5,
    "reviews": 19,
    "lat": -35.1449354,
    "lng": 147.3834471,
    "place_id": "ChIJq83HVeWbGGsRjniBJieMWW8",
    "maps_url": "https://www.google.com/maps/place/?q=place_id:ChIJq83HVeWbGGsRjniBJieMWW8"
  },
  {
    "name": "John Swaysland Painting Pty Ltd",
    "address": "3/199 Morgan St, Wagga Wagga NSW 2650, Australia",
    "suburb": "Wagga Wagga NSW 2650",
    "state": "NSW",
    "rating": null,
    "reviews": 0,
    "lat": -35.1140465,
    "lng": 147.3579931,
    "place_id": "ChIJI_yaH3GZGGsRYtqaYOO3hpQ",
    "maps_url": "https://www.google.com/maps/place/?q=place_id:ChIJI_yaH3GZGGsRYtqaYOO3hpQ"
  },
  {
    "name": "G & M Chapman Painting",
    "address": "25 Camira Cres, Hillvue NSW 2340, Australia",
    "suburb": "Hillvue NSW 2340",
    "state": "NSW",
    "rating": 5,
    "reviews": 17,
    "lat": -31.1164813,
    "lng": 150.9050642,
    "place_id": "ChIJMwYkmwGZCmsRSRRpjtK29SE",
    "maps_url": "https://www.google.com/maps/place/?q=place_id:ChIJMwYkmwGZCmsRSRRpjtK29SE"
  },
  {
    "name": "O'Neill Painting Services",
    "address": "22 Lake Pl, North Tamworth NSW 2340, Australia",
    "suburb": "North Tamworth NSW 2340",
    "state": "NSW",
    "rating": 5,
    "reviews": 2,
    "lat": -31.0753488,
    "lng": 150.911929,
    "place_id": "ChIJZQFAXfoHCWsRtdrM9HtBb18",
    "maps_url": "https://www.google.com/maps/place/?q=place_id:ChIJZQFAXfoHCWsRtdrM9HtBb18"
  },
  {
    "name": "STP Painting Group",
    "address": "344 Peel St, Tamworth NSW 2340, Australia",
    "suburb": "Tamworth NSW 2340",
    "state": "NSW",
    "rating": 5,
    "reviews": 1,
    "lat": -31.0903508,
    "lng": 150.9299387,
    "place_id": "ChIJkcXODCWZCmsR2osphh4Id6M",
    "maps_url": "https://www.google.com/maps/place/?q=place_id:ChIJkcXODCWZCmsR2osphh4Id6M"
  },
  {
    "name": "KGD Decorating Services",
    "address": "49 Sycamore Rd, Kingsbury, Tamworth B78 2JL, UK",
    "suburb": "Kingsbury",
    "state": "NSW",
    "rating": 5,
    "reviews": 3,
    "lat": 52.57098509999999,
    "lng": -1.6816041,
    "place_id": "ChIJAxgBRyiscEgR6bNsbNUtxNc",
    "maps_url": "https://www.google.com/maps/place/?q=place_id:ChIJAxgBRyiscEgR6bNsbNUtxNc"
  },
  {
    "name": "CWP Painting",
    "address": "65 Matthews Ave, Orange NSW 2800, Australia",
    "suburb": "Orange NSW 2800",
    "state": "NSW",
    "rating": 5,
    "reviews": 14,
    "lat": -33.2680624,
    "lng": 149.0938395,
    "place_id": "ChIJjbXOOrYsEGsRef1REeKik3I",
    "maps_url": "https://www.google.com/maps/place/?q=place_id:ChIJjbXOOrYsEGsRef1REeKik3I"
  },
  {
    "name": "Glam Pro Painting",
    "address": "16 Keithian Pl, Orange NSW 2800, Australia",
    "suburb": "Orange NSW 2800",
    "state": "NSW",
    "rating": 5,
    "reviews": 13,
    "lat": -33.2680096,
    "lng": 149.0874807,
    "place_id": "ChIJaUfvwjKM9SURFLGvmAE7UNw",
    "maps_url": "https://www.google.com/maps/place/?q=place_id:ChIJaUfvwjKM9SURFLGvmAE7UNw"
  },
  {
    "name": "Wallaby Painting",
    "address": "372 Anson St, Orange NSW 2800, Australia",
    "suburb": "Orange NSW 2800",
    "state": "NSW",
    "rating": 5,
    "reviews": 23,
    "lat": -33.2705247,
    "lng": 149.1017189,
    "place_id": "ChIJFzcuO-ktEGsRjfRSKw90FTI",
    "maps_url": "https://www.google.com/maps/place/?q=place_id:ChIJFzcuO-ktEGsRjfRSKw90FTI"
  },
  {
    "name": "Murrays Painting",
    "address": "63 Molong Rd, Orange NSW 2800, Australia",
    "suburb": "Orange NSW 2800",
    "state": "NSW",
    "rating": 5,
    "reviews": 1,
    "lat": -33.268528,
    "lng": 149.080693,
    "place_id": "ChIJWTwRFOstEGsRjM1oo35qlUQ",
    "maps_url": "https://www.google.com/maps/place/?q=place_id:ChIJWTwRFOstEGsRjM1oo35qlUQ"
  },
  {
    "name": "Anton Hartley Colour City Painting",
    "address": "Unit 5/16 Leewood Dr, Orange NSW 2800, Australia",
    "suburb": "Orange NSW 2800",
    "state": "NSW",
    "rating": 5,
    "reviews": 2,
    "lat": -33.3104447,
    "lng": 149.1108862,
    "place_id": "ChIJA8ucgtssEGsR6isjzx-hkoo",
    "maps_url": "https://www.google.com/maps/place/?q=place_id:ChIJA8ucgtssEGsR6isjzx-hkoo"
  },
  {
    "name": "Blocker’s Quality Painting",
    "address": "28 Pippin Way, Orange NSW 2800, Australia",
    "suburb": "Orange NSW 2800",
    "state": "NSW",
    "rating": null,
    "reviews": 0,
    "lat": -33.269043,
    "lng": 149.0649845,
    "place_id": "ChIJYVncglstEGsRTgOymJ-6hD8",
    "maps_url": "https://www.google.com/maps/place/?q=place_id:ChIJYVncglstEGsRTgOymJ-6hD8"
  },
  {
    "name": "Brush & Giggle Paint Parties",
    "address": "4 Fox Ave, Orange NSW 2800, Australia",
    "suburb": "Orange NSW 2800",
    "state": "NSW",
    "rating": 5,
    "reviews": 1,
    "lat": -33.2710987,
    "lng": 149.1032101,
    "place_id": "ChIJ8_9_QLyZaYkRAG_BUTtAp28",
    "maps_url": "https://www.google.com/maps/place/?q=place_id:ChIJ8_9_QLyZaYkRAG_BUTtAp28"
  },
  {
    "name": "Cotehele Decorating",
    "address": "191 Lords Pl, Orange NSW 2800, Australia",
    "suburb": "Orange NSW 2800",
    "state": "NSW",
    "rating": null,
    "reviews": 0,
    "lat": -33.284896,
    "lng": 149.1006714,
    "place_id": "ChIJ5buYhtMsEGsRX7ED2txpEEw",
    "maps_url": "https://www.google.com/maps/place/?q=place_id:ChIJ5buYhtMsEGsRX7ED2txpEEw"
  },
  {
    "name": "My Roof Restoration",
    "address": "119 Matthews Ave, Orange NSW 2800, Australia",
    "suburb": "Orange NSW 2800",
    "state": "NSW",
    "rating": 5,
    "reviews": 18,
    "lat": -33.2687643,
    "lng": 149.0989963,
    "place_id": "ChIJNW-9w4gtEGsRzEpXkZkgXO4",
    "maps_url": "https://www.google.com/maps/place/?q=place_id:ChIJNW-9w4gtEGsRzEpXkZkgXO4"
  },
  {
    "name": "Inspirations Paint Orange",
    "address": "142 Lords Pl, Orange NSW 2800, Australia",
    "suburb": "Orange NSW 2800",
    "state": "NSW",
    "rating": 5,
    "reviews": 15,
    "lat": -33.2872932,
    "lng": 149.1007766,
    "place_id": "ChIJzWBJXNQsEGsRU4rn9Kac_rA",
    "maps_url": "https://www.google.com/maps/place/?q=place_id:ChIJzWBJXNQsEGsRU4rn9Kac_rA"
  },
  {
    "name": "Robert Seeliger Painter & Decorator",
    "address": "40R Panai Ave, Dubbo NSW 2830, Australia",
    "suburb": "Dubbo NSW 2830",
    "state": "NSW",
    "rating": 5,
    "reviews": 6,
    "lat": -32.2438146,
    "lng": 148.6094976,
    "place_id": "ChIJpUfy-Qh5D2sR_hq5MeimPwc",
    "maps_url": "https://www.google.com/maps/place/?q=place_id:ChIJpUfy-Qh5D2sR_hq5MeimPwc"
  },
  {
    "name": "Colonial Painting & Decorating Service",
    "address": "5/12 Bowen Cres, West Gosford NSW 2250, Australia",
    "suburb": "West Gosford NSW 2250",
    "state": "NSW",
    "rating": 3.9,
    "reviews": 22,
    "lat": -33.415453,
    "lng": 151.329366,
    "place_id": "ChIJ__vcIHHLcmsRG6iUFsrkrks",
    "maps_url": "https://www.google.com/maps/place/?q=place_id:ChIJ__vcIHHLcmsRG6iUFsrkrks"
  },
  {
    "name": "Colour City Painting",
    "address": "Unit 5/16 Leewood Dr, Orange NSW 2800, Australia",
    "suburb": "Orange NSW 2800",
    "state": "NSW",
    "rating": null,
    "reviews": 0,
    "lat": -33.3104447,
    "lng": 149.1108862,
    "place_id": "ChIJnzsKxFPTEWsRpp5SZSWN3Tg",
    "maps_url": "https://www.google.com/maps/place/?q=place_id:ChIJnzsKxFPTEWsRpp5SZSWN3Tg"
  },
  {
    "name": "Colour City Kitchens",
    "address": "UNIT 2/37 Peisley St, Orange NSW 2800, Australia",
    "suburb": "Orange NSW 2800",
    "state": "NSW",
    "rating": 5,
    "reviews": 43,
    "lat": -33.2961707,
    "lng": 149.100544,
    "place_id": "ChIJY9vILP4Zvo0RuQ_7pijWbp4",
    "maps_url": "https://www.google.com/maps/place/?q=place_id:ChIJY9vILP4Zvo0RuQ_7pijWbp4"
  },
  {
    "name": "Colour Concept Painting and maintenance",
    "address": "Unit 1/34 Bishop St, Dubbo NSW 2830, Australia",
    "suburb": "Dubbo NSW 2830",
    "state": "NSW",
    "rating": 5,
    "reviews": 3,
    "lat": -32.2565269,
    "lng": 148.610497,
    "place_id": "ChIJbxcitsRxD2sRZ9H4BmIAJtQ",
    "maps_url": "https://www.google.com/maps/place/?q=place_id:ChIJbxcitsRxD2sRZ9H4BmIAJtQ"
  },
  {
    "name": "Garry Murphy Painting",
    "address": "10 Cadell St, Dubbo NSW 2830, Australia",
    "suburb": "Dubbo NSW 2830",
    "state": "NSW",
    "rating": null,
    "reviews": 0,
    "lat": -32.2528334,
    "lng": 148.6069553,
    "place_id": "ChIJ48S8O4BxD2sRbw8O0dGvb2E",
    "maps_url": "https://www.google.com/maps/place/?q=place_id:ChIJ48S8O4BxD2sRbw8O0dGvb2E"
  },
  {
    "name": "Roger Johnson Painting Construction",
    "address": "4 Currawong Rd, Dubbo NSW 2830, Australia",
    "suburb": "Dubbo NSW 2830",
    "state": "NSW",
    "rating": null,
    "reviews": 0,
    "lat": -32.24976410000001,
    "lng": 148.5769265,
    "place_id": "ChIJV8fJg8BxD2sR484kjhH1Zok",
    "maps_url": "https://www.google.com/maps/place/?q=place_id:ChIJV8fJg8BxD2sR484kjhH1Zok"
  },
  {
    "name": "A Bird Painting",
    "address": "18-30 Mountbatten Dr, Dubbo NSW 2830, Australia",
    "suburb": "Dubbo NSW 2830",
    "state": "NSW",
    "rating": null,
    "reviews": 0,
    "lat": -32.2492423,
    "lng": 148.6352487,
    "place_id": "ChIJzz5FxhlxD2sRSF37Rf8cick",
    "maps_url": "https://www.google.com/maps/place/?q=place_id:ChIJzz5FxhlxD2sRSF37Rf8cick"
  },
  {
    "name": "Kitchen Painting Services & More",
    "address": "30 Depot Rd, Dubbo NSW 2830, Australia",
    "suburb": "Dubbo NSW 2830",
    "state": "NSW",
    "rating": null,
    "reviews": 0,
    "lat": -32.2453751,
    "lng": 148.5829986,
    "place_id": "ChIJR54fBXBxD2sRZnBWTCRx0U0",
    "maps_url": "https://www.google.com/maps/place/?q=place_id:ChIJR54fBXBxD2sRZnBWTCRx0U0"
  },
  {
    "name": "Elements Interiors and Construction",
    "address": "Lvl 1 Suite 12-16, Macquarie Chambers, 69/79 Macquarie St, Dubbo NSW 2830, Australia",
    "suburb": "Macquarie Chambers",
    "state": "NSW",
    "rating": 5,
    "reviews": 2,
    "lat": -32.2463459,
    "lng": 148.6009837,
    "place_id": "ChIJl72yZ5UND2sRYXS1XytWVz8",
    "maps_url": "https://www.google.com/maps/place/?q=place_id:ChIJl72yZ5UND2sRYXS1XytWVz8"
  },
  {
    "name": "McNaught Group",
    "address": "14 Blueridge Dr, Dubbo NSW 2830, Australia",
    "suburb": "Dubbo NSW 2830",
    "state": "NSW",
    "rating": 3,
    "reviews": 2,
    "lat": -32.262222,
    "lng": 148.6538208,
    "place_id": "ChIJ97NzQbdxD2sRyJz1-7LmxsM",
    "maps_url": "https://www.google.com/maps/place/?q=place_id:ChIJ97NzQbdxD2sRyJz1-7LmxsM"
  },
  {
    "name": "Sapphire Painting & Decorating",
    "address": "15 Sullivans Rd, Moonee Beach NSW 2450, Australia",
    "suburb": "Moonee Beach NSW 2450",
    "state": "NSW",
    "rating": 5,
    "reviews": 43,
    "lat": -30.2065111,
    "lng": 153.1510574,
    "place_id": "ChIJewMmW2qRN6MRnCEquv1TVGM",
    "maps_url": "https://www.google.com/maps/place/?q=place_id:ChIJewMmW2qRN6MRnCEquv1TVGM"
  },
  {
    "name": "Shields Painting",
    "address": "Unit 8, 3/5 Engineering Dr, North Boambee Valley NSW 2450, Australia",
    "suburb": "3/5 Engineering Dr",
    "state": "NSW",
    "rating": 5,
    "reviews": 15,
    "lat": -30.3134554,
    "lng": 153.0849039,
    "place_id": "ChIJDV5iGWkPnGsR67eLmSdnM0Y",
    "maps_url": "https://www.google.com/maps/place/?q=place_id:ChIJDV5iGWkPnGsR67eLmSdnM0Y"
  },
  {
    "name": "Sattler Bros Painters - Painters Coffs Harbour",
    "address": "182a Orlando St, Coffs Harbour NSW 2450, Australia",
    "suburb": "Coffs Harbour NSW 2450",
    "state": "NSW",
    "rating": 5,
    "reviews": 97,
    "lat": -30.2857626,
    "lng": 153.1286546,
    "place_id": "ChIJx_n5ayYPnGsRCLenFypmq9Q",
    "maps_url": "https://www.google.com/maps/place/?q=place_id:ChIJx_n5ayYPnGsRCLenFypmq9Q"
  },
  {
    "name": "NAC Painting",
    "address": "44 MacKays Rd, Coffs Harbour NSW 2450, Australia",
    "suburb": "Coffs Harbour NSW 2450",
    "state": "NSW",
    "rating": 5,
    "reviews": 54,
    "lat": -30.2788837,
    "lng": 153.1042498,
    "place_id": "ChIJRWUoGEQPnGsR457pu5fSX0I",
    "maps_url": "https://www.google.com/maps/place/?q=place_id:ChIJRWUoGEQPnGsR457pu5fSX0I"
  },
  {
    "name": "Harbour Painting Solutions",
    "address": "Unit 27/22 Lawson Cres, Coffs Harbour NSW 2450, Australia",
    "suburb": "Coffs Harbour NSW 2450",
    "state": "NSW",
    "rating": 4.7,
    "reviews": 25,
    "lat": -30.289874,
    "lng": 153.128429,
    "place_id": "ChIJO1PU85gtrIgRlDrxw9dzWIU",
    "maps_url": "https://www.google.com/maps/place/?q=place_id:ChIJO1PU85gtrIgRlDrxw9dzWIU"
  },
  {
    "name": "Figjam Painting - Residential & Commercial Painter Coffs Harbour",
    "address": "13b Long St, Coffs Harbour NSW 2450, Australia",
    "suburb": "Coffs Harbour NSW 2450",
    "state": "NSW",
    "rating": 5,
    "reviews": 18,
    "lat": -30.2922487,
    "lng": 153.1094641,
    "place_id": "ChIJRfIMcKQRnGsRMLVKlo1opgE",
    "maps_url": "https://www.google.com/maps/place/?q=place_id:ChIJRfIMcKQRnGsRMLVKlo1opgE"
  },
  {
    "name": "Danny Walls Professional Painter / Decorator",
    "address": "unit 4/15 Bosworth Rd, Woolgoolga NSW 2456, Australia",
    "suburb": "Woolgoolga NSW 2456",
    "state": "NSW",
    "rating": 4.8,
    "reviews": 12,
    "lat": -30.1247391,
    "lng": 153.1935908,
    "place_id": "ChIJs_0PukjwiI8RGpwlEErOBVs",
    "maps_url": "https://www.google.com/maps/place/?q=place_id:ChIJs_0PukjwiI8RGpwlEErOBVs"
  },
  {
    "name": "Summit Painting Co",
    "address": "44 Dress Cir, Coffs Harbour NSW 2450, Australia",
    "suburb": "Coffs Harbour NSW 2450",
    "state": "NSW",
    "rating": 5,
    "reviews": 1,
    "lat": -30.2778962,
    "lng": 153.1301404,
    "place_id": "ChIJYe0ul0sNnGsRHPmrRm6E16o",
    "maps_url": "https://www.google.com/maps/place/?q=place_id:ChIJYe0ul0sNnGsRHPmrRm6E16o"
  },
  {
    "name": "Axis Painting",
    "address": "23 Meadow St, Coffs Harbour NSW 2450, Australia",
    "suburb": "Coffs Harbour NSW 2450",
    "state": "NSW",
    "rating": 4,
    "reviews": 4,
    "lat": -30.299753,
    "lng": 153.1080736,
    "place_id": "ChIJfcChkHUOnGsRM18qA0C1rX0",
    "maps_url": "https://www.google.com/maps/place/?q=place_id:ChIJfcChkHUOnGsRM18qA0C1rX0"
  },
  {
    "name": "Danny Walls",
    "address": "23A June St, Coffs Harbour NSW 2450, Australia",
    "suburb": "Coffs Harbour NSW 2450",
    "state": "NSW",
    "rating": null,
    "reviews": 0,
    "lat": -30.2902734,
    "lng": 153.1180222,
    "place_id": "ChIJxbvsXQANnGsR7f4dGK-oxE0",
    "maps_url": "https://www.google.com/maps/place/?q=place_id:ChIJxbvsXQANnGsR7f4dGK-oxE0"
  },
  {
    "name": "Coffs District painters",
    "address": "119 Sawtell Rd, Toormina NSW 2452, Australia",
    "suburb": "Toormina NSW 2452",
    "state": "NSW",
    "rating": null,
    "reviews": 0,
    "lat": -30.35200949999999,
    "lng": 153.0919197,
    "place_id": "ChIJ57P0pa-HLG4RDaweXQpMbmg",
    "maps_url": "https://www.google.com/maps/place/?q=place_id:ChIJ57P0pa-HLG4RDaweXQpMbmg"
  },
  {
    "name": "TWB PAINTING SERVICES",
    "address": "9 Walker Cl, Coffs Harbour NSW 2450, Australia",
    "suburb": "Coffs Harbour NSW 2450",
    "state": "NSW",
    "rating": 5,
    "reviews": 5,
    "lat": -30.2761665,
    "lng": 153.0920365,
    "place_id": "ChIJXZAkEcJvdi0RW6yvwgPrrMY",
    "maps_url": "https://www.google.com/maps/place/?q=place_id:ChIJXZAkEcJvdi0RW6yvwgPrrMY"
  },
  {
    "name": "J&S Painting",
    "address": "Druitt Ct, Coffs Harbour NSW 2450, Australia",
    "suburb": "Coffs Harbour NSW 2450",
    "state": "NSW",
    "rating": 1,
    "reviews": 1,
    "lat": -30.287978,
    "lng": 153.1285004,
    "place_id": "ChIJ-R3aE8sNnGsRtrQ4ykwpRPY",
    "maps_url": "https://www.google.com/maps/place/?q=place_id:ChIJ-R3aE8sNnGsRtrQ4ykwpRPY"
  },
  {
    "name": "MAP Painting",
    "address": "164 Sawtell Rd, Toormina NSW 2452, Australia",
    "suburb": "Toormina NSW 2452",
    "state": "NSW",
    "rating": 1,
    "reviews": 1,
    "lat": -30.3494826,
    "lng": 153.0883609,
    "place_id": "ChIJ8UOP3c8RnGsRToE08L7I9Ks",
    "maps_url": "https://www.google.com/maps/place/?q=place_id:ChIJ8UOP3c8RnGsRToE08L7I9Ks"
  },
  {
    "name": "Inspirations Paint Coffs Harbour",
    "address": "182 Orlando St, Coffs Harbour NSW 2450, Australia",
    "suburb": "Coffs Harbour NSW 2450",
    "state": "NSW",
    "rating": 4.9,
    "reviews": 115,
    "lat": -30.2857883,
    "lng": 153.1286235,
    "place_id": "ChIJgQqXJssNnGsRpVT1kccmWko",
    "maps_url": "https://www.google.com/maps/place/?q=place_id:ChIJgQqXJssNnGsRpVT1kccmWko"
  },
  {
    "name": "Natural Habitat Interiors & Design",
    "address": "10 Nile St, Coffs Harbour NSW 2450, Australia",
    "suburb": "Coffs Harbour NSW 2450",
    "state": "NSW",
    "rating": 5,
    "reviews": 41,
    "lat": -30.3064084,
    "lng": 153.1357864,
    "place_id": "ChIJKeAC_74NnGsRZAdX1fvihTA",
    "maps_url": "https://www.google.com/maps/place/?q=place_id:ChIJKeAC_74NnGsRZAdX1fvihTA"
  },
  {
    "name": "North Coast Painting Services",
    "address": "22 Redgum Pl, Byron Bay NSW 2481, Australia",
    "suburb": "Byron Bay NSW 2481",
    "state": "NSW",
    "rating": 5,
    "reviews": 9,
    "lat": -28.6783397,
    "lng": 153.6082972,
    "place_id": "ChIJ8Q-GQfJikGsRCKIEit16Ea0",
    "maps_url": "https://www.google.com/maps/place/?q=place_id:ChIJ8Q-GQfJikGsRCKIEit16Ea0"
  },
  {
    "name": "Hayes Bros. Painting",
    "address": "Druitt Ct, Coffs Harbour NSW 2450, Australia",
    "suburb": "Coffs Harbour NSW 2450",
    "state": "NSW",
    "rating": null,
    "reviews": 0,
    "lat": -30.2875619,
    "lng": 153.1289156,
    "place_id": "ChIJ07LcIssNnGsR4NAYjl2gEkw",
    "maps_url": "https://www.google.com/maps/place/?q=place_id:ChIJ07LcIssNnGsR4NAYjl2gEkw"
  },
  {
    "name": "Bloomin'Good Painting and Decorating PtyLtd",
    "address": "28 Candelo Cl, Port Macquarie NSW 2444, Australia",
    "suburb": "Port Macquarie NSW 2444",
    "state": "NSW",
    "rating": 5,
    "reviews": 22,
    "lat": -31.45220639999999,
    "lng": 152.9162477,
    "place_id": "ChIJYf4EA92iEmsRVU5pG2LoE9c",
    "maps_url": "https://www.google.com/maps/place/?q=place_id:ChIJYf4EA92iEmsRVU5pG2LoE9c"
  },
  {
    "name": "Your painter an decorator",
    "address": "Port Macquarie NSW 2444, Australia",
    "suburb": "Australia",
    "state": "NSW",
    "rating": 5,
    "reviews": 5,
    "lat": -31.4349036,
    "lng": 152.9001817,
    "place_id": "ChIJTbSGDPsDdmsRAQay33zd39A",
    "maps_url": "https://www.google.com/maps/place/?q=place_id:ChIJTbSGDPsDdmsRAQay33zd39A"
  },
  {
    "name": "Coastwide Painting & Decorating",
    "address": "44 Kendall Cres, Bonny Hills NSW 2445, Australia",
    "suburb": "Bonny Hills NSW 2445",
    "state": "NSW",
    "rating": 5,
    "reviews": 49,
    "lat": -31.5787856,
    "lng": 152.8334369,
    "place_id": "ChIJUwaWoekHdmsRGvDEtFp8tRk",
    "maps_url": "https://www.google.com/maps/place/?q=place_id:ChIJUwaWoekHdmsRGvDEtFp8tRk"
  },
  {
    "name": "Majestic Painting Services",
    "address": "8 Pembroke Pl, Port Macquarie NSW 2444, Australia",
    "suburb": "Port Macquarie NSW 2444",
    "state": "NSW",
    "rating": 5,
    "reviews": 20,
    "lat": -31.4455283,
    "lng": 152.9099502,
    "place_id": "ChIJMRumVwz_nWsRhD2ZvdwZhE8",
    "maps_url": "https://www.google.com/maps/place/?q=place_id:ChIJMRumVwz_nWsRhD2ZvdwZhE8"
  },
  {
    "name": "Port Macquarie - Painting & Decorating Services",
    "address": "2A Hamlyn Dr, Port Macquarie NSW 2444, Australia",
    "suburb": "Port Macquarie NSW 2444",
    "state": "NSW",
    "rating": null,
    "reviews": 0,
    "lat": -31.4551524,
    "lng": 152.9141332,
    "place_id": "ChIJ6Z4kvN7_nWsRzc2Ga0pD7q4",
    "maps_url": "https://www.google.com/maps/place/?q=place_id:ChIJ6Z4kvN7_nWsRzc2Ga0pD7q4"
  },
  {
    "name": "Port Macquarie's Jill of all Trades",
    "address": "37/3 Lincoln Rd, Port Macquarie NSW 2444, Australia",
    "suburb": "Port Macquarie NSW 2444",
    "state": "NSW",
    "rating": null,
    "reviews": 0,
    "lat": -31.4520597,
    "lng": 152.8698481,
    "place_id": "ChIJ6dqSphz_nWsRd0Z1X2BASts",
    "maps_url": "https://www.google.com/maps/place/?q=place_id:ChIJ6dqSphz_nWsRd0Z1X2BASts"
  },
  {
    "name": "All Day Every Day Painting",
    "address": "9 Magnolia Pl, Port Macquarie NSW 2444, Australia",
    "suburb": "Port Macquarie NSW 2444",
    "state": "NSW",
    "rating": null,
    "reviews": 0,
    "lat": -31.459682,
    "lng": 152.919777,
    "place_id": "ChIJb2Q_Ok3_nWsRborNNR02OmQ",
    "maps_url": "https://www.google.com/maps/place/?q=place_id:ChIJb2Q_Ok3_nWsRborNNR02OmQ"
  },
  {
    "name": "North Shore Painters",
    "address": "Lvl 1, 49 Horton Street, Port Macquarie, NSW 2444, Australia",
    "suburb": "49 Horton Street",
    "state": "NSW",
    "rating": null,
    "reviews": 0,
    "lat": -31.430167,
    "lng": 152.907742,
    "place_id": "ChIJIdHTMCb_nWsRSE4_4pFzl8M",
    "maps_url": "https://www.google.com/maps/place/?q=place_id:ChIJIdHTMCb_nWsRSE4_4pFzl8M"
  },
  {
    "name": "SprayFx Port Macquarie",
    "address": "1/16 Uralla Rd, Port Macquarie NSW 2444, Australia",
    "suburb": "Port Macquarie NSW 2444",
    "state": "NSW",
    "rating": 5,
    "reviews": 1,
    "lat": -31.4509262,
    "lng": 152.8840028,
    "place_id": "ChIJ4YiXV1n_nWsRXt93d2ftuNQ",
    "maps_url": "https://www.google.com/maps/place/?q=place_id:ChIJ4YiXV1n_nWsRXt93d2ftuNQ"
  },
  {
    "name": "JLA interiors",
    "address": "164 Lake Rd, Port Macquarie NSW 2444, Australia",
    "suburb": "Port Macquarie NSW 2444",
    "state": "NSW",
    "rating": 5,
    "reviews": 7,
    "lat": -31.447478,
    "lng": 152.8858981,
    "place_id": "ChIJYfa8QE4BdmsRxDKhCeX2jrk",
    "maps_url": "https://www.google.com/maps/place/?q=place_id:ChIJYfa8QE4BdmsRxDKhCeX2jrk"
  },
  {
    "name": "Everingham Painters and Decorators",
    "address": "94 Beardow St W, Lismore Heights NSW 2480, Australia",
    "suburb": "Lismore Heights NSW 2480",
    "state": "NSW",
    "rating": 5,
    "reviews": 8,
    "lat": -28.8031629,
    "lng": 153.2930974,
    "place_id": "ChIJZ1yaZwmekGsROG2UoH5Qvw0",
    "maps_url": "https://www.google.com/maps/place/?q=place_id:ChIJZ1yaZwmekGsROG2UoH5Qvw0"
  },