[
  {
    "name": "Royal Botanic Garden Sydney",
    "address": "Mrs Macquaries Rd, Sydney",
    "suburb": "Sydney CBD",
    "state": "NSW",
    "lat": -33.8641859,
    "lng": 151.2165708,
    "place_id": "ChIJWaTdYGuuEmsRoOfx-Wh9AQ8",
    "maps_url": "https://www.google.com/maps/place/?q=place_id:ChIJWaTdYGuuEmsRoOfx-Wh9AQ8",
    "rating": 4.7,
    "total_ratings": 25261
  },
  {
    "name": "The Calyx",
    "address": "Entry via Morshead Fountain Gate (Gate A, Royal Botanic Garden, Sydney",
    "suburb": "Sydney CBD",
    "state": "NSW",
    "lat": -33.8658094,
    "lng": 151.2151545,
    "place_id": "ChIJXZiB72uuEmsRVR6p6XmuVUk",
    "maps_url": "https://www.google.com/maps/place/?q=place_id:ChIJXZiB72uuEmsRVR6p6XmuVUk",
    "rating": 4.6,
    "total_ratings": 2510
  },
  {
    "name": "Botanic Gardens of Sydney",
    "address": "Mrs Macquaries Rd, Sydney",
    "suburb": "Sydney CBD",
    "state": "NSW",
    "lat": -33.8666087,
    "lng": 151.2180418,
    "place_id": "ChIJqajDxBGsEmsRPZ6RrhiAu3M",
    "maps_url": "https://www.google.com/maps/place/?q=place_id:ChIJqajDxBGsEmsRPZ6RrhiAu3M",
    "rating": 4.8,
    "total_ratings": 268
  },
  {
    "name": "Plant Clinic",
    "address": "Royal Botanical garden, Sydney",
    "suburb": "Sydney CBD",
    "state": "NSW",
    "lat": -33.8664037,
    "lng": 151.2161871,
    "place_id": "ChIJE3r-DmyuEmsRru7kRh-OeXg",
    "maps_url": "https://www.google.com/maps/place/?q=place_id:ChIJE3r-DmyuEmsRru7kRh-OeXg",
    "rating": 4.9,
    "total_ratings": 8
  },
  {
    "name": "Succulent Garden",
    "address": "Mrs Macquaries Rd, Sydney",
    "suburb": "Sydney CBD",
    "state": "NSW",
    "lat": -33.865705,
    "lng": 151.2184432,
    "place_id": "ChIJy3Kig26uEmsRnpChXRtL5EI",
    "maps_url": "https://www.google.com/maps/place/?q=place_id:ChIJy3Kig26uEmsRnpChXRtL5EI",
    "rating": 4.8,
    "total_ratings": 121
  },
  {
    "name": "Piccolo Me Royal Botanic Gardens (RBG)",
    "address": "Macquarie St, Sydney",
    "suburb": "Sydney CBD",
    "state": "NSW",
    "lat": -33.8645075,
    "lng": 151.2130629,
    "place_id": "ChIJV2CBhWmuEmsRfrBuqF_eZJs",
    "maps_url": "https://www.google.com/maps/place/?q=place_id:ChIJV2CBhWmuEmsRfrBuqF_eZJs",
    "rating": 4.6,
    "total_ratings": 251
  },
  {
    "name": "Clifton Gardens Reserve",
    "address": "Morella Rd, Mosman",
    "suburb": "Sydney CBD",
    "state": "NSW",
    "lat": -33.8373897,
    "lng": 151.253347,
    "place_id": "ChIJc7oe4j2sEmsRAN_x-Wh9AQ8",
    "maps_url": "https://www.google.com/maps/place/?q=place_id:ChIJc7oe4j2sEmsRAN_x-Wh9AQ8",
    "rating": 4.5,
    "total_ratings": 512
  },
  {
    "name": "Rose Garden",
    "address": "2R Darley Rd, Centennial Park",
    "suburb": "Sydney CBD",
    "state": "NSW",
    "lat": -33.8981079,
    "lng": 151.23239,
    "place_id": "ChIJX9W4c_-xEmsR0A9ihjzkn_M",
    "maps_url": "https://www.google.com/maps/place/?q=place_id:ChIJX9W4c_-xEmsR0A9ihjzkn_M",
    "rating": 4.6,
    "total_ratings": 94
  },
  {
    "name": "Nagoya Gardens, Hyde Park Sydney",
    "address": "Hyde Park, Elizabeth St, Sydney",
    "suburb": "Sydney CBD",
    "state": "NSW",
    "lat": -33.8707767,
    "lng": 151.2113202,
    "place_id": "ChIJsT5Sv0KvEmsR-2wd6KbbDHI",
    "maps_url": "https://www.google.com/maps/place/?q=place_id:ChIJsT5Sv0KvEmsR-2wd6KbbDHI",
    "rating": 4.7,
    "total_ratings": 16
  },
  {
    "name": "Stepping Stones",
    "address": "Unnamed Road, Alexandria",
    "suburb": "Sydney CBD",
    "state": "NSW",
    "lat": -33.910913,
    "lng": 151.1844807,
    "place_id": "ChIJm6fagDuxEmsRHqew9Qrv0KU",
    "maps_url": "https://www.google.com/maps/place/?q=place_id:ChIJm6fagDuxEmsRHqew9Qrv0KU",
    "rating": 4.6,
    "total_ratings": 10
  },
  {
    "name": "Bennelong Lawn",
    "address": "Bennelong Lawn, The Royal Botanic Gardens, Macquarie St, Mrs Macquaries Rd, Sydney",
    "suburb": "Sydney CBD",
    "state": "NSW",
    "lat": -33.858559,
    "lng": 151.2148494,
    "place_id": "ChIJlxQGXmuuEmsR1jMD-M_7-Lc",
    "maps_url": "https://www.google.com/maps/place/?q=place_id:ChIJlxQGXmuuEmsR1jMD-M_7-Lc",
    "rating": 4.7,
    "total_ratings": 90
  },
  {
    "name": "Ivanhoe Park",
    "address": "Raglan St, Manly",
    "suburb": "Sydney CBD",
    "state": "NSW",
    "lat": -33.7955199,
    "lng": 151.2820065,
    "place_id": "ChIJFXeQegirEmsRUOPy-Wh9AQ8",
    "maps_url": "https://www.google.com/maps/place/?q=place_id:ChIJFXeQegirEmsRUOPy-Wh9AQ8",
    "rating": 4.5,
    "total_ratings": 292
  },
  {
    "name": "Mrs Macquarie's Chair",
    "address": "Mrs Macquaries Rd, Sydney",
    "suburb": "Sydney CBD",
    "state": "NSW",
    "lat": -33.8596639,
    "lng": 151.2225706,
    "place_id": "ChIJQ9b_zXquEmsRY6cF2rm2v0M",
    "maps_url": "https://www.google.com/maps/place/?q=place_id:ChIJQ9b_zXquEmsRY6cF2rm2v0M",
    "rating": 4.6,
    "total_ratings": 9394
  },
  {
    "name": "The Domain Sydney",
    "address": "Art Gallery Rd, Sydney",
    "suburb": "Sydney CBD",
    "state": "NSW",
    "lat": -33.8684368,
    "lng": 151.2149869,
    "place_id": "ChIJS6MuAnCuEmsRjVr4zXUIQDc",
    "maps_url": "https://www.google.com/maps/place/?q=place_id:ChIJS6MuAnCuEmsRjVr4zXUIQDc",
    "rating": 4.5,
    "total_ratings": 1653
  },
  {
    "name": "Growing Friends Plant Sales",
    "address": "Royal Botanic Garden Sydney, Mrs Macquaries Rd, Sydney",
    "suburb": "Sydney CBD",
    "state": "NSW",
    "lat": -33.8660666,
    "lng": 151.21847,
    "place_id": "ChIJXdDhKWyuEmsRztupJPQ8Bqk",
    "maps_url": "https://www.google.com/maps/place/?q=place_id:ChIJXdDhKWyuEmsRztupJPQ8Bqk",
    "rating": 4.7,
    "total_ratings": 34
  },
  {
    "name": "Barangaroo Reserve",
    "address": "Hickson Rd, Barangaroo",
    "suburb": "Sydney CBD",
    "state": "NSW",
    "lat": -33.857208,
    "lng": 151.201206,
    "place_id": "ChIJs-MWMVuuEmsRN7STbIW1hv8",
    "maps_url": "https://www.google.com/maps/place/?q=place_id:ChIJs-MWMVuuEmsRN7STbIW1hv8",
    "rating": 4.7,
    "total_ratings": 4728
  },
  {
    "name": "Latitude 23 Glasshouse",
    "address": "Mrs Macquaries Rd, Sydney",
    "suburb": "Sydney CBD",
    "state": "NSW",
    "lat": -33.8657423,
    "lng": 151.2165033,
    "place_id": "ChIJmQTCA2yuEmsRi9GyhwkOGRw",
    "maps_url": "https://www.google.com/maps/place/?q=place_id:ChIJmQTCA2yuEmsRi9GyhwkOGRw",
    "rating": 4.5,
    "total_ratings": 11
  },
  {
    "name": "London Street Botanical Gardens",
    "address": "33 London St, Enmore",
    "suburb": "Sydney CBD",
    "state": "NSW",
    "lat": -33.897446,
    "lng": 151.1716931,
    "place_id": "ChIJwauWQ6WxEmsRWKZcDAnbUuw",
    "maps_url": "https://www.google.com/maps/place/?q=place_id:ChIJwauWQ6WxEmsRWKZcDAnbUuw",
    "rating": 4.8,
    "total_ratings": 42
  },
  {
    "name": "Randwick Sustainability Hub",
    "address": "27 Munda St, Randwick",
    "suburb": "Sydney CBD",
    "state": "NSW",
    "lat": -33.9301839,
    "lng": 151.2463063,
    "place_id": "ChIJA2bzajCyEmsRx-ERQ_lxZeE",
    "maps_url": "https://www.google.com/maps/place/?q=place_id:ChIJA2bzajCyEmsRx-ERQ_lxZeE",
    "rating": 4.6,
    "total_ratings": 127
  },
  {
    "name": "Tumbalong Park",
    "address": "11 Harbour St, Sydney",
    "suburb": "Sydney CBD",
    "state": "NSW",
    "lat": -33.8756884,
    "lng": 151.2017266,
    "place_id": "ChIJaZrLHzuuEmsRYPzx-Wh9AQ8",
    "maps_url": "https://www.google.com/maps/place/?q=place_id:ChIJaZrLHzuuEmsRYPzx-Wh9AQ8",
    "rating": 4.6,
    "total_ratings": 2306
  },
  {
    "name": "Palace Rose Garden and Pavilion",
    "address": "Mrs Macquaries Rd, Sydney",
    "suburb": "Sydney CBD",
    "state": "NSW",
    "lat": -33.8646251,
    "lng": 151.2139951,
    "place_id": "ChIJZwwO2GuuEmsR0R7jY0Dw1gk",
    "maps_url": "https://www.google.com/maps/place/?q=place_id:ChIJZwwO2GuuEmsR0R7jY0Dw1gk",
    "rating": 4.7,
    "total_ratings": 238
  },
  {
    "name": "Flower Bed Lawn",
    "address": "1c Mrs Macquaries Rd, Sydney",
    "suburb": "Sydney CBD",
    "state": "NSW",
    "lat": -33.8638658,
    "lng": 151.218162,
    "place_id": "ChIJRUgf5W6uEmsRIbAP_IbIZSs",
    "maps_url": "https://www.google.com/maps/place/?q=place_id:ChIJRUgf5W6uEmsRIbAP_IbIZSs",
    "rating": 4.7,
    "total_ratings": 14
  },
  {
    "name": "Botanic Gardens Cafe",
    "address": "4A Macquarie St, Sydney",
    "suburb": "Sydney CBD",
    "state": "NSW",
    "lat": -33.8646754,
    "lng": 151.2170669,
    "place_id": "ChIJQQVQuW6uEmsRdZZsAFcwFUU",
    "maps_url": "https://www.google.com/maps/place/?q=place_id:ChIJQQVQuW6uEmsRdZZsAFcwFUU",
    "rating": 3.6,
    "total_ratings": 470
  },
  {
    "name": "Pioneer Garden",
    "address": "Sydney",
    "suburb": "Sydney CBD",
    "state": "NSW",
    "lat": -33.8651352,
    "lng": 151.2140847,
    "place_id": "ChIJiel02WuuEmsRCavwySIjkPw",
    "maps_url": "https://www.google.com/maps/place/?q=place_id:ChIJiel02WuuEmsRCavwySIjkPw",
    "rating": 4.8,
    "total_ratings": 24
  },
  {
    "name": "Hyde Park",
    "address": "Elizabeth St, Sydney",
    "suburb": "Sydney CBD",
    "state": "NSW",
    "lat": -33.8715202,
    "lng": 151.2116243,
    "place_id": "ChIJDflB7BWuEmsRYPbx-Wh9AQ8",
    "maps_url": "https://www.google.com/maps/place/?q=place_id:ChIJDflB7BWuEmsRYPbx-Wh9AQ8",
    "rating": 4.6,
    "total_ratings": 18087
  },
  {
    "name": "The First European Garden in the Continent of Australia",
    "address": "Mrs Macquaries Rd, Sydney",
    "suburb": "Sydney CBD",
    "state": "NSW",
    "lat": -33.8655802,
    "lng": 151.2174528,
    "place_id": "ChIJLcQs1cqvEmsRvsKUMHPXbe8",
    "maps_url": "https://www.google.com/maps/place/?q=place_id:ChIJLcQs1cqvEmsRvsKUMHPXbe8",
    "rating": 4.4,
    "total_ratings": 7
  },
  {
    "name": "Tarpeian Lawn",
    "address": "Tarpeian Lawn, Royal Botanic Gardens, Mrs Macquaries Rd, Sydney",
    "suburb": "Sydney CBD",
    "state": "NSW",
    "lat": -33.8589812,
    "lng": 151.214152,
    "place_id": "ChIJy7KhO2auEmsRJGyOQklMHGQ",
    "maps_url": "https://www.google.com/maps/place/?q=place_id:ChIJy7KhO2auEmsRJGyOQklMHGQ",
    "rating": 4.4,
    "total_ratings": 87
  },
  {
    "name": "The Garden Shop",
    "address": "Mrs Macquaries Rd, Sydney",
    "suburb": "Sydney CBD",
    "state": "NSW",
    "lat": -33.8649275,
    "lng": 151.2167201,
    "place_id": "ChIJgVTgr26uEmsRxrL_DsVRCcg",
    "maps_url": "https://www.google.com/maps/place/?q=place_id:ChIJgVTgr26uEmsRxrL_DsVRCcg",
    "rating": 4.2,
    "total_ratings": 39
  },
  {
    "name": "Tarpeian Way",
    "address": "Sydney",
    "suburb": "Sydney CBD",
    "state": "NSW",
    "lat": -33.858436,
    "lng": 151.2144765,
    "place_id": "ChIJK9PkeuGvEmsRc7P3b2Ujy_I",
    "maps_url": "https://www.google.com/maps/place/?q=place_id:ChIJK9PkeuGvEmsRc7P3b2Ujy_I",
    "rating": 4.7,
    "total_ratings": 21
  },
  {
    "name": "The Domain - Phillip Precinct",
    "address": "1 Art Gallery Rd, Sydney",
    "suburb": "North Sydney",
    "state": "NSW",
    "lat": -33.8681334,
    "lng": 151.2149509,
    "place_id": "ChIJt7_Tc2uuEmsRRueUM9_cKC4",
    "maps_url": "https://www.google.com/maps/place/?q=place_id:ChIJt7_Tc2uuEmsRRueUM9_cKC4",
    "rating": 4.6,
    "total_ratings": 700
  },
  {
    "name": "Swain Gardens",
    "address": "77 Stanhope Rd, Killara",
    "suburb": "North Sydney",
    "state": "NSW",
    "lat": -33.7673793,
    "lng": 151.171981,
    "place_id": "ChIJuYQtJe6oEmsRIJ7y-Wh9AQ8",
    "maps_url": "https://www.google.com/maps/place/?q=place_id:ChIJuYQtJe6oEmsRIJ7y-Wh9AQ8",
    "rating": 4.6,
    "total_ratings": 312
  },
  {
    "name": "Bradfield Park",
    "address": "Alfred St S, Milsons Point",
    "suburb": "North Sydney",
    "state": "NSW",
    "lat": -33.84832000000001,
    "lng": 151.2121812,
    "place_id": "ChIJbXkvgIquEmsR8Ofx-Wh9AQ8",
    "maps_url": "https://www.google.com/maps/place/?q=place_id:ChIJbXkvgIquEmsR8Ofx-Wh9AQ8",
    "rating": 4.6,
    "total_ratings": 2003
  },
  {
    "name": "Clontarf Reserve",
    "address": "Sandy Bay Rd, Clontarf",
    "suburb": "Chatswood",
    "state": "NSW",
    "lat": -33.80662179999999,
    "lng": 151.2527414,
    "place_id": "ChIJYZIevO2rEmsRoMbx-Wh9AQ8",
    "maps_url": "https://www.google.com/maps/place/?q=place_id:ChIJYZIevO2rEmsRoMbx-Wh9AQ8",
    "rating": 4.6,
    "total_ratings": 1552
  },
  {
    "name": "Muston Park",
    "address": "375-389 Penshurst St, Chatswood",
    "suburb": "Chatswood",
    "state": "NSW",
    "lat": -33.7893846,
    "lng": 151.1946309,
    "place_id": "ChIJH3gwciSpEmsR8Lfx-Wh9AQ8",
    "maps_url": "https://www.google.com/maps/place/?q=place_id:ChIJH3gwciSpEmsR8Lfx-Wh9AQ8",
    "rating": 4.5,
    "total_ratings": 318
  },
  {
    "name": "Market Garden Park",
    "address": "Mowbray Pl, Willoughby",
    "suburb": "Chatswood",
    "state": "NSW",
    "lat": -33.8051331,
    "lng": 151.2085881,
    "place_id": "ChIJEb6rDTWpEmsR5EocLpwN7MI",
    "maps_url": "https://www.google.com/maps/place/?q=place_id:ChIJEb6rDTWpEmsR5EocLpwN7MI",
    "rating": 4.5,
    "total_ratings": 40
  },
  {
    "name": "Clarke’s Point Reserve",
    "address": "Clarkes Point Reserve, Woolwich Rd, Sydney",
    "suburb": "Chatswood",
    "state": "NSW",
    "lat": -33.8422815,
    "lng": 151.1742844,
    "place_id": "ChIJTz7NqqevEmsRgALz-Wh9AQ8",
    "maps_url": "https://www.google.com/maps/place/?q=place_id:ChIJTz7NqqevEmsRgALz-Wh9AQ8",
    "rating": 4.6,
    "total_ratings": 530
  },
  {
    "name": "Terrace on the Domain",
    "address": "1 Art Gallery Rd, Sydney",
    "suburb": "Chatswood",
    "state": "NSW",
    "lat": -33.86787,
    "lng": 151.216807,
    "place_id": "ChIJPVqlfGyuEmsR40_QnHXfTU0",
    "maps_url": "https://www.google.com/maps/place/?q=place_id:ChIJPVqlfGyuEmsR40_QnHXfTU0",
    "rating": 3.9,
    "total_ratings": 1085
  },
  {
    "name": "Foundation and Friends of the Botanic Gardens",
    "address": "6 Mrs Macquaries Rd, Sydney",
    "suburb": "Chatswood",
    "state": "NSW",
    "lat": -33.8662098,
    "lng": 151.2184383,
    "place_id": "ChIJWb3OKGyuEmsRyyUoFBJytMo",
    "maps_url": "https://www.google.com/maps/place/?q=place_id:ChIJWb3OKGyuEmsRyyUoFBJytMo",
    "rating": 4.3,
    "total_ratings": 6
  },
  {
    "name": "Australian Rockery Lawn",
    "address": "2A Macquarie St, Sydney",
    "suburb": "Chatswood",
    "state": "NSW",
    "lat": -33.8593707,
    "lng": 151.2161821,
    "place_id": "ChIJb-9-DGauEmsRd7cRx8uwisQ",
    "maps_url": "https://www.google.com/maps/place/?q=place_id:ChIJb-9-DGauEmsRd7cRx8uwisQ",
    "rating": 4.8,
    "total_ratings": 108
  },
  {
    "name": "Herb Garden and Pavilion",
    "address": "Mrs Macquaries Rd, Sydney",
    "suburb": "Chatswood",
    "state": "NSW",
    "lat": -33.8639858,
    "lng": 151.2153536,
    "place_id": "ChIJy4QKSGmuEmsRd70RVMAs_fI",
    "maps_url": "https://www.google.com/maps/place/?q=place_id:ChIJy4QKSGmuEmsRd70RVMAs_fI",
    "rating": 4.7,
    "total_ratings": 57
  },
  {
    "name": "Garden of Remembrance",
    "address": "Albert Ave, Chatswood",
    "suburb": "Chatswood",
    "state": "NSW",
    "lat": -33.7982716,
    "lng": 151.1813942,
    "place_id": "ChIJrYxRlb6pEmsR9__Hzf4DfpI",
    "maps_url": "https://www.google.com/maps/place/?q=place_id:ChIJrYxRlb6pEmsR9__Hzf4DfpI",
    "rating": 4.8,
    "total_ratings": 11
  },
  {
    "name": "Harbour View Lawn",
    "address": "Mrs Macquaries Rd, Sydney",
    "suburb": "Chatswood",
    "state": "NSW",
    "lat": -33.8627292,
    "lng": 151.2201437,
    "place_id": "ChIJq8ecvm-uEmsRsc9VYOUpyas",
    "maps_url": "https://www.google.com/maps/place/?q=place_id:ChIJq8ecvm-uEmsRsc9VYOUpyas",
    "rating": 4.8,
    "total_ratings": 144
  },
  {
    "name": "Northern Suburbs Memorial Gardens and Crematorium",
    "address": "199 Delhi Rd, North Ryde",
    "suburb": "Chatswood",
    "state": "NSW",
    "lat": -33.7953419,
    "lng": 151.1530324,
    "place_id": "ChIJrdnxc02vEmsRQPnv-Wh9AQ8",
    "maps_url": "https://www.google.com/maps/place/?q=place_id:ChIJrdnxc02vEmsRQPnv-Wh9AQ8",
    "rating": 4.3,
    "total_ratings": 81
  },
  {
    "name": "Berry Island Reserve",
    "address": "10 Shirley Rd, Wollstonecraft",
    "suburb": "Chatswood",
    "state": "NSW",
    "lat": -33.8393222,
    "lng": 151.188876,
    "place_id": "ChIJYQHJQf6uEmsRENvx-Wh9AQ8",
    "maps_url": "https://www.google.com/maps/place/?q=place_id:ChIJYQHJQf6uEmsRENvx-Wh9AQ8",
    "rating": 4.7,
    "total_ratings": 648
  },
  {
    "name": "Clark Park",
    "address": "Harbourview Cres, Milsons Point",
    "suburb": "Chatswood",
    "state": "NSW",
    "lat": -33.8438409,
    "lng": 151.2088587,
    "place_id": "ChIJtdOPL_auEmsRFioIvUn-0-w",
    "maps_url": "https://www.google.com/maps/place/?q=place_id:ChIJtdOPL_auEmsRFioIvUn-0-w",
    "rating": 4.6,
    "total_ratings": 984
  },
  {
    "name": "Artarmon Reserve",
    "address": "2 Burra Rd, Artarmon",
    "suburb": "Chatswood",
    "state": "NSW",
    "lat": -33.8110813,
    "lng": 151.1923959,
    "place_id": "ChIJSXV7JNeuEmsRaetklml2Zsw",
    "maps_url": "https://www.google.com/maps/place/?q=place_id:ChIJSXV7JNeuEmsRaetklml2Zsw",
    "rating": 4.5,
    "total_ratings": 572
  },
  {
    "name": "Botanic House",
    "address": "1 Mrs Macquaries Rd, Sydney",
    "suburb": "Chatswood",
    "state": "NSW",
    "lat": -33.8647486,
    "lng": 151.2170141,
    "place_id": "ChIJoRyzuW6uEmsR6SzqZSsmezo",
    "maps_url": "https://www.google.com/maps/place/?q=place_id:ChIJoRyzuW6uEmsR6SzqZSsmezo",
    "rating": 4.4,
    "total_ratings": 1720
  },
  {
    "name": "The Domain",
    "address": "Sir John Young Cres, Sydney",
    "suburb": "Chatswood",
    "state": "NSW",
    "lat": -33.8709801,
    "lng": 151.2157975,
    "place_id": "ChIJof55qmyuEmsRHBxinr7BqKA",
    "maps_url": "https://www.google.com/maps/place/?q=place_id:ChIJof55qmyuEmsRHBxinr7BqKA",
    "rating": 4.5,
    "total_ratings": 254
  },
  {
    "name": "The Sydney Fernery",
    "address": "Sydney",
    "suburb": "Chatswood",
    "state": "NSW",
    "lat": -33.8658113,
    "lng": 151.2164174,
    "place_id": "ChIJxXCrBmyuEmsRQGh44vHehxg",
    "maps_url": "https://www.google.com/maps/place/?q=place_id:ChIJxXCrBmyuEmsRQGh44vHehxg",
    "rating": 4.8,
    "total_ratings": 60
  },
  {
    "name": "Waterloo Park",
    "address": "199 Waterloo Rd, Marsfield",
    "suburb": "Chatswood",
    "state": "NSW",
    "lat": -33.7690081,
    "lng": 151.1081615,
    "place_id": "ChIJm1Oad8OxEmsRgBPy-Wh9AQ8",
    "maps_url": "https://www.google.com/maps/place/?q=place_id:ChIJm1Oad8OxEmsRgBPy-Wh9AQ8",
    "rating": 4.4,
    "total_ratings": 544
  },
  {
    "name": "Observatory Hill Park",
    "address": "1001 Upper Fort St, Millers Point",
    "suburb": "Chatswood",
    "state": "NSW",
    "lat": -33.8594047,
    "lng": 151.2048859,
    "place_id": "ChIJZ6DWeEOuEmsRYO_x-Wh9AQ8",
    "maps_url": "https://www.google.com/maps/place/?q=place_id:ChIJZ6DWeEOuEmsRYO_x-Wh9AQ8",
    "rating": 4.7,
    "total_ratings": 3026
  },
  {
    "name": "Morshead Fountain",
    "address": "Cahill Expy, Sydney",
    "suburb": "Chatswood",
    "state": "NSW",
    "lat": -33.865556,
    "lng": 151.2133741,
    "place_id": "ChIJMVhazGuuEmsRH_kCTkowGbI",
    "maps_url": "https://www.google.com/maps/place/?q=place_id:ChIJMVhazGuuEmsRH_kCTkowGbI",
    "rating": 4.5,
    "total_ratings": 35
  },
  {
    "name": "Artistry Garden",
    "address": "One Farrer Pl, Sydney",
    "suburb": "Chatswood",
    "state": "NSW",
    "lat": -33.8641029,
    "lng": 151.2113054,
    "place_id": "ChIJVTsaIUGvEmsRWb5TTCB85Vs",
    "maps_url": "https://www.google.com/maps/place/?q=place_id:ChIJVTsaIUGvEmsRWb5TTCB85Vs",
    "rating": 4.6,
    "total_ratings": 69
  },
  {
    "name": "Anderson Park",
    "address": "Clark Rd, Neutral Bay",
    "suburb": "Chatswood",
    "state": "NSW",
    "lat": -33.8398521,
    "lng": 151.2149885,
    "place_id": "ChIJg13gko2uEmsRKPmS1eNnVLE",
    "maps_url": "https://www.google.com/maps/place/?q=place_id:ChIJg13gko2uEmsRKPmS1eNnVLE",
    "rating": 4.3,
    "total_ratings": 437
  },
  {
    "name": "Henry Lawson Gate",
    "address": "Royal Botanic Gardens, Mrs Macquaries Rd, Sydney",
    "suburb": "Chatswood",
    "state": "NSW",
    "lat": -33.8645723,
    "lng": 151.2198317,
    "place_id": "ChIJuYcwOsuvEmsRFvZzgz5_d8w",
    "maps_url": "https://www.google.com/maps/place/?q=place_id:ChIJuYcwOsuvEmsRFvZzgz5_d8w",
    "rating": 4.5,
    "total_ratings": 18
  },
  {
    "name": "Boronia Park Reserve",
    "address": "Park Rd &, Ryde Rd, Hunters Hill",
    "suburb": "Chatswood",
    "state": "NSW",
    "lat": -33.824754,
    "lng": 151.1407612,
    "place_id": "ChIJhds_xYClEmsRJ0tno0-5bMM",
    "maps_url": "https://www.google.com/maps/place/?q=place_id:ChIJhds_xYClEmsRJ0tno0-5bMM",
    "rating": 4.4,
    "total_ratings": 556
  },
  {
    "name": "Information Booth - Royal Botanic Gardens",
    "address": "Mrs Macquaries Rd, Sydney",
    "suburb": "Chatswood",
    "state": "NSW",
    "lat": -33.8668876,
    "lng": 151.2174843,
    "place_id": "ChIJLVOnFWyuEmsRZY_yPtQD3Wc",
    "maps_url": "https://www.google.com/maps/place/?q=place_id:ChIJLVOnFWyuEmsRZY_yPtQD3Wc",
    "rating": 4.8,
    "total_ratings": 93
  },
  {
    "name": "Leaf Dept. Cafe",
    "address": "Royal Botanic Garden Sydney, Mrs Macquaries Rd, Sydney",
    "suburb": "Chatswood",
    "state": "NSW",
    "lat": -33.8660154,
    "lng": 151.2150702,
    "place_id": "ChIJU-5ukm2vEmsRkuZzOOulM6Q",
    "maps_url": "https://www.google.com/maps/place/?q=place_id:ChIJU-5ukm2vEmsRkuZzOOulM6Q",
    "rating": 4.2,
    "total_ratings": 102
  },
  {
    "name": "Buffalo Creek Reserve",
    "address": "177 Pittwater Rd, Hunters Hill",
    "suburb": "Chatswood",
    "state": "NSW",
    "lat": -33.8160541,
    "lng": 151.1373289,
    "place_id": "ChIJyynEvmKvEmsRYKXy-Wh9AQ8",
    "maps_url": "https://www.google.com/maps/place/?q=place_id:ChIJyynEvmKvEmsRYKXy-Wh9AQ8",
    "rating": 4.4,
    "total_ratings": 371
  },
  {
    "name": "Milson Park",
    "address": "McDougall St, Kirribilli",
    "suburb": "Chatswood",
    "state": "NSW",
    "lat": -33.8441847,
    "lng": 151.214418,
    "place_id": "ChIJqVW1dIyuEmsRsOTx-Wh9AQ8",
    "maps_url": "https://www.google.com/maps/place/?q=place_id:ChIJqVW1dIyuEmsRsOTx-Wh9AQ8",
    "rating": 4.6,
    "total_ratings": 1252
  },
  {
    "name": "The Royal Botanic Gardens, Macquarie St",
    "address": "Sydney",
    "suburb": "Chatswood",
    "state": "NSW",
    "lat": -33.864849,
    "lng": 151.212738,
    "place_id": "ChIJ8ffaK2quEmsRQdV0YOvylDM",
    "maps_url": "https://www.google.com/maps/place/?q=place_id:ChIJ8ffaK2quEmsRQdV0YOvylDM",
    "rating": 4.7,
    "total_ratings": 14
  },
  {
    "name": "Seven Little Australians Park",
    "address": "Lindfield",
    "suburb": "Chatswood",
    "state": "NSW",
    "lat": -33.7701534,
    "lng": 151.1755701,
    "place_id": "ChIJj1PDzPqoEmsRoPTy-Wh9AQ8",
    "maps_url": "https://www.google.com/maps/place/?q=place_id:ChIJj1PDzPqoEmsRoPTy-Wh9AQ8",
    "rating": 4.4,
    "total_ratings": 52
  },
  {
    "name": "Illoura Reserve",
    "address": "Weston St, Balmain East",
    "suburb": "Chatswood",
    "state": "NSW",
    "lat": -33.8580849,
    "lng": 151.1960635,
    "place_id": "ChIJwxSYDPq0cmsR8FDy-Wh9AQ8",
    "maps_url": "https://www.google.com/maps/place/?q=place_id:ChIJwxSYDPq0cmsR8FDy-Wh9AQ8",
    "rating": 4.7,
    "total_ratings": 231
  },
  {
    "name": "Fig Tree Lawn",
    "address": "Royal Botanic Gardens, Sydney",
    "suburb": "Chatswood",
    "state": "NSW",
    "lat": -33.8629924,
    "lng": 151.2167297,
    "place_id": "ChIJc48eKG-uEmsRnpozv30c370",
    "maps_url": "https://www.google.com/maps/place/?q=place_id:ChIJc48eKG-uEmsRnpozv30c370",
    "rating": 4.8,
    "total_ratings": 50
  },
  {
    "name": "Bridgewater Park",
    "address": "Margaret St, Rozelle",
    "suburb": "Chatswood",
    "state": "NSW",
    "lat": -33.8594619,
    "lng": 151.16625,
    "place_id": "ChIJCSaZSMCvEmsR0NLx-Wh9AQ8",
    "maps_url": "https://www.google.com/maps/place/?q=place_id:ChIJCSaZSMCvEmsR0NLx-Wh9AQ8",
    "rating": 4.6,
    "total_ratings": 215
  },
  {
    "name": "Wangal Reserve",
    "address": "38A Hilly St, Mortlake",
    "suburb": "Chatswood",
    "state": "NSW",
    "lat": -33.8350863,
    "lng": 151.10452,
    "place_id": "ChIJZ-mObxqlEmsRmWHLrJ8V498",
    "maps_url": "https://www.google.com/maps/place/?q=place_id:ChIJZ-mObxqlEmsRmWHLrJ8V498",
    "rating": 4.6,
    "total_ratings": 231
  },
  {
    "name": "Jessie Street Gardens",
    "address": "29 Loftus St, Sydney",
    "suburb": "Chatswood",
    "state": "NSW",
    "lat": -33.8622308,
    "lng": 151.210307,
    "place_id": "ChIJTbWW2GmuEmsRw5gVV-ePscY",
    "maps_url": "https://www.google.com/maps/place/?q=place_id:ChIJTbWW2GmuEmsRw5gVV-ePscY",
    "rating": 4.2,
    "total_ratings": 9
  },
  {
    "name": "Green Toad Tea Gardens",
    "address": "50 Alvona Ave, St Ives",
    "suburb": "Chatswood",
    "state": "NSW",
    "lat": -33.7368628,
    "lng": 151.1639605,
    "place_id": "ChIJlYpkK0CoEmsRJ7wjh7dIAEw",
    "maps_url": "https://www.google.com/maps/place/?q=place_id:ChIJlYpkK0CoEmsRJ7wjh7dIAEw",
    "rating": 4.8,
    "total_ratings": 4
  },
  {
    "name": "Fagan Park",
    "address": "38-48 Arcadia Rd, Galston",
    "suburb": "Hornsby",
    "state": "NSW",
    "lat": -33.640533,
    "lng": 151.0452256,
    "place_id": "ChIJP_TqD9VeDWsRsFrx-Wh9AQ8",
    "maps_url": "https://www.google.com/maps/place/?q=place_id:ChIJP_TqD9VeDWsRsFrx-Wh9AQ8",
    "rating": 4.7,
    "total_ratings": 3120
  },
  {
    "name": "Mediterranean Garden, Fagan Park",
    "address": "38-48 Arcadia Rd, Galston",
    "suburb": "Hornsby",
    "state": "NSW",
    "lat": -33.6397331,
    "lng": 151.0439992,
    "place_id": "ChIJVxrmVNReDWsRr80tTLE89oA",
    "maps_url": "https://www.google.com/maps/place/?q=place_id:ChIJVxrmVNReDWsRr80tTLE89oA",
    "rating": 4.5,
    "total_ratings": 17
  },
  {
    "name": "Forest Park",
    "address": "Forest Grove, Epping",
    "suburb": "Hornsby",
    "state": "NSW",
    "lat": -33.7752245,
    "lng": 151.0849521,
    "place_id": "ChIJnewlh4KmEmsRwNjy-Wh9AQ8",
    "maps_url": "https://www.google.com/maps/place/?q=place_id:ChIJnewlh4KmEmsRwNjy-Wh9AQ8",
    "rating": 4.4,
    "total_ratings": 312
  },
  {
    "name": "Lisgar Gardens",
    "address": "Lisgar Rd, Hornsby",
    "suburb": "Hornsby",
    "state": "NSW",
    "lat": -33.7049365,
    "lng": 151.0892195,
    "place_id": "ChIJg6lkXnenEmsRkI3y-Wh9AQ8",
    "maps_url": "https://www.google.com/maps/place/?q=place_id:ChIJg6lkXnenEmsRkI3y-Wh9AQ8",
    "rating": 4.6,
    "total_ratings": 627
  },
  {
    "name": "Japanese Garden",
    "address": "Unit 48/38 Fagans Rd, Galston",
    "suburb": "Hornsby",
    "state": "NSW",
    "lat": -33.6391861,
    "lng": 151.0458021,
    "place_id": "ChIJi8WzwdReDWsRYFMHYhe20Eg",
    "maps_url": "https://www.google.com/maps/place/?q=place_id:ChIJi8WzwdReDWsRYFMHYhe20Eg",
    "rating": 4.1,
    "total_ratings": 24
  },
  {
    "name": "Hornsby Park",
    "address": "203 X Pacific Hwy, Hornsby",
    "suburb": "Hornsby",
    "state": "NSW",
    "lat": -33.6987598,
    "lng": 151.0925698,
    "place_id": "ChIJM5TaSACnEmsR2voqpeynHoQ",
    "maps_url": "https://www.google.com/maps/place/?q=place_id:ChIJM5TaSACnEmsR2voqpeynHoQ",
    "rating": 3.9,
    "total_ratings": 18
  },
  {
    "name": "Castle Hill Heritage Park Reserve",
    "address": "22Z Heritage Park Dr, Castle Hill",
    "suburb": "Hornsby",
    "state": "NSW",
    "lat": -33.7183636,
    "lng": 151.0144166,
    "place_id": "ChIJBY7AFB2hEmsRQLby-Wh9AQ8",
    "maps_url": "https://www.google.com/maps/place/?q=place_id:ChIJBY7AFB2hEmsRQLby-Wh9AQ8",
    "rating": 4.6,
    "total_ratings": 1104
  },
  {
    "name": "The Lakes of Cherrybrook",
    "address": "41/47 Shepherds Dr, Cherrybrook",
    "suburb": "Hornsby",
    "state": "NSW",
    "lat": -33.721893,
    "lng": 151.0451279,
    "place_id": "ChIJB45L4tSgEmsRcHXx-Wh9AQ8",
    "maps_url": "https://www.google.com/maps/place/?q=place_id:ChIJB45L4tSgEmsRcHXx-Wh9AQ8",
    "rating": 4.2,
    "total_ratings": 209
  },
  {
    "name": "Ku-ring-gai Wildflower Garden",
    "address": "420 Mona Vale Rd, St Ives",
    "suburb": "Hornsby",
    "state": "NSW",
    "lat": -33.707736,
    "lng": 151.177179,
    "place_id": "ChIJZXlOcc9XDWsRcOvx-Wh9AQ8",
    "maps_url": "https://www.google.com/maps/place/?q=place_id:ChIJZXlOcc9XDWsRcOvx-Wh9AQ8",
    "rating": 4.6,
    "total_ratings": 267
  },
  {
    "name": "Edgeworth David Garden",
    "address": "Cnr of Sherbrook and, Northcote Rd, Hornsby",
    "suburb": "Hornsby",
    "state": "NSW",
    "lat": -33.7017242,
    "lng": 151.106909,
    "place_id": "ChIJtamLXYinEmsRsWi8NL8VjD0",
    "maps_url": "https://www.google.com/maps/place/?q=place_id:ChIJtamLXYinEmsRsWi8NL8VjD0",
    "rating": 4.2,
    "total_ratings": 39
  },
  {
    "name": "Storey Park",
    "address": "12 Old Berowra Rd, Hornsby",
    "suburb": "Hornsby",
    "state": "NSW",
    "lat": -33.6892946,
    "lng": 151.1016323,
    "place_id": "ChIJQ7inGntYDWsRk5C_zUpXuD0",
    "maps_url": "https://www.google.com/maps/place/?q=place_id:ChIJQ7inGntYDWsRk5C_zUpXuD0",
    "rating": 4.5,
    "total_ratings": 355
  },
  {
    "name": "Chinese Gardens Fagan park",
    "address": "38-48 Arcadia Rd, Galston",
    "suburb": "Hornsby",
    "state": "NSW",
    "lat": -33.638435,
    "lng": 151.0447403,
    "place_id": "ChIJbc-TLsVfDWsRYpHngZfHlSo",
    "maps_url": "https://www.google.com/maps/place/?q=place_id:ChIJbc-TLsVfDWsRYpHngZfHlSo",
    "rating": 3.7,
    "total_ratings": 3
  },
  {
    "name": "John Wearn Reserve",
    "address": "21Z Farnell Ave, Carlingford",
    "suburb": "Hornsby",
    "state": "NSW",
    "lat": -33.7728583,
    "lng": 151.036837,
    "place_id": "ChIJ93malvqjEmsR1OItxCA447Q",
    "maps_url": "https://www.google.com/maps/place/?q=place_id:ChIJ93malvqjEmsR1OItxCA447Q",
    "rating": 4.6,
    "total_ratings": 507
  },
  {
    "name": "Koola Park",
    "address": "26A Koola Ave, East Killara",
    "suburb": "Hornsby",
    "state": "NSW",
    "lat": -33.7561113,
    "lng": 151.1716496,
    "place_id": "ChIJAzjLKfaoEmsRbU6Zqgs9f4M",
    "maps_url": "https://www.google.com/maps/place/?q=place_id:ChIJAzjLKfaoEmsRbU6Zqgs9f4M",
    "rating": 4.3,
    "total_ratings": 187
  },
  {
    "name": "Hassall Park",
    "address": "352 Mona Vale Rd, St Ives",
    "suburb": "Hornsby",
    "state": "NSW",
    "lat": -33.7161272,
    "lng": 151.1722686,
    "place_id": "ChIJMTS-fyeoEmsR-d7VQnfFkY4",
    "maps_url": "https://www.google.com/maps/place/?q=place_id:ChIJMTS-fyeoEmsR-d7VQnfFkY4",
    "rating": 4.5,
    "total_ratings": 54
  },
  {
    "name": "Richard Webb Reserve",
    "address": "Deakin Pl, West Pennant Hills",
    "suburb": "Hornsby",
    "state": "NSW",
    "lat": -33.7532463,
    "lng": 151.0311632,
    "place_id": "ChIJY4_3bVuhEmsR0NLy-Wh9AQ8",
    "maps_url": "https://www.google.com/maps/place/?q=place_id:ChIJY4_3bVuhEmsR0NLy-Wh9AQ8",
    "rating": 4.1,
    "total_ratings": 62
  },
  {
    "name": "Pencil Park",
    "address": "59 Memorial Ave, St Ives",
    "suburb": "Hornsby",
    "state": "NSW",
    "lat": -33.7220664,
    "lng": 151.162089,
    "place_id": "ChIJNem7QxioEmsRER2420ZadyY",
    "maps_url": "https://www.google.com/maps/place/?q=place_id:ChIJNem7QxioEmsRER2420ZadyY",
    "rating": 4.2,
    "total_ratings": 37
  },
  {
    "name": "Ray Park",
    "address": "26X Plympton Rd, Carlingford",
    "suburb": "Hornsby",
    "state": "NSW",
    "lat": -33.7640946,
    "lng": 151.0637998,
    "place_id": "ChIJq9QngKamEmsR2Wf6Mt6Kl9c",
    "maps_url": "https://www.google.com/maps/place/?q=place_id:ChIJq9QngKamEmsR2Wf6Mt6Kl9c",
    "rating": 4.4,
    "total_ratings": 152
  },
  {
    "name": "Regimental Park",
    "address": "22 Lorne Ave, Killara",
    "suburb": "Hornsby",
    "state": "NSW",
    "lat": -33.7656861,
    "lng": 151.1578167,
    "place_id": "ChIJs164K5KoEmsRQKDx-Wh9AQ8",
    "maps_url": "https://www.google.com/maps/place/?q=place_id:ChIJs164K5KoEmsRQKDx-Wh9AQ8",
    "rating": 3.9,
    "total_ratings": 107
  },
  {
    "name": "Marsfield Park",
    "address": "Vimiera Rd, Marsfield",
    "suburb": "Hornsby",
    "state": "NSW",
    "lat": -33.7705107,
    "lng": 151.1036706,
    "place_id": "ChIJhTClo3qmEmsR0KTx-Wh9AQ8",
    "maps_url": "https://www.google.com/maps/place/?q=place_id:ChIJhTClo3qmEmsR0KTx-Wh9AQ8",
    "rating": 4.2,
    "total_ratings": 199
  },
  {
    "name": "Dence Park",
    "address": "26 Stanley Rd, Epping",
    "suburb": "Hornsby",
    "state": "NSW",
    "lat": -33.7754167,
    "lng": 151.0926051,
    "place_id": "ChIJXzB99WKnEmsR97bmBfn2lE4",
    "maps_url": "https://www.google.com/maps/place/?q=place_id:ChIJXzB99WKnEmsR97bmBfn2lE4",
    "rating": 4.3,
    "total_ratings": 20
  },
  {
    "name": "Campbell Park",
    "address": "3 Wilga St, West Pennant Hills",
    "suburb": "Hornsby",
    "state": "NSW",
    "lat": -33.7374114,
    "lng": 151.0507948,
    "place_id": "ChIJHTyMus2mEmsRJfLfpKQwLHs",
    "maps_url": "https://www.google.com/maps/place/?q=place_id:ChIJHTyMus2mEmsRJfLfpKQwLHs",
    "rating": 4,
    "total_ratings": 93
  },
  {
    "name": "Mount Wilberforce Lookout Reserve",
    "address": "7 Castle Hill Rd, West Pennant Hills",
    "suburb": "Hornsby",
    "state": "NSW",
    "lat": -33.745706,
    "lng": 151.048201,
    "place_id": "ChIJySqSp8qmEmsREIrx-Wh9AQ8",
    "maps_url": "https://www.google.com/maps/place/?q=place_id:ChIJySqSp8qmEmsREIrx-Wh9AQ8",
    "rating": 4.1,
    "total_ratings": 134
  },
  {
    "name": "Beatrice Thomson Park",
    "address": "52 Albert St, Hornsby",
    "suburb": "Hornsby",
    "state": "NSW",
    "lat": -33.6996967,
    "lng": 151.1031257,
    "place_id": "ChIJ2eUOmIenEmsRNQ7EZn2OdMU",
    "maps_url": "https://www.google.com/maps/place/?q=place_id:ChIJ2eUOmIenEmsRNQ7EZn2OdMU",
    "rating": 4.2,
    "total_ratings": 124
  },
  {
    "name": "Samuel Oxley Park",
    "address": "West Pennant Hills",
    "suburb": "Hornsby",
    "state": "NSW",
    "lat": -33.7442575,
    "lng": 151.0513203,
    "place_id": "ChIJgeniScqmEmsRgI_y-Wh9AQ8",
    "maps_url": "https://www.google.com/maps/place/?q=place_id:ChIJgeniScqmEmsRgI_y-Wh9AQ8",
    "rating": 4.3,
    "total_ratings": 61
  },
  {
    "name": "George Thornton Reserve",
    "address": "View St, West Pennant Hills",
    "suburb": "Hornsby",
    "state": "NSW",
    "lat": -33.7480243,
    "lng": 151.0283795,
    "place_id": "ChIJgww-y0OhEmsRIKvy-Wh9AQ8",
    "maps_url": "https://www.google.com/maps/place/?q=place_id:ChIJgww-y0OhEmsRIKvy-Wh9AQ8",
    "rating": 4.4,
    "total_ratings": 302
  },
  {
    "name": "Ruddock Park",
    "address": "Quarter Sessions Rd, Westleigh",
    "suburb": "Hornsby",
    "state": "NSW",
    "lat": -33.7183777,
    "lng": 151.0715363,
    "place_id": "ChIJxd0bLRanEmsRMJHy-Wh9AQ8",
    "maps_url": "https://www.google.com/maps/place/?q=place_id:ChIJxd0bLRanEmsRMJHy-Wh9AQ8",
    "rating": 4.6,
    "total_ratings": 539
  },
  {
    "name": "Willow Park",
    "address": "25 Edgeworth David Ave, Hornsby",
    "suburb": "Hornsby",
    "state": "NSW",
    "lat": -33.7060917,
    "lng": 151.1053723,
    "place_id": "ChIJCxz0i4WnEmsRsGvx-Wh9AQ8",
    "maps_url": "https://www.google.com/maps/place/?q=place_id:ChIJCxz0i4WnEmsRsGvx-Wh9AQ8",
    "rating": 4.1,
    "total_ratings": 292
  },
  {
    "name": "Hazlewood Rose Park",
    "address": "Carlingford",
    "suburb": "Hornsby",
    "state": "NSW",
    "lat": -33.76542,
    "lng": 151.0618303,
    "place_id": "ChIJ245KIH2nEmsRMDiNJpYprAM",
    "maps_url": "https://www.google.com/maps/place/?q=place_id:ChIJ245KIH2nEmsRMDiNJpYprAM",
    "rating": 4.1,
    "total_ratings": 32
  },
  {
    "name": "Anembo Reserve",
    "address": "Anembo Rd, Duffys Forest",
    "suburb": "Hornsby",
    "state": "NSW",
    "lat": -33.6843245,
    "lng": 151.1845811,
    "place_id": "ChIJV-4WjaxXDWsR0Iny-Wh9AQ8",
    "maps_url": "https://www.google.com/maps/place/?q=place_id:ChIJV-4WjaxXDWsR0Iny-Wh9AQ8",
    "rating": 4.6,
    "total_ratings": 11
  },
  {
    "name": "PCYC park",
    "address": "Waitara",
    "suburb": "Hornsby",
    "state": "NSW",
    "lat": -33.7070489,
    "lng": 151.1061579,
    "place_id": "ChIJpcNHQumnEmsRJ850Dvdkw4E",
    "maps_url": "https://www.google.com/maps/place/?q=place_id:ChIJpcNHQumnEmsRJ850Dvdkw4E",
    "rating": 4.7,
    "total_ratings": 93
  },
  {
    "name": "Beecroft Village Green",
    "address": "Beecroft Rd &, Welham St, Beecroft",
    "suburb": "Hornsby",
    "state": "NSW",
    "lat": -33.7528398,
    "lng": 151.0660815,
    "place_id": "ChIJc09yIr-mEmsR1-CMhXX5geE",
    "maps_url": "https://www.google.com/maps/place/?q=place_id:ChIJc09yIr-mEmsR1-CMhXX5geE",
    "rating": 4.4,
    "total_ratings": 37
  },
  {
    "name": "Holman Park",
    "address": "46 Northcote Rd, Hornsby",
    "suburb": "Hornsby",
    "state": "NSW",
    "lat": -33.7009752,
    "lng": 151.1070263,
    "place_id": "ChIJoRt0QYinEmsR32l2Up0hTWM",
    "maps_url": "https://www.google.com/maps/place/?q=place_id:ChIJoRt0QYinEmsR32l2Up0hTWM",
    "rating": 4.1,
    "total_ratings": 74
  },
  {
    "name": "Hunt Reserve",
    "address": "689 Pacific Hwy, Mount Colah",
    "suburb": "Hornsby",
    "state": "NSW",
    "lat": -33.6636848,
    "lng": 151.122747,
    "place_id": "ChIJC5Y9oDRYDWsRQt-p4UxBef4",
    "maps_url": "https://www.google.com/maps/place/?q=place_id:ChIJC5Y9oDRYDWsRQt-p4UxBef4",
    "rating": 4.5,
    "total_ratings": 85
  },
  {
    "name": "Montview Park and Oval",
    "address": "Kookaburra Rd, Hornsby Heights",
    "suburb": "Hornsby",
    "state": "NSW",
    "lat": -33.6662903,
    "lng": 151.094223,
    "place_id": "ChIJGdOYGlhYDWsRUGDx-Wh9AQ8",
    "maps_url": "https://www.google.com/maps/place/?q=place_id:ChIJGdOYGlhYDWsRUGDx-Wh9AQ8",
    "rating": 4.4,
    "total_ratings": 239
  },
  {
    "name": "Karuah Park",
    "address": "Karuah Rd, Turramurra",
    "suburb": "Hornsby",
    "state": "NSW",
    "lat": -33.7270417,
    "lng": 151.1312172,
    "place_id": "ChIJdzNubd2nEmsRkHnx-Wh9AQ8",
    "maps_url": "https://www.google.com/maps/place/?q=place_id:ChIJdzNubd2nEmsRkHnx-Wh9AQ8",
    "rating": 4.2,
    "total_ratings": 175
  },
  {
    "name": "Baynie Garden",
    "address": "Thornleigh",
    "suburb": "Hornsby",
    "state": "NSW",
    "lat": -33.7206244,
    "lng": 151.0830412,
    "place_id": "ChIJtaAdPQCnEmsR0YOPDsT0xwM",
    "maps_url": "https://www.google.com/maps/place/?q=place_id:ChIJtaAdPQCnEmsR0YOPDsT0xwM",
    "rating": 5,
    "total_ratings": 1
  },
  {
    "name": "Reddy Park",
    "address": "92-74 Pretoria Parade, Hornsby",
    "suburb": "Hornsby",
    "state": "NSW",
    "lat": -33.7085667,
    "lng": 151.0920565,
    "place_id": "ChIJQf0X03enEmsRQG3x-Wh9AQ8",
    "maps_url": "https://www.google.com/maps/place/?q=place_id:ChIJQf0X03enEmsRQG3x-Wh9AQ8",
    "rating": 4.2,
    "total_ratings": 165
  },
  {
    "name": "Bidjigal Reserve",
    "address": "14 Heidi Pl, West Pennant Hills",
    "suburb": "Hornsby",
    "state": "NSW",
    "lat": -33.7566103,
    "lng": 151.0281361,
    "place_id": "ChIJy9wG-52hEmsRT6vOFynu0lo",
    "maps_url": "https://www.google.com/maps/place/?q=place_id:ChIJy9wG-52hEmsRT6vOFynu0lo",
    "rating": 4.5,
    "total_ratings": 27
  },
  {
    "name": "Headen Park",
    "address": "6 Sinclair Ave, Thornleigh",
    "suburb": "Hornsby",
    "state": "NSW",
    "lat": -33.7253874,
    "lng": 151.0795252,
    "place_id": "ChIJc2kq_xqnEmsRAHjx-Wh9AQ8",
    "maps_url": "https://www.google.com/maps/place/?q=place_id:ChIJc2kq_xqnEmsRAHjx-Wh9AQ8",
    "rating": 4.3,
    "total_ratings": 121
  },
  {
    "name": "Stewart Park",
    "address": "Marsfield",
    "suburb": "Hornsby",
    "state": "NSW",
    "lat": -33.7732983,
    "lng": 151.1011828,
    "place_id": "ChIJo_Trv3umEmsRwEvx-Wh9AQ8",
    "maps_url": "https://www.google.com/maps/place/?q=place_id:ChIJo_Trv3umEmsRwEvx-Wh9AQ8",
    "rating": 3.7,
    "total_ratings": 16
  },
  {
    "name": "Observatory Park",
    "address": "2 Beecroft Rd, Pennant Hills",
    "suburb": "Hornsby",
    "state": "NSW",
    "lat": -33.7408059,
    "lng": 151.0618374,
    "place_id": "ChIJ_ZdfHMWmEmsRCd7_3jWuEWg",
    "maps_url": "https://www.google.com/maps/place/?q=place_id:ChIJ_ZdfHMWmEmsRCd7_3jWuEWg",
    "rating": 4,
    "total_ratings": 50
  },
  {
    "name": "Pee Wee Park",
    "address": "37 Kiparra St, West Pymble",
    "suburb": "Hornsby",
    "state": "NSW",
    "lat": -33.7614642,
    "lng": 151.1399068,
    "place_id": "ChIJc9g6giemEmsRoKU0YomTjZ4",
    "maps_url": "https://www.google.com/maps/place/?q=place_id:ChIJc9g6giemEmsRoKU0YomTjZ4",
    "rating": 3.8,
    "total_ratings": 26
  },
  {
    "name": "Pembroke Street Park",
    "address": "8 Pembroke St, Epping",
    "suburb": "Hornsby",
    "state": "NSW",
    "lat": -33.77256,
    "lng": 151.0837765,
    "place_id": "ChIJE8jOHoOmEmsR_teFvcbfx2k",
    "maps_url": "https://www.google.com/maps/place/?q=place_id:ChIJE8jOHoOmEmsR_teFvcbfx2k",
    "rating": 4,
    "total_ratings": 59
  },
  {
    "name": "Duncan Park",
    "address": "Unit 6/, Unit 6/43 Kent St, Epping",
    "suburb": "Hornsby",
    "state": "NSW",
    "lat": -33.775161,
    "lng": 151.0758284,
    "place_id": "ChIJH68mMyekEmsRBY8vs5Wl_1Y",
    "maps_url": "https://www.google.com/maps/place/?q=place_id:ChIJH68mMyekEmsRBY8vs5Wl_1Y",
    "rating": 4.2,
    "total_ratings": 12
  },
  {
    "name": "Ginger Meggs Park",
    "address": "24 Valley Rd, Hornsby",
    "suburb": "Hornsby",
    "state": "NSW",
    "lat": -33.7022006,
    "lng": 151.0816381,
    "place_id": "ChIJicCmaWWnEmsRBXZFvgmuG5M",
    "maps_url": "https://www.google.com/maps/place/?q=place_id:ChIJicCmaWWnEmsRBXZFvgmuG5M",
    "rating": 4.3,
    "total_ratings": 172
  },
  {
    "name": "Kenley Park",
    "address": "136-140 Pennant Hills Rd, Normanhurst",
    "suburb": "Hornsby",
    "state": "NSW",
    "lat": -33.7226878,
    "lng": 151.0919266,
    "place_id": "ChIJv96fuwmnEmsRUMry-Wh9AQ8",
    "maps_url": "https://www.google.com/maps/place/?q=place_id:ChIJv96fuwmnEmsRUMry-Wh9AQ8",
    "rating": 3.9,
    "total_ratings": 49
  },
  {
    "name": "Galston Recreation Reserve",
    "address": "412 Galston Rd, Galston",
    "suburb": "Hornsby",
    "state": "NSW",
    "lat": -33.6581218,
    "lng": 151.0401449,
    "place_id": "ChIJ3we6nzdfDWsR4IXy-Wh9AQ8",
    "maps_url": "https://www.google.com/maps/place/?q=place_id:ChIJ3we6nzdfDWsR4IXy-Wh9AQ8",
    "rating": 4.4,
    "total_ratings": 87
  },
  {
    "name": "Bandalong Reserve",
    "address": "28 Bolwarra Ave, West Pymble",
    "suburb": "Hornsby",
    "state": "NSW",
    "lat": -33.7677683,
    "lng": 151.1384794,
    "place_id": "ChIJs_DVOCCmEmsRv4G_KCsy0ZQ",
    "maps_url": "https://www.google.com/maps/place/?q=place_id:ChIJs_DVOCCmEmsRv4G_KCsy0ZQ",
    "rating": 4.2,
    "total_ratings": 10
  },
  {
    "name": "Lyne Road Reserve",
    "address": "23 Lyne Rd, Cheltenham",
    "suburb": "Hornsby",
    "state": "NSW",
    "lat": -33.762123,
    "lng": 151.0780693,
    "place_id": "ChIJDyaX35CmEmsRwv51ShO1u1U",
    "maps_url": "https://www.google.com/maps/place/?q=place_id:ChIJDyaX35CmEmsRwv51ShO1u1U",
    "rating": 3.9,
    "total_ratings": 76
  },
  {
    "name": "Asquith Park",
    "address": "Mills Ave, Asquith",
    "suburb": "Hornsby",
    "state": "NSW",
    "lat": -33.6823404,
    "lng": 151.1091865,
    "place_id": "ChIJ2dO0C2lYDWsRMGTx-Wh9AQ8",
    "maps_url": "https://www.google.com/maps/place/?q=place_id:ChIJ2dO0C2lYDWsRMGTx-Wh9AQ8",
    "rating": 4.4,
    "total_ratings": 475
  },
  {
    "name": "Philippa Oleary Park",
    "address": "Normanhurst",
    "suburb": "Hornsby",
    "state": "NSW",
    "lat": -33.7258989,
    "lng": 151.1025479,
    "place_id": "ChIJrTK4-aSnEmsRENvy-Wh9AQ8",
    "maps_url": "https://www.google.com/maps/place/?q=place_id:ChIJrTK4-aSnEmsRENvy-Wh9AQ8",
    "rating": 4.2,
    "total_ratings": 33
  },
  {
    "name": "Rotary Park",
    "address": "Waitara",
    "suburb": "Hornsby",
    "state": "NSW",
    "lat": -33.7083347,
    "lng": 151.1029774,
    "place_id": "ChIJgZu8T8enEmsRr76XSMaEdkY",
    "maps_url": "https://www.google.com/maps/place/?q=place_id:ChIJgZu8T8enEmsRr76XSMaEdkY",
    "rating": 3.5,
    "total_ratings": 13
  },
  {
    "name": "Carrington Park",
    "address": "22 Carrington Rd, Wahroonga",
    "suburb": "Hornsby",
    "state": "NSW",
    "lat": -33.7068204,
    "lng": 151.1185513,
    "place_id": "ChIJUUXyl_SnEmsR8DYjUIuM8NM",
    "maps_url": "https://www.google.com/maps/place/?q=place_id:ChIJUUXyl_SnEmsR8DYjUIuM8NM",
    "rating": 3.2,
    "total_ratings": 37
  },
  {
    "name": "Frogmore Park",
    "address": "33 Wyomee Ave, West Pymble",
    "suburb": "Hornsby",
    "state": "NSW",
    "lat": -33.7553765,
    "lng": 151.1270295,
    "place_id": "ChIJd6mCczCmEmsRM6xeVPMMTvU",
    "maps_url": "https://www.google.com/maps/place/?q=place_id:ChIJd6mCczCmEmsRM6xeVPMMTvU",
    "rating": 3.9,
    "total_ratings": 14
  },
  {
    "name": "Honeysuckle Park (Strictly Wholesale Trade Only)",
    "address": "62 Quarry Rd, Dural",
    "suburb": "Hornsby",
    "state": "NSW",
    "lat": -33.701678,
    "lng": 151.059823,
    "place_id": "ChIJa0fqkkWnEmsR3m3ZitQPP2c",
    "maps_url": "https://www.google.com/maps/place/?q=place_id:ChIJa0fqkkWnEmsR3m3ZitQPP2c",
    "rating": 4.7,
    "total_ratings": 3
  },
  {
    "name": "Stony Range Regional Botanic Garden",
    "address": "810 Pittwater Rd, Dee Why",
    "suburb": "Manly",
    "state": "NSW",
    "lat": -33.7571897,
    "lng": 151.2823168,
    "place_id": "ChIJm45po4mqEmsR4Jbx-Wh9AQ8",
    "maps_url": "https://www.google.com/maps/place/?q=place_id:ChIJm45po4mqEmsR4Jbx-Wh9AQ8",
    "rating": 4.6,
    "total_ratings": 189
  },
  {
    "name": "Parsley Bay Reserve",
    "address": "Parsley Rd, Vaucluse",
    "suburb": "Manly",
    "state": "NSW",
    "lat": -33.8522487,
    "lng": 151.2781447,
    "place_id": "ChIJu_wnv1isEmsRsOnx-Wh9AQ8",
    "maps_url": "https://www.google.com/maps/place/?q=place_id:ChIJu_wnv1isEmsRsOnx-Wh9AQ8",
    "rating": 4.6,
    "total_ratings": 934
  },
  {
    "name": "Sawmillers Reserve",
    "address": "2 Munro St, McMahons Point",
    "suburb": "Manly",
    "state": "NSW",
    "lat": -33.8455423,
    "lng": 151.2016169,
    "place_id": "ChIJN4Rdy_euEmsRcOXx-Wh9AQ8",
    "maps_url": "https://www.google.com/maps/place/?q=place_id:ChIJN4Rdy_euEmsRcOXx-Wh9AQ8",
    "rating": 4.6,
    "total_ratings": 253
  },
  {
    "name": "Manly Peace Park",
    "address": "Unit 1/2 Addison Rd, Manly",
    "suburb": "Manly",
    "state": "NSW",
    "lat": -33.8087772,
    "lng": 151.2834927,
    "place_id": "ChIJpcG8VXSrEmsRJqVMg5CmD2k",
    "maps_url": "https://www.google.com/maps/place/?q=place_id:ChIJpcG8VXSrEmsRJqVMg5CmD2k",
    "rating": 4.5,
    "total_ratings": 51
  },
  {
    "name": "Nolan Reserve",
    "address": "Corner Pittwater Road &, Kentwell Rd, North Manly",
    "suburb": "Manly",
    "state": "NSW",
    "lat": -33.7783177,
    "lng": 151.2729245,
    "place_id": "ChIJCWO3x1OqEmsRwJXy-Wh9AQ8",
    "maps_url": "https://www.google.com/maps/place/?q=place_id:ChIJCWO3x1OqEmsRwJXy-Wh9AQ8",
    "rating": 4,
    "total_ratings": 177
  },
  {
    "name": "Gilbert Park",
    "address": "3 West Promenade, Manly",
    "suburb": "Manly",
    "state": "NSW",
    "lat": -33.7976136,
    "lng": 151.2845472,
    "place_id": "ChIJu6r64AirEmsRPma4XXLR_Eo",
    "maps_url": "https://www.google.com/maps/place/?q=place_id:ChIJu6r64AirEmsRPma4XXLR_Eo",
    "rating": 4.1,
    "total_ratings": 194
  },
  {
    "name": "Stony Range Regional Botanic Garden Car Park",
    "address": "812 Pittwater Rd, Dee Why",
    "suburb": "Manly",
    "state": "NSW",
    "lat": -33.7570822,
    "lng": 151.2826824,
    "place_id": "ChIJrxyh2OirEmsRd3sZGxo-mfQ",
    "maps_url": "https://www.google.com/maps/place/?q=place_id:ChIJrxyh2OirEmsRd3sZGxo-mfQ",
    "rating": 4.8,
    "total_ratings": 4
  },
  {
    "name": "Passmore Reserve",
    "address": "Campbell Parade, Manly Vale",
    "suburb": "Manly",
    "state": "NSW",
    "lat": -33.7806848,
    "lng": 151.2713806,
    "place_id": "ChIJS2qHBlOqEmsR4KPy-Wh9AQ8",
    "maps_url": "https://www.google.com/maps/place/?q=place_id:ChIJS2qHBlOqEmsR4KPy-Wh9AQ8",
    "rating": 4.4,
    "total_ratings": 205
  },
  {
    "name": "North Harbour Reserve",
    "address": "LOT 7001 Condamine Street South, Balgowlah",
    "suburb": "Manly",
    "state": "NSW",
    "lat": -33.7986698,
    "lng": 151.2645322,
    "place_id": "ChIJ92zxsr2rEmsR6vHOzP86L6w",
    "maps_url": "https://www.google.com/maps/place/?q=place_id:ChIJ92zxsr2rEmsR6vHOzP86L6w",
    "rating": 4.6,
    "total_ratings": 586
  },
  {
    "name": "Weaver Park",
    "address": "63 Murdoch St, Cremorne",
    "suburb": "Manly",
    "state": "NSW",
    "lat": -33.8307725,
    "lng": 151.2266767,
    "place_id": "ChIJFZYkPKKuEmsRFoAhZNgupMI",
    "maps_url": "https://www.google.com/maps/place/?q=place_id:ChIJFZYkPKKuEmsRFoAhZNgupMI",
    "rating": 3.5,
    "total_ratings": 10
  },
  {
    "name": "Robertson Park",
    "address": "22 Military Rd, Watsons Bay",
    "suburb": "Manly",
    "state": "NSW",
    "lat": -33.8438276,
    "lng": 151.2826789,
    "place_id": "ChIJe_WjU4qsEmsR4OPx-Wh9AQ8",
    "maps_url": "https://www.google.com/maps/place/?q=place_id:ChIJe_WjU4qsEmsR4OPx-Wh9AQ8",
    "rating": 4.5,
    "total_ratings": 673
  },
  {
    "name": "Vista Pavilion & Lawn",
    "address": "Vista Pavilion & Lawn, The Royal Botanic Garden, Mrs Macquaries Rd, Sydney",
    "suburb": "Manly",
    "state": "NSW",
    "lat": -33.8626719,
    "lng": 151.2155507,
    "place_id": "ChIJ1yLh2WiuEmsRoUTnPUirqgU",
    "maps_url": "https://www.google.com/maps/place/?q=place_id:ChIJ1yLh2WiuEmsRoUTnPUirqgU",
    "rating": 4.2,
    "total_ratings": 34
  },
  {
    "name": "Brightmore Reserve",
    "address": "Young St, Cremorne",
    "suburb": "Manly",
    "state": "NSW",
    "lat": -33.823018,
    "lng": 151.2253612,
    "place_id": "ChIJq6qqvqWuEmsRisCTVHwp2oI",
    "maps_url": "https://www.google.com/maps/place/?q=place_id:ChIJq6qqvqWuEmsRisCTVHwp2oI",
    "rating": 4.6,
    "total_ratings": 158
  },
  {
    "name": "Duff Reserve",
    "address": "Wolseley Rd, Point Piper",
    "suburb": "Manly",
    "state": "NSW",
    "lat": -33.8642065,
    "lng": 151.2510371,
    "place_id": "ChIJR1gqpc6tEmsRwAjz-Wh9AQ8",
    "maps_url": "https://www.google.com/maps/place/?q=place_id:ChIJR1gqpc6tEmsRwAjz-Wh9AQ8",
    "rating": 4.5,
    "total_ratings": 183
  },
  {
    "name": "Keirle Park",
    "address": "277 Pittwater Rd, Manly",
    "suburb": "Manly",
    "state": "NSW",
    "lat": -33.7855871,
    "lng": 151.2805159,
    "place_id": "ChIJN4XNHACrEmsR0KViUHo8PQ0",
    "maps_url": "https://www.google.com/maps/place/?q=place_id:ChIJN4XNHACrEmsR0KViUHo8PQ0",
    "rating": 4,
    "total_ratings": 68
  },
  {
    "name": "Rosherville Reserve",
    "address": "46 Hopetoun Ave, Mosman",
    "suburb": "Manly",
    "state": "NSW",
    "lat": -33.8149062,
    "lng": 151.2477685,
    "place_id": "ChIJD_cjsPerEmsR4Mvx-Wh9AQ8",
    "maps_url": "https://www.google.com/maps/place/?q=place_id:ChIJD_cjsPerEmsR4Mvx-Wh9AQ8",
    "rating": 4.6,
    "total_ratings": 358
  },
  {
    "name": "Auburn Botanic Gardens",
    "address": "Chisholm Rd &, Chiswick Rd, Auburn",
    "suburb": "Parramatta",
    "state": "NSW",
    "lat": -33.8592683,
    "lng": 151.0174134,
    "place_id": "ChIJWVgONMK8EmsR0LLy-Wh9AQ8",
    "maps_url": "https://www.google.com/maps/place/?q=place_id:ChIJWVgONMK8EmsR0LLy-Wh9AQ8",
    "rating": 4.4,
    "total_ratings": 6587
  },
  {
    "name": "Central Gardens Nature Reserve",
    "address": "Cumberland Hwy & Merrylands Road, Merrylands West",
    "suburb": "Parramatta",
    "state": "NSW",
    "lat": -33.8324037,
    "lng": 150.9615138,
    "place_id": "ChIJbwgsclG9EmsRcNjx-Wh9AQ8",
    "maps_url": "https://www.google.com/maps/place/?q=place_id:ChIJbwgsclG9EmsRcNjx-Wh9AQ8",
    "rating": 4.5,
    "total_ratings": 2683
  },
  {
    "name": "Japanese Garden",
    "address": "Chiswick Rd & Chisholm Road, Auburn",
    "suburb": "Parramatta",
    "state": "NSW",
    "lat": -33.8590705,
    "lng": 151.0181418,
    "place_id": "ChIJrx7aiMG8EmsR0B3y-Wh9AQ8",
    "maps_url": "https://www.google.com/maps/place/?q=place_id:ChIJrx7aiMG8EmsR0B3y-Wh9AQ8",
    "rating": 4.5,
    "total_ratings": 1870
  },
  {
    "name": "Rumsey Rose Garden",
    "address": "Parramatta",
    "suburb": "Parramatta",
    "state": "NSW",
    "lat": -33.8142438,
    "lng": 150.9974148,
    "place_id": "ChIJO9oNheCiEmsRTSGdFktxA8U",
    "maps_url": "https://www.google.com/maps/place/?q=place_id:ChIJO9oNheCiEmsRTSGdFktxA8U",
    "rating": 4.4,
    "total_ratings": 217
  },
  {
    "name": "Wistaria Gardens",
    "address": "North Parramatta, 1 Hainsworth St, Westmead",
    "suburb": "Parramatta",
    "state": "NSW",
    "lat": -33.8036463,
    "lng": 150.9974955,
    "place_id": "ChIJmRpa2PyiEmsRUpaLR-kcfBg",
    "maps_url": "https://www.google.com/maps/place/?q=place_id:ChIJmRpa2PyiEmsRUpaLR-kcfBg",
    "rating": 4.5,
    "total_ratings": 492
  },
  {
    "name": "Auburn Aviary",
    "address": "Chisholm Rd, Auburn",
    "suburb": "Parramatta",
    "state": "NSW",
    "lat": -33.8598462,
    "lng": 151.0179531,
    "place_id": "ChIJmX4b77m9EmsRGCcHnRPaywo",
    "maps_url": "https://www.google.com/maps/place/?q=place_id:ChIJmX4b77m9EmsRGCcHnRPaywo",
    "rating": 4.1,
    "total_ratings": 22
  },
  {
    "name": "Auburn Fauna Reserve",
    "address": "98 Chiswick Rd, Auburn",
    "suburb": "Parramatta",
    "state": "NSW",
    "lat": -33.8588617,
    "lng": 151.016782,
    "place_id": "ChIJq06Bv2S9EmsRMekPo3g6IWE",
    "maps_url": "https://www.google.com/maps/place/?q=place_id:ChIJq06Bv2S9EmsRMekPo3g6IWE",
    "rating": 4.6,
    "total_ratings": 38
  },
  {
    "name": "Parramatta Park",
    "address": "Pitt St &, Macquarie St, Parramatta",
    "suburb": "Parramatta",
    "state": "NSW",
    "lat": -33.8089017,
    "lng": 150.9969279,
    "place_id": "ChIJ-U6CWeGiEmsR8MTx-Wh9AQ8",
    "maps_url": "https://www.google.com/maps/place/?q=place_id:ChIJ-U6CWeGiEmsR8MTx-Wh9AQ8",
    "rating": 4.5,
    "total_ratings": 8916
  },
  {
    "name": "Ray Marshall Reserve",
    "address": "2a Erie St, South Granville",
    "suburb": "Parramatta",
    "state": "NSW",
    "lat": -33.8613392,
    "lng": 151.0134479,
    "place_id": "ChIJb3424sK8EmsRgPDx-Wh9AQ8",
    "maps_url": "https://www.google.com/maps/place/?q=place_id:ChIJb3424sK8EmsRgPDx-Wh9AQ8",
    "rating": 4.3,
    "total_ratings": 131
  },
  {
    "name": "Galaringi",
    "address": "356 Marsden Rd, Carlingford",
    "suburb": "Parramatta",
    "state": "NSW",
    "lat": -33.7831418,
    "lng": 151.0540362,
    "place_id": "ChIJ04RTpw6kEmsRhD3g7pbpSVo",
    "maps_url": "https://www.google.com/maps/place/?q=place_id:ChIJ04RTpw6kEmsRhD3g7pbpSVo",
    "rating": 3.6,
    "total_ratings": 10
  },
  {
    "name": "Euripides Garden",
    "address": "Sydney Olympic Park",
    "suburb": "Parramatta",
    "state": "NSW",
    "lat": -33.8478614,
    "lng": 151.0779884,
    "place_id": "ChIJFdWQcwylEmsR7Jt473ba5pc",
    "maps_url": "https://www.google.com/maps/place/?q=place_id:ChIJFdWQcwylEmsR7Jt473ba5pc",
    "rating": 5,
    "total_ratings": 2
  },
  {
    "name": "Old Orchard",
    "address": "Parramatta",
    "suburb": "Parramatta",
    "state": "NSW",
    "lat": -33.8051429,
    "lng": 150.9978723,
    "place_id": "ChIJByUN1-KiEmsRiAl-d4wlqLA",
    "maps_url": "https://www.google.com/maps/place/?q=place_id:ChIJByUN1-KiEmsRiAl-d4wlqLA",
    "rating": 4.5,
    "total_ratings": 11
  },
  {
    "name": "Cathy Freeman Park",
    "address": "Sydney Olympic Park",
    "suburb": "Parramatta",
    "state": "NSW",
    "lat": -33.8461111,
    "lng": 151.0663889,
    "place_id": "ChIJB4n-6LakEmsReK-7SdNT0ik",
    "maps_url": "https://www.google.com/maps/place/?q=place_id:ChIJB4n-6LakEmsReK-7SdNT0ik",
    "rating": 4.5,
    "total_ratings": 917
  },
  {
    "name": "Ollie Webb Reserve",
    "address": "37A Glebe St, Parramatta",
    "suburb": "Parramatta",
    "state": "NSW",
    "lat": -33.8218552,
    "lng": 150.9974876,
    "place_id": "ChIJy7rCHNmiEmsRINHx-Wh9AQ8",
    "maps_url": "https://www.google.com/maps/place/?q=place_id:ChIJy7rCHNmiEmsRINHx-Wh9AQ8",
    "rating": 4.5,
    "total_ratings": 1600
  },
  {
    "name": "Oakdene Park",
    "address": "31 Bland St, Carramar",
    "suburb": "Parramatta",
    "state": "NSW",
    "lat": -33.879777,
    "lng": 150.9616877,
    "place_id": "ChIJiyhfQDm9EmsR7VYyKwhpPi4",
    "maps_url": "https://www.google.com/maps/place/?q=place_id:ChIJiyhfQDm9EmsR7VYyKwhpPi4",
    "rating": 4.6,
    "total_ratings": 34
  },
  {
    "name": "Auburn Park",
    "address": "Hunter St, Auburn",
    "suburb": "Parramatta",
    "state": "NSW",
    "lat": -33.8442051,
    "lng": 151.0332702,
    "place_id": "ChIJ_5SWNk2jEmsRIOTx-Wh9AQ8",
    "maps_url": "https://www.google.com/maps/place/?q=place_id:ChIJ_5SWNk2jEmsRIOTx-Wh9AQ8",
    "rating": 4.4,
    "total_ratings": 1300
  },
  {
    "name": "Prince Alfred Square",
    "address": "353D Church St, Parramatta",
    "suburb": "Parramatta",
    "state": "NSW",
    "lat": -33.8092232,
    "lng": 151.0043792,
    "place_id": "ChIJcca0WxyjEmsR4Mjx-Wh9AQ8",
    "maps_url": "https://www.google.com/maps/place/?q=place_id:ChIJcca0WxyjEmsR4Mjx-Wh9AQ8",
    "rating": 4.3,
    "total_ratings": 1314
  },
  {
    "name": "Hamilton Grove Park",
    "address": "2-10 Jacaranda Ct, Fairfield East",
    "suburb": "Parramatta",
    "state": "NSW",
    "lat": -33.8773853,
    "lng": 150.9697439,
    "place_id": "ChIJheH0Rpq9EmsRU-yAkuBovbE",
    "maps_url": "https://www.google.com/maps/place/?q=place_id:ChIJheH0Rpq9EmsRU-yAkuBovbE",
    "rating": 4.1,
    "total_ratings": 21
  },
  {
    "name": "Bennalong Park",
    "address": "Granville",
    "suburb": "Parramatta",
    "state": "NSW",
    "lat": -33.8343873,
    "lng": 150.9994834,
    "place_id": "ChIJ12UIzmmjEmsRWnV0dlpe2nc",
    "maps_url": "https://www.google.com/maps/place/?q=place_id:ChIJ12UIzmmjEmsRWnV0dlpe2nc",
    "rating": 4.6,
    "total_ratings": 17
  },
  {
    "name": "River Foreshore Reserve",
    "address": "1 Elizabeth St, Parramatta",
    "suburb": "Parramatta",
    "state": "NSW",
    "lat": -33.8120537,
    "lng": 151.0080871,
    "place_id": "ChIJ1bCv5RujEmsRWXjJYgqOigA",
    "maps_url": "https://www.google.com/maps/place/?q=place_id:ChIJ1bCv5RujEmsRWXjJYgqOigA",
    "rating": 4.5,
    "total_ratings": 1343
  },
  {
    "name": "Mona Park",
    "address": "27A Chisholm Rd, Auburn",
    "suburb": "Parramatta",
    "state": "NSW",
    "lat": -33.8491099,
    "lng": 151.0193428,
    "place_id": "ChIJfbjmuMi8EmsRALPy-Wh9AQ8",
    "maps_url": "https://www.google.com/maps/place/?q=place_id:ChIJfbjmuMi8EmsRALPy-Wh9AQ8",
    "rating": 4.3,
    "total_ratings": 468
  },
  {
    "name": "The Pyramid",
    "address": "Pondage Link, Sydney Olympic Park",
    "suburb": "Parramatta",
    "state": "NSW",
    "lat": -33.8413617,
    "lng": 151.0600463,
    "place_id": "ChIJl804l_WlEmsRgRvGjgbAK5U",
    "maps_url": "https://www.google.com/maps/place/?q=place_id:ChIJl804l_WlEmsRgRvGjgbAK5U",
    "rating": 4.6,
    "total_ratings": 25
  },
  {
    "name": "The Murray Gardens",
    "address": "O'Connell St, Parramatta",
    "suburb": "Parramatta",
    "state": "NSW",
    "lat": -33.8131968,
    "lng": 150.9997598,
    "place_id": "ChIJX3vJMeCiEmsR1wUwmvDgSnI",
    "maps_url": "https://www.google.com/maps/place/?q=place_id:ChIJX3vJMeCiEmsR1wUwmvDgSnI",
    "rating": 4.9,
    "total_ratings": 7
  },
  {
    "name": "Avenue of Remembrance",
    "address": "94 Chiswick Rd, Auburn",
    "suburb": "Parramatta",
    "state": "NSW",
    "lat": -33.859447,
    "lng": 151.0171032,
    "place_id": "ChIJ_XSkACy9EmsR2xzPdNhCeME",
    "maps_url": "https://www.google.com/maps/place/?q=place_id:ChIJ_XSkACy9EmsR2xzPdNhCeME",
    "rating": 4.7,
    "total_ratings": 6
  },
  {
    "name": "Eastwood Park",
    "address": "W Parade, Eastwood",
    "suburb": "Parramatta",
    "state": "NSW",
    "lat": -33.7886324,
    "lng": 151.0811305,
    "place_id": "ChIJG3tzFTqkEmsR8N_y-Wh9AQ8",
    "maps_url": "https://www.google.com/maps/place/?q=place_id:ChIJG3tzFTqkEmsR8N_y-Wh9AQ8",
    "rating": 4.1,
    "total_ratings": 447
  },
  {
    "name": "Halvorsen Park",
    "address": "Seamist Ave, Ermington",
    "suburb": "Parramatta",
    "state": "NSW",
    "lat": -33.822694,
    "lng": 151.055562,
    "place_id": "ChIJEQ4JtZukEmsRxFKP-qRjzzo",
    "maps_url": "https://www.google.com/maps/place/?q=place_id:ChIJEQ4JtZukEmsRxFKP-qRjzzo",
    "rating": 4.4,
    "total_ratings": 179
  },
  {
    "name": "Bangor Park",
    "address": "Mona St & Bangor St, Auburn",
    "suburb": "Parramatta",
    "state": "NSW",
    "lat": -33.8471641,
    "lng": 151.0172356,
    "place_id": "ChIJCam80M68EmsRziTDAHO3sv0",
    "maps_url": "https://www.google.com/maps/place/?q=place_id:ChIJCam80M68EmsRziTDAHO3sv0",
    "rating": 4.1,
    "total_ratings": 14
  },
  {
    "name": "Frank Hayes Park",
    "address": "50 Fyall Ave, Wentworthville",
    "suburb": "Parramatta",
    "state": "NSW",
    "lat": -33.801942,
    "lng": 150.968518,
    "place_id": "ChIJC6iN1ZCiEmsRGULOujHWXrk",
    "maps_url": "https://www.google.com/maps/place/?q=place_id:ChIJC6iN1ZCiEmsRGULOujHWXrk",
    "rating": 4.3,
    "total_ratings": 64
  },
  {
    "name": "Guildford Park",
    "address": "15 Marian St, Guildford",
    "suburb": "Parramatta",
    "state": "NSW",
    "lat": -33.848892,
    "lng": 150.990015,
    "place_id": "ChIJFdh3TiO9EmsRMOjx-Wh9AQ8",
    "maps_url": "https://www.google.com/maps/place/?q=place_id:ChIJFdh3TiO9EmsRMOjx-Wh9AQ8",
    "rating": 4.1,
    "total_ratings": 233
  },
  {
    "name": "Pine Park",
    "address": "41-45 Pine Rd, Auburn",
    "suburb": "Parramatta",
    "state": "NSW",
    "lat": -33.8584171,
    "lng": 151.0249654,
    "place_id": "ChIJ7w9AQhG9EmsRaxVP74EbqR8",
    "maps_url": "https://www.google.com/maps/place/?q=place_id:ChIJ7w9AQhG9EmsRaxVP74EbqR8",
    "rating": 4.3,
    "total_ratings": 11
  },
  {
    "name": "Fairfield Heights Park",
    "address": "90 Camden St, Fairfield Heights",
    "suburb": "Parramatta",
    "state": "NSW",
    "lat": -33.8670973,
    "lng": 150.9437962,
    "place_id": "ChIJ-7_0wi2WEmsRgAnz-Wh9AQ8",
    "maps_url": "https://www.google.com/maps/place/?q=place_id:ChIJ-7_0wi2WEmsRgAnz-Wh9AQ8",
    "rating": 4.2,
    "total_ratings": 152
  },
  {
    "name": "Jubilee Park",
    "address": "7A Parkes St, Parramatta",
    "suburb": "Parramatta",
    "state": "NSW",
    "lat": -33.8208523,
    "lng": 151.0059043,
    "place_id": "ChIJ_3LmZiGjEmsRwvjK281vPO0",
    "maps_url": "https://www.google.com/maps/place/?q=place_id:ChIJ_3LmZiGjEmsRwvjK281vPO0",
    "rating": 4.2,
    "total_ratings": 319
  },
  {
    "name": "Metella Reserve",
    "address": "217 Metella Rd, Toongabbie",
    "suburb": "Parramatta",
    "state": "NSW",
    "lat": -33.8006269,
    "lng": 150.928916,
    "place_id": "ChIJO-1hJT6YEmsRYMLx-Wh9AQ8",
    "maps_url": "https://www.google.com/maps/place/?q=place_id:ChIJO-1hJT6YEmsRYMLx-Wh9AQ8",
    "rating": 3.9,
    "total_ratings": 35
  },
  {
    "name": "Lions Park",
    "address": "1141 Victoria Rd, West Ryde",
    "suburb": "Parramatta",
    "state": "NSW",
    "lat": -33.8057028,
    "lng": 151.0799691,
    "place_id": "ChIJ6_fqz1qkEmsRcIinhe7ek6g",
    "maps_url": "https://www.google.com/maps/place/?q=place_id:ChIJ6_fqz1qkEmsRcIinhe7ek6g",
    "rating": 4.4,
    "total_ratings": 261
  },
  {
    "name": "Mason Park",
    "address": "Underwood Rd, Homebush",
    "suburb": "Parramatta",
    "state": "NSW",
    "lat": -33.8556254,
    "lng": 151.0803653,
    "place_id": "ChIJrzxRjjK7EmsRAi1a-LwTmjc",
    "maps_url": "https://www.google.com/maps/place/?q=place_id:ChIJrzxRjjK7EmsRAi1a-LwTmjc",
    "rating": 4.3,
    "total_ratings": 336
  },
  {
    "name": "Guilfoyle Park",
    "address": "1 Amy St, Regents Park",
    "suburb": "Parramatta",
    "state": "NSW",
    "lat": -33.8823037,
    "lng": 151.0256673,
    "place_id": "ChIJCW0L9Iq8EmsR0ADy-Wh9AQ8",
    "maps_url": "https://www.google.com/maps/place/?q=place_id:ChIJCW0L9Iq8EmsR0ADy-Wh9AQ8",
    "rating": 4.1,
    "total_ratings": 96
  },
  {
    "name": "Rosella Park",
    "address": "43A Wigram St, Harris Park",
    "suburb": "Parramatta",
    "state": "NSW",
    "lat": -33.8234792,
    "lng": 151.0096956,
    "place_id": "ChIJGxzhtAKjEmsR9Z3p6aRlEys",
    "maps_url": "https://www.google.com/maps/place/?q=place_id:ChIJGxzhtAKjEmsR9Z3p6aRlEys",
    "rating": 4,
    "total_ratings": 104
  },
  {
    "name": "Girraween Park",
    "address": "Octavia Road to, Toongabbie Rd, Girraween",
    "suburb": "Parramatta",
    "state": "NSW",
    "lat": -33.7908222,
    "lng": 150.9453469,
    "place_id": "ChIJEW1DfnqYEmsRgLnx-Wh9AQ8",
    "maps_url": "https://www.google.com/maps/place/?q=place_id:ChIJEW1DfnqYEmsRgLnx-Wh9AQ8",
    "rating": 4.3,
    "total_ratings": 375
  },
  {
    "name": "Biplane Park",
    "address": "31 Prospect St, Rosehill",
    "suburb": "Parramatta",
    "state": "NSW",
    "lat": -33.8233572,
    "lng": 151.0183903,
    "place_id": "ChIJSWpkmz6jEmsRYDl-FozTc3s",
    "maps_url": "https://www.google.com/maps/place/?q=place_id:ChIJSWpkmz6jEmsRYDl-FozTc3s",
    "rating": 4.2,
    "total_ratings": 133
  },
  {
    "name": "Hope Park",
    "address": "20 Bright St, Guildford",
    "suburb": "Parramatta",
    "state": "NSW",
    "lat": -33.8559709,
    "lng": 151.003443,
    "place_id": "ChIJFdDRyt-8EmsRL2wJEAMEWiY",
    "maps_url": "https://www.google.com/maps/place/?q=place_id:ChIJFdDRyt-8EmsRL2wJEAMEWiY",
    "rating": 4.3,
    "total_ratings": 41
  },
  {
    "name": "K13 Submarine Memorial Park",
    "address": "Pennant Hills Rd, Carlingford",
    "suburb": "Parramatta",
    "state": "NSW",
    "lat": -33.783229,
    "lng": 151.0455101,
    "place_id": "ChIJoZe9CfWjEmsRTUMmFRZlX9E",
    "maps_url": "https://www.google.com/maps/place/?q=place_id:ChIJoZe9CfWjEmsRTUMmFRZlX9E",
    "rating": 4.2,
    "total_ratings": 82
  },
  {
    "name": "Alfred Henry Whaling Memorial Reserve",
    "address": "41Z/43Z Roxborough Park Rd, Baulkham Hills",
    "suburb": "Parramatta",
    "state": "NSW",
    "lat": -33.7457773,
    "lng": 150.9901669,
    "place_id": "ChIJzSAw6oWhEmsRIInx-Wh9AQ8",
    "maps_url": "https://www.google.com/maps/place/?q=place_id:ChIJzSAw6oWhEmsRIInx-Wh9AQ8",
    "rating": 4.5,
    "total_ratings": 244
  },
  {
    "name": "Belmore Park",
    "address": "1A Pennant Hills Rd, North Parramatta",
    "suburb": "Parramatta",
    "state": "NSW",
    "lat": -33.8003087,
    "lng": 151.0074606,
    "place_id": "ChIJxQDIwwajEmsRPEpZCSXR43g",
    "maps_url": "https://www.google.com/maps/place/?q=place_id:ChIJxQDIwwajEmsRPEpZCSXR43g",
    "rating": 4.4,
    "total_ratings": 126
  },
  {
    "name": "Winston Hills Lions Park",
    "address": "22 Churchill Dr, Winston Hills",
    "suburb": "Parramatta",
    "state": "NSW",
    "lat": -33.7765134,
    "lng": 150.9893848,
    "place_id": "ChIJszCBpUiiEmsRH4IynqrZ_zc",
    "maps_url": "https://www.google.com/maps/place/?q=place_id:ChIJszCBpUiiEmsRH4IynqrZ_zc",
    "rating": 4.3,
    "total_ratings": 68
  },
  {
    "name": "Springfield Park",
    "address": "The Promenade, Old Guildford",
    "suburb": "Parramatta",
    "state": "NSW",
    "lat": -33.8643206,
    "lng": 150.9805155,
    "place_id": "ChIJT4a4ow29EmsRpLIgfTv__1A",
    "maps_url": "https://www.google.com/maps/place/?q=place_id:ChIJT4a4ow29EmsRpLIgfTv__1A",
    "rating": 3.8,
    "total_ratings": 50
  },
  {
    "name": "Naying Drive Park",
    "address": "Pemulwuy",
    "suburb": "Parramatta",
    "state": "NSW",
    "lat": -33.8193538,
    "lng": 150.9304266,
    "place_id": "ChIJD9jfBCCYEmsRyJpnJMatuAY",
    "maps_url": "https://www.google.com/maps/place/?q=place_id:ChIJD9jfBCCYEmsRyJpnJMatuAY",
    "rating": 4.4,
    "total_ratings": 62
  },
  {
    "name": "Gallery Garden",
    "address": "83 Picasso Cres, Old Toongabbie",
    "suburb": "Parramatta",
    "state": "NSW",
    "lat": -33.7857689,
    "lng": 150.9706407,
    "place_id": "ChIJUQxepwujEmsRhqVtb2lBwvM",
    "maps_url": "https://www.google.com/maps/place/?q=place_id:ChIJUQxepwujEmsRhqVtb2lBwvM",
    "rating": 4.7,
    "total_ratings": 6
  },
  {
    "name": "Phillips Park",
    "address": "Nicholas St, Lidcombe",
    "suburb": "Parramatta",
    "state": "NSW",
    "lat": -33.858742,
    "lng": 151.0528328,
    "place_id": "ChIJ7TBAS1e7EmsRMO7x-Wh9AQ8",
    "maps_url": "https://www.google.com/maps/place/?q=place_id:ChIJ7TBAS1e7EmsRMO7x-Wh9AQ8",
    "rating": 4.2,
    "total_ratings": 433
  },
  {
    "name": "York Park",
    "address": "13 York St, Berala",
    "suburb": "Parramatta",
    "state": "NSW",
    "lat": -33.8727976,
    "lng": 151.0283022,
    "place_id": "ChIJ209dE5K8EmsRAKZMd3YQxH8",
    "maps_url": "https://www.google.com/maps/place/?q=place_id:ChIJ209dE5K8EmsRAKZMd3YQxH8",
    "rating": 4.3,
    "total_ratings": 68
  },
  {
    "name": "Remembrance Park",
    "address": "Joseph Street and, James St, Lidcombe",
    "suburb": "Parramatta",
    "state": "NSW",
    "lat": -33.8656359,
    "lng": 151.0440763,
    "place_id": "ChIJVZjTtqG8EmsR6PAsL0qdXcQ",
    "maps_url": "https://www.google.com/maps/place/?q=place_id:ChIJVZjTtqG8EmsR6PAsL0qdXcQ",
    "rating": 4.3,
    "total_ratings": 167
  },
  {
    "name": "Fraser Park",
    "address": "Auburn",
    "suburb": "Parramatta",
    "state": "NSW",
    "lat": -33.8672832,
    "lng": 151.0215742,
    "place_id": "ChIJ25nEhOy8EmsRwPPy-Wh9AQ8",
    "maps_url": "https://www.google.com/maps/place/?q=place_id:ChIJ25nEhOy8EmsRwPPy-Wh9AQ8",
    "rating": 4.3,
    "total_ratings": 16
  },
  {
    "name": "Milson Park",
    "address": "Darcy Rd, Westmead",
    "suburb": "Parramatta",
    "state": "NSW",
    "lat": -33.8018452,
    "lng": 150.9805622,
    "place_id": "ChIJDXl0wOyiEmsR5yUkcAamipY",
    "maps_url": "https://www.google.com/maps/place/?q=place_id:ChIJDXl0wOyiEmsR5yUkcAamipY",
    "rating": 4.1,
    "total_ratings": 29
  },
  {
    "name": "Austin Park",
    "address": "48 Marlborough Rd, Homebush West",
    "suburb": "Parramatta",
    "state": "NSW",
    "lat": -33.8610696,
    "lng": 151.0667478,
    "place_id": "ChIJ74xI5Ui7EmsRsPDx-Wh9AQ8",
    "maps_url": "https://www.google.com/maps/place/?q=place_id:ChIJ74xI5Ui7EmsRsPDx-Wh9AQ8",
    "rating": 4.1,
    "total_ratings": 81
  },
  {
    "name": "Rosslyn Blay Park",
    "address": "51A Grose St, North Parramatta",
    "suburb": "Parramatta",
    "state": "NSW",
    "lat": -33.807507,
    "lng": 151.0083258,
    "place_id": "ChIJFWXHMxujEmsREHUAO7Rr6eo",
    "maps_url": "https://www.google.com/maps/place/?q=place_id:ChIJFWXHMxujEmsREHUAO7Rr6eo",
    "rating": 3.8,
    "total_ratings": 32
  },
  {
    "name": "Bruce Miller Reserve",
    "address": "6A Trumper St, Ermington",
    "suburb": "Parramatta",
    "state": "NSW",
    "lat": -33.8141445,
    "lng": 151.0630211,
    "place_id": "ChIJk3FkDYmkEmsR8BnPfjTlV20",
    "maps_url": "https://www.google.com/maps/place/?q=place_id:ChIJk3FkDYmkEmsR8BnPfjTlV20",
    "rating": 4.3,
    "total_ratings": 39
  },
  {
    "name": "Chang Lai Yuan Gardens",
    "address": "Knox Rd, Doonside",
    "suburb": "Blacktown",
    "state": "NSW",
    "lat": -33.7641221,
    "lng": 150.8604692,
    "place_id": "ChIJAQAAQH2ZEmsRJd83KAY_Tx0",
    "maps_url": "https://www.google.com/maps/place/?q=place_id:ChIJAQAAQH2ZEmsRJd83KAY_Tx0",
    "rating": 4.6,
    "total_ratings": 1061
  },
  {
    "name": "Edgewood Park",
    "address": "22 Yarrandale St, Stanhope Gardens",
    "suburb": "Blacktown",
    "state": "NSW",
    "lat": -33.7152686,
    "lng": 150.925606,
    "place_id": "ChIJTwgtDj6fEmsRqrEl7um3I_M",
    "maps_url": "https://www.google.com/maps/place/?q=place_id:ChIJTwgtDj6fEmsRqrEl7um3I_M",
    "rating": 4.5,
    "total_ratings": 62
  },
  {
    "name": "New Zealand Garden",
    "address": "Distance from Doonside station ?, Knox Rd, Doonside",
    "suburb": "Blacktown",
    "state": "NSW",
    "lat": -33.7634029,
    "lng": 150.8609277,
    "place_id": "ChIJHek9CF6ZEmsRFyqwBiq3thc",
    "maps_url": "https://www.google.com/maps/place/?q=place_id:ChIJHek9CF6ZEmsRFyqwBiq3thc",
    "rating": 5,
    "total_ratings": 14
  },
  {
    "name": "Paterson Reserve",
    "address": "Torbert Ave, Quakers Hill",
    "suburb": "Blacktown",
    "state": "NSW",
    "lat": -33.720482,
    "lng": 150.9067373,
    "place_id": "ChIJx-6AwNeeEmsR0JHy-Wh9AQ8",
    "maps_url": "https://www.google.com/maps/place/?q=place_id:ChIJx-6AwNeeEmsR0JHy-Wh9AQ8",
    "rating": 4.3,
    "total_ratings": 270
  },
  {
    "name": "Waite Reserve",
    "address": "Tamarind Dr, Acacia Gardens",
    "suburb": "Blacktown",
    "state": "NSW",
    "lat": -33.7330138,
    "lng": 150.9164799,
    "place_id": "ChIJ_7Xc1tKYEmsROQT0-1pAKWk",
    "maps_url": "https://www.google.com/maps/place/?q=place_id:ChIJ_7Xc1tKYEmsROQT0-1pAKWk",
    "rating": 4.2,
    "total_ratings": 121
  },
  {
    "name": "Turkeys Nest Reserve",
    "address": "Tamborine Dr, Beaumont Hills",
    "suburb": "Blacktown",
    "state": "NSW",
    "lat": -33.7012418,
    "lng": 150.9433169,
    "place_id": "ChIJEQl9SXifEmsRcIvy-Wh9AQ8",
    "maps_url": "https://www.google.com/maps/place/?q=place_id:ChIJEQl9SXifEmsRcIvy-Wh9AQ8",
    "rating": 4.6,
    "total_ratings": 436
  },
  {
    "name": "Blacktown Showground Community Garden",
    "address": "27 Picken Ln, Blacktown",
    "suburb": "Blacktown",
    "state": "NSW",
    "lat": -33.7661069,
    "lng": 150.903732,
    "place_id": "ChIJwZTBbQGZEmsRhvAtTA9Y0L0",
    "maps_url": "https://www.google.com/maps/place/?q=place_id:ChIJwZTBbQGZEmsRhvAtTA9Y0L0",
    "rating": 4.8,
    "total_ratings": 52
  },
  {
    "name": "Glory Park",
    "address": "Schofields NSW 2762 ñ, Grima St, Schofields",
    "suburb": "Blacktown",
    "state": "NSW",
    "lat": -33.705519,
    "lng": 150.883562,
    "place_id": "ChIJxbLsj7-eEmsREWa_2TfBdVo",
    "maps_url": "https://www.google.com/maps/place/?q=place_id:ChIJxbLsj7-eEmsREWa_2TfBdVo",
    "rating": 4.1,
    "total_ratings": 184
  },
  {
    "name": "Eastbourne Park",
    "address": "Stanhope Gardens",
    "suburb": "Blacktown",
    "state": "NSW",
    "lat": -33.7129973,
    "lng": 150.9318565,
    "place_id": "ChIJH6h7I2ufEmsRjmu_UnMPgxk",
    "maps_url": "https://www.google.com/maps/place/?q=place_id:ChIJH6h7I2ufEmsRjmu_UnMPgxk",
    "rating": 4.1,
    "total_ratings": 14
  },
  {
    "name": "Stanhope Gardens Reserve",
    "address": "Stanhope Pkwy, Stanhope Gardens",
    "suburb": "Blacktown",
    "state": "NSW",
    "lat": -33.7180299,
    "lng": 150.9292262,
    "place_id": "ChIJ602HXSCfEmsRJWoUzqzNv2k",
    "maps_url": "https://www.google.com/maps/place/?q=place_id:ChIJ602HXSCfEmsRJWoUzqzNv2k",
    "rating": 4.4,
    "total_ratings": 30
  },
  {
    "name": "Silverleaf Park",
    "address": "Waterfall Blvd, The Ponds",
    "suburb": "Blacktown",
    "state": "NSW",
    "lat": -33.705441,
    "lng": 150.9043035,
    "place_id": "ChIJc4XcC-GeEmsRHugqBJtJx48",
    "maps_url": "https://www.google.com/maps/place/?q=place_id:ChIJc4XcC-GeEmsRHugqBJtJx48",
    "rating": 4,
    "total_ratings": 37
  },
  {
    "name": "The Gathering Park",
    "address": "21 Meander Cres, The Ponds",
    "suburb": "Blacktown",
    "state": "NSW",
    "lat": -33.7107168,
    "lng": 150.9075684,
    "place_id": "ChIJt6yVCSCfEmsRKsMVL7eOFQ4",
    "maps_url": "https://www.google.com/maps/place/?q=place_id:ChIJt6yVCSCfEmsRKsMVL7eOFQ4",
    "rating": 4.3,
    "total_ratings": 52
  },
  {
    "name": "Waterfall Park",
    "address": "34 Waterfall Blvd, The Ponds",
    "suburb": "Blacktown",
    "state": "NSW",
    "lat": -33.7086852,
    "lng": 150.9050716,
    "place_id": "ChIJgyMEe-CeEmsR-zXAJ5u2lvo",
    "maps_url": "https://www.google.com/maps/place/?q=place_id:ChIJgyMEe-CeEmsR-zXAJ5u2lvo",
    "rating": 4.3,
    "total_ratings": 61
  },
  {
    "name": "Aurora Park",
    "address": "Beacon Dr, Schofields",
    "suburb": "Blacktown",
    "state": "NSW",
    "lat": -33.7069917,
    "lng": 150.8906196,
    "place_id": "ChIJeexj69SfEmsR9CEKHitWM34",
    "maps_url": "https://www.google.com/maps/place/?q=place_id:ChIJeexj69SfEmsR9CEKHitWM34",
    "rating": 4.5,
    "total_ratings": 85
  },
  {
    "name": "Chester Park",
    "address": "5 Lancaster St, Blacktown",
    "suburb": "Blacktown",
    "state": "NSW",
    "lat": -33.7677136,
    "lng": 150.8930403,
    "place_id": "ChIJ7wk7f6eZEmsRJSAqhDe-218",
    "maps_url": "https://www.google.com/maps/place/?q=place_id:ChIJ7wk7f6eZEmsRJSAqhDe-218",
    "rating": 4.1,
    "total_ratings": 69
  },
  {
    "name": "Davison Reserve",
    "address": "Satinash St, Parklea",
    "suburb": "Blacktown",
    "state": "NSW",
    "lat": -33.7276718,
    "lng": 150.9206276,
    "place_id": "ChIJqTG3jTGfEmsRhm6yntwXjjk",
    "maps_url": "https://www.google.com/maps/place/?q=place_id:ChIJqTG3jTGfEmsRhm6yntwXjjk",
    "rating": 4.4,
    "total_ratings": 78
  },
  {
    "name": "Altrove Hilltop Park",
    "address": "Hoy St, Schofields",
    "suburb": "Blacktown",
    "state": "NSW",
    "lat": -33.7081667,
    "lng": 150.8706632,
    "place_id": "ChIJzX5sG6WeEmsRfUDvoi5ggfE",
    "maps_url": "https://www.google.com/maps/place/?q=place_id:ChIJzX5sG6WeEmsRfUDvoi5ggfE",
    "rating": 4.3,
    "total_ratings": 605
  },
  {
    "name": "Anita Cobby Reserve",
    "address": "Sullivan St, Blacktown",
    "suburb": "Blacktown",
    "state": "NSW",
    "lat": -33.7813335,
    "lng": 150.889432,
    "place_id": "ChIJJf-PA7yZEmsRQCLx-Wh9AQ8",
    "maps_url": "https://www.google.com/maps/place/?q=place_id:ChIJJf-PA7yZEmsRQCLx-Wh9AQ8",
    "rating": 4.5,
    "total_ratings": 44
  },
  {
    "name": "Peel Reserve",
    "address": "22 Alkoomie St, The Ponds",
    "suburb": "Blacktown",
    "state": "NSW",
    "lat": -33.7017859,
    "lng": 150.9064261,
    "place_id": "ChIJM4dtQh6fEmsRJtXqjpyT6qw",
    "maps_url": "https://www.google.com/maps/place/?q=place_id:ChIJM4dtQh6fEmsRJtXqjpyT6qw",
    "rating": 4.5,
    "total_ratings": 324
  },
  {
    "name": "Binyang Park",
    "address": "Mallard Dr, The Ponds",
    "suburb": "Blacktown",
    "state": "NSW",
    "lat": -33.71678680000001,
    "lng": 150.9086219,
    "place_id": "ChIJSbDMeiefEmsR_Z2-aHb70Dw",
    "maps_url": "https://www.google.com/maps/place/?q=place_id:ChIJSbDMeiefEmsR_Z2-aHb70Dw",
    "rating": 4.7,
    "total_ratings": 15
  },
  {
    "name": "Owl Park",
    "address": "The Ponds",
    "suburb": "Blacktown",
    "state": "NSW",
    "lat": -33.716943,
    "lng": 150.9136145,
    "place_id": "ChIJq7GFAySfEmsRaLhCQDcAjb4",
    "maps_url": "https://www.google.com/maps/place/?q=place_id:ChIJq7GFAySfEmsRaLhCQDcAjb4",
    "rating": 4.1,
    "total_ratings": 19
  },
  {
    "name": "Kimberley Park",
    "address": "Kimberley St, Rooty Hill",
    "suburb": "Blacktown",
    "state": "NSW",
    "lat": -33.7645509,
    "lng": 150.8362854,
    "place_id": "ChIJO_zNhjiaEmsR66lXofEt06w",
    "maps_url": "https://www.google.com/maps/place/?q=place_id:ChIJO_zNhjiaEmsR66lXofEt06w",
    "rating": 4,
    "total_ratings": 98
  },
  {
    "name": "Hillview Park",
    "address": "Hillview Pl, Glendenning",
    "suburb": "Blacktown",
    "state": "NSW",
    "lat": -33.7441088,
    "lng": 150.856346,
    "place_id": "ChIJpaaya9mbEmsRIF7C3e7EvQ8",
    "maps_url": "https://www.google.com/maps/place/?q=place_id:ChIJpaaya9mbEmsRIF7C3e7EvQ8",
    "rating": 3.6,
    "total_ratings": 12
  },
  {
    "name": "Wright Reserve",
    "address": "1 Highfield Rd, Quakers Hill",
    "suburb": "Blacktown",
    "state": "NSW",
    "lat": -33.7333235,
    "lng": 150.8932862,
    "place_id": "ChIJP46FozGZEmsRYJjy-Wh9AQ8",
    "maps_url": "https://www.google.com/maps/place/?q=place_id:ChIJP46FozGZEmsRYJjy-Wh9AQ8",
    "rating": 4.3,
    "total_ratings": 209
  },
  {
    "name": "Jannawi Garden",
    "address": "Nurragingy Reserve, Knox Rd, Doonside",
    "suburb": "Blacktown",
    "state": "NSW",
    "lat": -33.7625486,
    "lng": 150.8595948,
    "place_id": "ChIJdwHyaiqaEmsRir6kU0FMk54",
    "maps_url": "https://www.google.com/maps/place/?q=place_id:ChIJdwHyaiqaEmsRir6kU0FMk54",
    "rating": 4.5,
    "total_ratings": 24
  },
  {
    "name": "Mount St Francis Reserve",
    "address": "57 Redden Dr, Kellyville",
    "suburb": "Blacktown",
    "state": "NSW",
    "lat": -33.705314,
    "lng": 150.95098,
    "place_id": "ChIJ9WHMgH6fEmsRHQWTaPIgvVw",
    "maps_url": "https://www.google.com/maps/place/?q=place_id:ChIJ9WHMgH6fEmsRHQWTaPIgvVw",
    "rating": 4.5,
    "total_ratings": 44
  },
  {
    "name": "Rupertswood Park",
    "address": "66 Miller St, Mount Druitt",
    "suburb": "Blacktown",
    "state": "NSW",
    "lat": -33.7751404,
    "lng": 150.8212336,
    "place_id": "ChIJBYefEGSaEmsRmp50gEWPKmg",
    "maps_url": "https://www.google.com/maps/place/?q=place_id:ChIJBYefEGSaEmsRmp50gEWPKmg",
    "rating": 3.8,
    "total_ratings": 79
  },
  {
    "name": "Cornucopia Reserve",
    "address": "Cantwell St, Glenwood",
    "suburb": "Blacktown",
    "state": "NSW",
    "lat": -33.7310184,
    "lng": 150.9239447,
    "place_id": "ChIJ-UFvkTOfEmsRJW72ErN7vfs",
    "maps_url": "https://www.google.com/maps/place/?q=place_id:ChIJ-UFvkTOfEmsRJW72ErN7vfs",
    "rating": 4.3,
    "total_ratings": 81
  },
  {
    "name": "Rizal Park",
    "address": "20 Abraham St, Rooty Hill",
    "suburb": "Blacktown",
    "state": "NSW",
    "lat": -33.7598942,
    "lng": 150.833119,
    "place_id": "ChIJ_ZP23kiaEmsRaIYdxNhvWk4",
    "maps_url": "https://www.google.com/maps/place/?q=place_id:ChIJ_ZP23kiaEmsRaIYdxNhvWk4",
    "rating": 3.8,
    "total_ratings": 21
  },
  {
    "name": "Lorius Park",
    "address": "73 Mosaic Ave, The Ponds",
    "suburb": "Blacktown",
    "state": "NSW",
    "lat": -33.7142727,
    "lng": 150.9036363,
    "place_id": "ChIJ0dV4MdmeEmsRXD75GY1oXHU",
    "maps_url": "https://www.google.com/maps/place/?q=place_id:ChIJ0dV4MdmeEmsRXD75GY1oXHU",
    "rating": 4.4,
    "total_ratings": 61
  },
  {
    "name": "King Park",
    "address": "32 Cambridge St, Merrylands",
    "suburb": "Blacktown",
    "state": "NSW",
    "lat": -33.8383992,
    "lng": 150.9843118,
    "place_id": "ChIJ2c6rIB69EmsRmw5Ari9CXrw",
    "maps_url": "https://www.google.com/maps/place/?q=place_id:ChIJ2c6rIB69EmsRmw5Ari9CXrw",
    "rating": 4.6,
    "total_ratings": 48
  },
  {
    "name": "Pye Street Park",
    "address": "18 Pye St, Westmead",
    "suburb": "Blacktown",
    "state": "NSW",
    "lat": -33.8125135,
    "lng": 150.9878999,
    "place_id": "ChIJWbA5p8KiEmsRO2DTAQ7QNeU",
    "maps_url": "https://www.google.com/maps/place/?q=place_id:ChIJWbA5p8KiEmsRO2DTAQ7QNeU",
    "rating": 4,
    "total_ratings": 44
  },
  {
    "name": "Discovery Park",
    "address": "29 Knight Ave, Kings Langley",
    "suburb": "Blacktown",
    "state": "NSW",
    "lat": -33.7440468,
    "lng": 150.9281141,
    "place_id": "ChIJZ2x0WciYEmsRQpSc0OR8LLk",
    "maps_url": "https://www.google.com/maps/place/?q=place_id:ChIJZ2x0WciYEmsRQpSc0OR8LLk",
    "rating": 4.1,
    "total_ratings": 29
  },
  {
    "name": "Parklands Clubhouse",
    "address": "8 Hilcot St, Stanhope Gardens",
    "suburb": "Blacktown",
    "state": "NSW",
    "lat": -33.71654790000001,
    "lng": 150.9205222,
    "place_id": "ChIJP37O6TyfEmsRQQyqAqa1wa0",
    "maps_url": "https://www.google.com/maps/place/?q=place_id:ChIJP37O6TyfEmsRQQyqAqa1wa0",
    "rating": 4.5,
    "total_ratings": 8
  },
  {
    "name": "Plaza Park",
    "address": "The Ponds",
    "suburb": "Blacktown",
    "state": "NSW",
    "lat": -33.7063286,
    "lng": 150.9092426,
    "place_id": "ChIJMXOOgHafEmsRv8Vx_372rDg",
    "maps_url": "https://www.google.com/maps/place/?q=place_id:ChIJMXOOgHafEmsRv8Vx_372rDg",
    "rating": 4.8,
    "total_ratings": 4
  },
  {
    "name": "Bill Colbourne Reserve",
    "address": "Adelphi Cres, Doonside",
    "suburb": "Blacktown",
    "state": "NSW",
    "lat": -33.7493609,
    "lng": 150.873657,
    "place_id": "ChIJl_fadm-ZEmsR8LHy-Wh9AQ8",
    "maps_url": "https://www.google.com/maps/place/?q=place_id:ChIJl_fadm-ZEmsR8LHy-Wh9AQ8",
    "rating": 3.7,
    "total_ratings": 52
  },
  {
    "name": "Ron Hill Park",
    "address": "2 Cooyong Cres, Toongabbie",
    "suburb": "Blacktown",
    "state": "NSW",
    "lat": -33.784996,
    "lng": 150.954956,
    "place_id": "ChIJYVMLPICiEmsRHH22in4Zm9M",
    "maps_url": "https://www.google.com/maps/place/?q=place_id:ChIJYVMLPICiEmsRHH22in4Zm9M",
    "rating": 4,
    "total_ratings": 22
  },
  {
    "name": "Mackillop Drive Reserve",
    "address": "35 Mackillop Dr, Baulkham Hills",
    "suburb": "Blacktown",
    "state": "NSW",
    "lat": -33.7391214,
    "lng": 150.9763356,
    "place_id": "ChIJKWcDx_KhEmsR0xFh-eESbb8",
    "maps_url": "https://www.google.com/maps/place/?q=place_id:ChIJKWcDx_KhEmsR0xFh-eESbb8",
    "rating": 4.4,
    "total_ratings": 45
  },
  {
    "name": "Lalor Park Community Garden",
    "address": "Parkside Dr, Lalor Park",
    "suburb": "Blacktown",
    "state": "NSW",
    "lat": -33.7622258,
    "lng": 150.932174,
    "place_id": "ChIJ68XjX5OYEmsRViuM4j7oatU",
    "maps_url": "https://www.google.com/maps/place/?q=place_id:ChIJ68XjX5OYEmsRViuM4j7oatU",
    "rating": 4.5,
    "total_ratings": 2
  },
  {
    "name": "Buckley Park",
    "address": "Winston Hills",
    "suburb": "Blacktown",
    "state": "NSW",
    "lat": -33.7749342,
    "lng": 150.9650997,
    "place_id": "ChIJ9QjAD3CiEmsRMKrx-Wh9AQ8",
    "maps_url": "https://www.google.com/maps/place/?q=place_id:ChIJ9QjAD3CiEmsRMKrx-Wh9AQ8",
    "rating": 3.8,
    "total_ratings": 13
  },
  {
    "name": "Timbergetters Reserve",
    "address": "3 Ixion St, Winston Hills",
    "suburb": "Blacktown",
    "state": "NSW",
    "lat": -33.7732071,
    "lng": 150.9792455,
    "place_id": "ChIJ-cEi5kCjEmsR0xlu3klVJ68",
    "maps_url": "https://www.google.com/maps/place/?q=place_id:ChIJ-cEi5kCjEmsR0xlu3klVJ68",
    "rating": 4.3,
    "total_ratings": 11
  },
  {
    "name": "Charles W. Munnery OAM Memorial Garden",
    "address": "8 Miller St, Merrylands",
    "suburb": "Blacktown",
    "state": "NSW",
    "lat": -33.8373117,
    "lng": 150.9906009,
    "place_id": "ChIJC-9PhmG9EmsRJuP7Q_k1Wq4",
    "maps_url": "https://www.google.com/maps/place/?q=place_id:ChIJC-9PhmG9EmsRJuP7Q_k1Wq4",
    "rating": 3.7,
    "total_ratings": 3
  },
  {
    "name": "Ambrose Hallen Reserve",
    "address": "18A Derbyshire Ave, Toongabbie",
    "suburb": "Blacktown",
    "state": "NSW",
    "lat": -33.7921541,
    "lng": 150.9586437,
    "place_id": "ChIJ69CRCoOiEmsR_qGXmUE3mKs",
    "maps_url": "https://www.google.com/maps/place/?q=place_id:ChIJ69CRCoOiEmsR_qGXmUE3mKs",
    "rating": 3.9,
    "total_ratings": 9
  },
  {
    "name": "Reserve 636",
    "address": "Stanhope Gardens",
    "suburb": "Blacktown",
    "state": "NSW",
    "lat": -33.7079428,
    "lng": 150.9287881,
    "place_id": "ChIJ6VIla9-fEmsRd4S-RRcHuYg",
    "maps_url": "https://www.google.com/maps/place/?q=place_id:ChIJ6VIla9-fEmsRd4S-RRcHuYg",
    "rating": 4.4,
    "total_ratings": 5
  },
  {
    "name": "Botanical Gardens",
    "address": "39 Hope St, Seven Hills",
    "suburb": "Blacktown",
    "state": "NSW",
    "lat": -33.7686969,
    "lng": 150.9316009,
    "place_id": "ChIJd6dwMgCZEmsRXaatrqfF0O8",
    "maps_url": "https://www.google.com/maps/place/?q=place_id:ChIJd6dwMgCZEmsRXaatrqfF0O8",
    "rating": null,
    "total_ratings": 0
  },
  {
    "name": "Daniel Street Park",
    "address": "Virgil St, Greystanes",
    "suburb": "Blacktown",
    "state": "NSW",
    "lat": -33.8241557,
    "lng": 150.9507385,
    "place_id": "ChIJN_n2hf-XEmsRwNLx-Wh9AQ8",
    "maps_url": "https://www.google.com/maps/place/?q=place_id:ChIJN_n2hf-XEmsRwNLx-Wh9AQ8",
    "rating": 4.2,
    "total_ratings": 90
  },
  {
    "name": "Roberta Street Park (Tom Adams Oval)",
    "address": "Roberta St. Park, Roberta St & Rachel St, Greystanes",
    "suburb": "Blacktown",
    "state": "NSW",
    "lat": -33.821743,
    "lng": 150.9392471,
    "place_id": "ChIJf2j6SvaXEmsRMNHx-Wh9AQ8",
    "maps_url": "https://www.google.com/maps/place/?q=place_id:ChIJf2j6SvaXEmsRMNHx-Wh9AQ8",
    "rating": 4.2,
    "total_ratings": 63
  },
  {
    "name": "Vantage Crescent Reserve",
    "address": "Kellyville",
    "suburb": "Blacktown",
    "state": "NSW",
    "lat": -33.7042249,
    "lng": 150.9656724,
    "place_id": "ChIJrTzkv2KhEmsRfqpi30AU4d0",
    "maps_url": "https://www.google.com/maps/place/?q=place_id:ChIJrTzkv2KhEmsRfqpi30AU4d0",
    "rating": 5,
    "total_ratings": 2
  },
  {
    "name": "Robin Hood Park",
    "address": "Hood St, Northmead",
    "suburb": "Blacktown",
    "state": "NSW",
    "lat": -33.7931234,
    "lng": 150.9868755,
    "place_id": "ChIJL_gzeFiiEmsRlYObJHyFO78",
    "maps_url": "https://www.google.com/maps/place/?q=place_id:ChIJL_gzeFiiEmsRlYObJHyFO78",
    "rating": 4.3,
    "total_ratings": 23
  },
  {
    "name": "Birk Park",
    "address": "12 Marie St, Constitution Hill",
    "suburb": "Blacktown",
    "state": "NSW",
    "lat": -33.7942948,
    "lng": 150.9705378,
    "place_id": "ChIJtcm1kY6iEmsRcOQhfMOwhdY",
    "maps_url": "https://www.google.com/maps/place/?q=place_id:ChIJtcm1kY6iEmsRcOQhfMOwhdY",
    "rating": 3.8,
    "total_ratings": 19
  },
  {
    "name": "Tench Reserve",
    "address": "Jamisontown",
    "suburb": "Penrith",
    "state": "NSW",
    "lat": -33.7592187,
    "lng": 150.6678871,
    "place_id": "ChIJm6T9Q7CIEmsRAJXx-Wh9AQ8",
    "maps_url": "https://www.google.com/maps/place/?q=place_id:ChIJm6T9Q7CIEmsRAJXx-Wh9AQ8",
    "rating": 4.5,
    "total_ratings": 2126
  },
  {
    "name": "Cook Park",
    "address": "St Marys",
    "suburb": "Penrith",
    "state": "NSW",
    "lat": -33.7760488,
    "lng": 150.7675917,
    "place_id": "ChIJEayQVlWFEmsR8Njy-Wh9AQ8",
    "maps_url": "https://www.google.com/maps/place/?q=place_id:ChIJEayQVlWFEmsR8Njy-Wh9AQ8",
    "rating": 4.1,
    "total_ratings": 215
  },
  {
    "name": "Linear Park",
    "address": "169 Bradley St, Glenmore Park",
    "suburb": "Penrith",
    "state": "NSW",
    "lat": -33.8048149,
    "lng": 150.6744429,
    "place_id": "ChIJe7f1DxaJEmsRHU0IWng-8os",
    "maps_url": "https://www.google.com/maps/place/?q=place_id:ChIJe7f1DxaJEmsRHU0IWng-8os",
    "rating": 4.5,
    "total_ratings": 89
  },
  {
    "name": "River Road Reserve",
    "address": "River Rd, Emu Plains",
    "suburb": "Penrith",
    "state": "NSW",
    "lat": -33.748575,
    "lng": 150.6777458,
    "place_id": "ChIJA8AMBrCIEmsRkIvx-Wh9AQ8",
    "maps_url": "https://www.google.com/maps/place/?q=place_id:ChIJA8AMBrCIEmsRkIvx-Wh9AQ8",
    "rating": 4.5,
    "total_ratings": 213
  },
  {
    "name": "Hilltop Park",
    "address": "11 Delaware Ave, Caddens",
    "suburb": "Penrith",
    "state": "NSW",
    "lat": -33.7745699,
    "lng": 150.7377105,
    "place_id": "ChIJiWbZ0GGPEmsRXr7sQYsvZB4",
    "maps_url": "https://www.google.com/maps/place/?q=place_id:ChIJiWbZ0GGPEmsRXr7sQYsvZB4",
    "rating": 4.5,
    "total_ratings": 32
  },
  {
    "name": "Northridge Park",
    "address": "Jordan Springs",
    "suburb": "Penrith",
    "state": "NSW",
    "lat": -33.7197115,
    "lng": 150.72983,
    "place_id": "ChIJN1GACRiFEmsR3DNy6NE9j44",
    "maps_url": "https://www.google.com/maps/place/?q=place_id:ChIJN1GACRiFEmsR3DNy6NE9j44",
    "rating": 3.9,
    "total_ratings": 13
  },
  {
    "name": "Edge Pocket Park",
    "address": "47 Epaulet Cct, Jordan Springs",
    "suburb": "Penrith",
    "state": "NSW",
    "lat": -33.7375703,
    "lng": 150.7406209,
    "place_id": "ChIJ9adROoSFEmsRnl5xHZHtCtA",
    "maps_url": "https://www.google.com/maps/place/?q=place_id:ChIJ9adROoSFEmsRnl5xHZHtCtA",
    "rating": 4.4,
    "total_ratings": 22
  },
  {
    "name": "Jim Anderson Park",
    "address": "2A Brookfield Ave, Werrington Downs",
    "suburb": "Penrith",
    "state": "NSW",
    "lat": -33.7422832,
    "lng": 150.7343668,
    "place_id": "ChIJ0z_6GBKFEmsRo-FjDuHJ-MA",
    "maps_url": "https://www.google.com/maps/place/?q=place_id:ChIJ0z_6GBKFEmsRo-FjDuHJ-MA",
    "rating": 4.1,
    "total_ratings": 44
  },
  {
    "name": "Ched Towns Reserve",
    "address": "1 Town Terrace, Glenmore Park",
    "suburb": "Penrith",
    "state": "NSW",
    "lat": -33.7886111,
    "lng": 150.6702778,
    "place_id": "ChIJ5W8INtSIEmsRALfx-Wh9AQ8",
    "maps_url": "https://www.google.com/maps/place/?q=place_id:ChIJ5W8INtSIEmsRALfx-Wh9AQ8",
    "rating": 3.9,
    "total_ratings": 82
  },
  {
    "name": "Kingfisher Park",
    "address": "42 Spinebill Pl, Cranebrook",
    "suburb": "Penrith",
    "state": "NSW",
    "lat": -33.7242292,
    "lng": 150.6973691,
    "place_id": "ChIJT3tyzsmFEmsRMf9THKtVUD8",
    "maps_url": "https://www.google.com/maps/place/?q=place_id:ChIJT3tyzsmFEmsRMf9THKtVUD8",
    "rating": 4.3,
    "total_ratings": 24
  },
  {
    "name": "Knapsack Reserve",
    "address": "26 Barnet St, Glenbrook",
    "suburb": "Penrith",
    "state": "NSW",
    "lat": -33.7597141,
    "lng": 150.6265846,
    "place_id": "ChIJo0VBdmCIEmsRdBNA_aVvBTI",
    "maps_url": "https://www.google.com/maps/place/?q=place_id:ChIJo0VBdmCIEmsRdBNA_aVvBTI",
    "rating": 4.5,
    "total_ratings": 230
  },
  {
    "name": "Werrington Lake Reserve",
    "address": "Burton St, Werrington",
    "suburb": "Penrith",
    "state": "NSW",
    "lat": -33.7539605,
    "lng": 150.7403685,
    "place_id": "ChIJ_ezvNmqFEmsRZU5Lt9ZnWPU",
    "maps_url": "https://www.google.com/maps/place/?q=place_id:ChIJ_ezvNmqFEmsRZU5Lt9ZnWPU",
    "rating": 4.5,
    "total_ratings": 674
  },
  {
    "name": "Wainwright Park",
    "address": "19 Bringelly Rd, Kingswood",
    "suburb": "Penrith",
    "state": "NSW",
    "lat": -33.7612845,
    "lng": 150.7193506,
    "place_id": "ChIJfeyiSoCFEmsR3gB6YneAV6Q",
    "maps_url": "https://www.google.com/maps/place/?q=place_id:ChIJfeyiSoCFEmsR3gB6YneAV6Q",
    "rating": 4.2,
    "total_ratings": 84
  },
  {
    "name": "Glen Park",
    "address": "Emu Heights",
    "suburb": "Penrith",
    "state": "NSW",
    "lat": -33.7441659,
    "lng": 150.6466499,
    "place_id": "ChIJFwSJ8myHEmsRmAuiIrzjbbw",
    "maps_url": "https://www.google.com/maps/place/?q=place_id:ChIJFwSJ8myHEmsRmAuiIrzjbbw",
    "rating": 4.4,
    "total_ratings": 16
  },
  {
    "name": "Wilson Park",
    "address": "226 Seventh Ave, Llandilo",
    "suburb": "Penrith",
    "state": "NSW",
    "lat": -33.7069166,
    "lng": 150.7481272,
    "place_id": "ChIJ3023_L6EEmsRIGzx-Wh9AQ8",
    "maps_url": "https://www.google.com/maps/place/?q=place_id:ChIJ3023_L6EEmsRIGzx-Wh9AQ8",
    "rating": 4.7,
    "total_ratings": 12
  },
  {
    "name": "City Park Penrith",
    "address": "Station St, Penrith",
    "suburb": "Penrith",
    "state": "NSW",
    "lat": -33.7523768,
    "lng": 150.6956692,
    "place_id": "ChIJGRQuPgCFEmsRMf441x7Hxms",
    "maps_url": "https://www.google.com/maps/place/?q=place_id:ChIJGRQuPgCFEmsRMf441x7Hxms",
    "rating": 4.3,
    "total_ratings": 12
  },
  {
    "name": "Chapman Gardens",
    "address": "Chapman Gardens Oval, 24 Second Ave, Kingswood",
    "suburb": "Penrith",
    "state": "NSW",
    "lat": -33.7602018,
    "lng": 150.7254495,
    "place_id": "ChIJxcrw7X6FEmsRoJnx-Wh9AQ8",
    "maps_url": "https://www.google.com/maps/place/?q=place_id:ChIJxcrw7X6FEmsRoJnx-Wh9AQ8",
    "rating": 4.2,
    "total_ratings": 82
  },
  {
    "name": "Roger Nethercote Park",
    "address": "13 Morello Terrace, Caddens",
    "suburb": "Penrith",
    "state": "NSW",
    "lat": -33.7748973,
    "lng": 150.72778,
    "place_id": "ChIJ9XBLvISPEmsRiUHoXxtorb4",
    "maps_url": "https://www.google.com/maps/place/?q=place_id:ChIJ9XBLvISPEmsRiUHoXxtorb4",
    "rating": 3.6,
    "total_ratings": 26
  },
  {
    "name": "Coachmans Park",
    "address": "St Marys",
    "suburb": "Penrith",
    "state": "NSW",
    "lat": -33.7658687,
    "lng": 150.773798,
    "place_id": "ChIJxZ1CirGaEmsR8w9Px9Xom9A",
    "maps_url": "https://www.google.com/maps/place/?q=place_id:ChIJxZ1CirGaEmsR8w9Px9Xom9A",
    "rating": 4.1,
    "total_ratings": 187
  },
  {
    "name": "Elizabeth Torrance Park",
    "address": "St Clair",
    "suburb": "Penrith",
    "state": "NSW",
    "lat": -33.8039903,
    "lng": 150.7728803,
    "place_id": "ChIJubJo4huREmsResNeqw2cvRA",
    "maps_url": "https://www.google.com/maps/place/?q=place_id:ChIJubJo4huREmsResNeqw2cvRA",
    "rating": 4.1,
    "total_ratings": 16
  },
  {
    "name": "Ropes Creek Station (Reserve 1026)",
    "address": "13 Huntington St, Ropes Crossing",
    "suburb": "Penrith",
    "state": "NSW",
    "lat": -33.7276574,
    "lng": 150.7806872,
    "place_id": "ChIJN_JatzqbEmsRbWN62J4YSGM",
    "maps_url": "https://www.google.com/maps/place/?q=place_id:ChIJN_JatzqbEmsRbWN62J4YSGM",
    "rating": 4.1,
    "total_ratings": 54
  },
  {
    "name": "Cranebrook Park",
    "address": "Cranebrook",
    "suburb": "Penrith",
    "state": "NSW",
    "lat": -33.7151071,
    "lng": 150.6966412,
    "place_id": "ChIJ4fp5pM-FEmsR_gBd-rx3sfw",
    "maps_url": "https://www.google.com/maps/place/?q=place_id:ChIJ4fp5pM-FEmsR_gBd-rx3sfw",
    "rating": 4.3,
    "total_ratings": 31
  },
  {
    "name": "Steamroller Park",
    "address": "195 Victoria St, Cambridge Park",
    "suburb": "Penrith",
    "state": "NSW",
    "lat": -33.7546122,
    "lng": 150.7216735,
    "place_id": "ChIJ6ajvCHiFEmsR6EhAKHgOZSM",
    "maps_url": "https://www.google.com/maps/place/?q=place_id:ChIJ6ajvCHiFEmsR6EhAKHgOZSM",
    "rating": 4,
    "total_ratings": 116
  },
  {
    "name": "Whitton Park",
    "address": "12 Moore St, Glenbrook",
    "suburb": "Penrith",
    "state": "NSW",
    "lat": -33.7631327,
    "lng": 150.6188125,
    "place_id": "ChIJrZ23RluIEmsRYJzx-Wh9AQ8",
    "maps_url": "https://www.google.com/maps/place/?q=place_id:ChIJrZ23RluIEmsRYJzx-Wh9AQ8",
    "rating": 4.1,
    "total_ratings": 64
  },
  {
    "name": "Lions Park",
    "address": "Great Western Hwy & Park St, Emu Plains",
    "suburb": "Penrith",
    "state": "NSW",
    "lat": -33.7525022,
    "lng": 150.6653174,
    "place_id": "ChIJHQ2p8aiIEmsRCsJmgbDrF2A",
    "maps_url": "https://www.google.com/maps/place/?q=place_id:ChIJHQ2p8aiIEmsRCsJmgbDrF2A",
    "rating": 4.5,
    "total_ratings": 140
  },
  {
    "name": "South Creek Park",
    "address": "Creek Rd, St Marys",
    "suburb": "Penrith",
    "state": "NSW",
    "lat": -33.7640008,
    "lng": 150.7681758,
    "place_id": "ChIJOQ5xfk2FEmsRQJrx-Wh9AQ8",
    "maps_url": "https://www.google.com/maps/place/?q=place_id:ChIJOQ5xfk2FEmsRQJrx-Wh9AQ8",
    "rating": 4.1,
    "total_ratings": 16
  },
  {
    "name": "Childrens Park",
    "address": "6 Caley Cres, Lapstone",
    "suburb": "Penrith",
    "state": "NSW",
    "lat": -33.7730533,
    "lng": 150.6391869,
    "place_id": "ChIJqy9bqPqIEmsR0uWFyqxcBZw",
    "maps_url": "https://www.google.com/maps/place/?q=place_id:ChIJqy9bqPqIEmsR0uWFyqxcBZw",
    "rating": 4.2,
    "total_ratings": 12
  },
  {
    "name": "Brick Kiln Park",
    "address": "Armoury Rd, Jordan Springs",
    "suburb": "Penrith",
    "state": "NSW",
    "lat": -33.7377237,
    "lng": 150.7502532,
    "place_id": "ChIJCQqLSUaFEmsRMxZQ9IzwL-8",
    "maps_url": "https://www.google.com/maps/place/?q=place_id:ChIJCQqLSUaFEmsRMxZQ9IzwL-8",
    "rating": 4.5,
    "total_ratings": 40
  },
  {
    "name": "Illoura Park",
    "address": "Illoura Way, Jordan Springs",
    "suburb": "Penrith",
    "state": "NSW",
    "lat": -33.7251205,
    "lng": 150.733138,
    "place_id": "ChIJcfjCtOKEEmsRMxOpzkY-sDY",
    "maps_url": "https://www.google.com/maps/place/?q=place_id:ChIJcfjCtOKEEmsRMxOpzkY-sDY",
    "rating": 3.5,
    "total_ratings": 31
  },