[
  {
    "name": "Pest Power Sydney | General Pest Control and Termite Treatment Specialist",
    "address": "241 Commonwealth St, Surry Hills NSW 2010, Australia",
    "suburb": "Surry Hills NSW 2010",
    "state": "NSW",
    "rating": 5,
    "reviews": 313,
    "lat": -33.8837232,
    "lng": 151.2096406,
    "place_id": "ChIJcdmZJNzTtYcRcktDlbT-7zA",
    "maps_url": "https://www.google.com/maps/place/?q=place_id:ChIJcdmZJNzTtYcRcktDlbT-7zA"
  },
  {
    "name": "Pest Control Sydney Wide",
    "address": "L4, 5 - 12, Plaza, Australia Square, 95 Pitt St, Sydney NSW 2000, Australia",
    "suburb": "5 - 12",
    "state": "NSW",
    "rating": 4.9,
    "reviews": 494,
    "lat": -33.8648814,
    "lng": 151.2085577,
    "place_id": "ChIJr6Nwvku5EmsRb59ujXxoabc",
    "maps_url": "https://www.google.com/maps/place/?q=place_id:ChIJr6Nwvku5EmsRb59ujXxoabc"
  },
  {
    "name": "Pest Control Sydney NSW",
    "address": "World square, Level 45/680 George St, Sydney NSW 2000, Australia",
    "suburb": "Level 45/680 George St",
    "state": "NSW",
    "rating": 4.9,
    "reviews": 245,
    "lat": -33.8769364,
    "lng": 151.2064994,
    "place_id": "ChIJJd7xxzyuEmsR-5j_mVg__GU",
    "maps_url": "https://www.google.com/maps/place/?q=place_id:ChIJJd7xxzyuEmsR-5j_mVg__GU"
  },
  {
    "name": "Pestaway Sydney",
    "address": "802/301 Botany Rd, Zetland NSW 2017, Australia",
    "suburb": "Zetland NSW 2017",
    "state": "NSW",
    "rating": 5,
    "reviews": 708,
    "lat": -33.9057914,
    "lng": 151.203165,
    "place_id": "ChIJnS9UGBC7EmsRArB9k86brH4",
    "maps_url": "https://www.google.com/maps/place/?q=place_id:ChIJnS9UGBC7EmsRArB9k86brH4"
  },
  {
    "name": "Iconic Pest Solutions | Termite & General Exterminators | Termite Specialists in Sydney",
    "address": "2/240 Darling St, Balmain East NSW 2041, Australia",
    "suburb": "Balmain East NSW 2041",
    "state": "NSW",
    "rating": 5,
    "reviews": 1005,
    "lat": -33.8584206,
    "lng": 151.184022,
    "place_id": "ChIJl-VkRbKvEmsRl62XEfWPFhQ",
    "maps_url": "https://www.google.com/maps/place/?q=place_id:ChIJl-VkRbKvEmsRl62XEfWPFhQ"
  },
  {
    "name": "Micropest Pest Control Sydney",
    "address": "43 Whiting St, Artarmon NSW 2064, Australia",
    "suburb": "Artarmon NSW 2064",
    "state": "NSW",
    "rating": 5,
    "reviews": 537,
    "lat": -33.8153045,
    "lng": 151.1827517,
    "place_id": "ChIJeXml1ymuEmsR17xZ15fCGfs",
    "maps_url": "https://www.google.com/maps/place/?q=place_id:ChIJeXml1ymuEmsR17xZ15fCGfs"
  },
  {
    "name": "Masters Pest Control Sydney",
    "address": "Kent St, Sydney NSW 2000, Australia",
    "suburb": "Sydney NSW 2000",
    "state": "NSW",
    "rating": 5,
    "reviews": 326,
    "lat": -33.8717602,
    "lng": 151.2048468,
    "place_id": "ChIJJ_lALD-uEmsRqn0uKoA4ibg",
    "maps_url": "https://www.google.com/maps/place/?q=place_id:ChIJJ_lALD-uEmsRqn0uKoA4ibg"
  },
  {
    "name": "Safe Pest Control Sydney",
    "address": "16/9 Anderson St, Neutral Bay NSW 2089, Australia",
    "suburb": "Neutral Bay NSW 2089",
    "state": "NSW",
    "rating": 5,
    "reviews": 267,
    "lat": -33.8359313,
    "lng": 151.2208616,
    "place_id": "ChIJCbVmdDmhEmsR0ZoTTjr4eXQ",
    "maps_url": "https://www.google.com/maps/place/?q=place_id:ChIJCbVmdDmhEmsR0ZoTTjr4eXQ"
  },
  {
    "name": "NSW Pest Control Sydney",
    "address": "68 Peter St, Blacktown NSW 2148, Australia",
    "suburb": "Blacktown NSW 2148",
    "state": "NSW",
    "rating": 4.9,
    "reviews": 211,
    "lat": -33.7627456,
    "lng": 150.9144404,
    "place_id": "ChIJSesH5HCYEmsRfrSq4VFCMRo",
    "maps_url": "https://www.google.com/maps/place/?q=place_id:ChIJSesH5HCYEmsRfrSq4VFCMRo"
  },
  {
    "name": "Competitive Pest Services",
    "address": "Level 8, Suite 2/227 Elizabeth St, Sydney NSW 2000, Australia",
    "suburb": "Suite 2/227 Elizabeth St",
    "state": "NSW",
    "rating": 4.9,
    "reviews": 344,
    "lat": -33.8743365,
    "lng": 151.2094246,
    "place_id": "ChIJ8SqdNjuwEmsRJJtqflpxC4Y",
    "maps_url": "https://www.google.com/maps/place/?q=place_id:ChIJ8SqdNjuwEmsRJJtqflpxC4Y"
  },
  {
    "name": "BugFree Pest Control",
    "address": "Unit 26/191 Parramatta Rd, Auburn NSW 2144, Australia",
    "suburb": "Auburn NSW 2144",
    "state": "NSW",
    "rating": 4.9,
    "reviews": 5326,
    "lat": -33.8393858,
    "lng": 151.0347182,
    "place_id": "ChIJH_Q423e9EmsRC_df825qoBo",
    "maps_url": "https://www.google.com/maps/place/?q=place_id:ChIJH_Q423e9EmsRC_df825qoBo"
  },
  {
    "name": "L&C Pest Management",
    "address": "2123/233 Castlereagh St, Sydney NSW 2000, Australia",
    "suburb": "Sydney NSW 2000",
    "state": "NSW",
    "rating": 5,
    "reviews": 110,
    "lat": -33.8759774,
    "lng": 151.2084396,
    "place_id": "ChIJNWeNYpq2YqERNBTFkGQ3JSY",
    "maps_url": "https://www.google.com/maps/place/?q=place_id:ChIJNWeNYpq2YqERNBTFkGQ3JSY"
  },
  {
    "name": "Pest2Kill",
    "address": "Suite 13, Level 6/70 Pitt St, Sydney NSW 2000, Australia",
    "suburb": "Level 6/70 Pitt St",
    "state": "NSW",
    "rating": 5,
    "reviews": 145,
    "lat": -33.8661616,
    "lng": 151.2089465,
    "place_id": "ChIJkwoOQqevEmsR47KUTq7qRz0",
    "maps_url": "https://www.google.com/maps/place/?q=place_id:ChIJkwoOQqevEmsR47KUTq7qRz0"
  },
  {
    "name": "Greater Sydney Pest Control",
    "address": "114 Harrow Rd, Auburn NSW 2144, Australia",
    "suburb": "Auburn NSW 2144",
    "state": "NSW",
    "rating": 4.9,
    "reviews": 157,
    "lat": -33.860456,
    "lng": 151.029988,
    "place_id": "ChIJZ__p4OS9EmsR229eF0e8AIA",
    "maps_url": "https://www.google.com/maps/place/?q=place_id:ChIJZ__p4OS9EmsR229eF0e8AIA"
  },
  {
    "name": "Micropest Pest Control Sydney",
    "address": "24/24-36 Pacific Hwy, Wahroonga NSW 2076, Australia",
    "suburb": "Wahroonga NSW 2076",
    "state": "NSW",
    "rating": 5,
    "reviews": 871,
    "lat": -33.7135837,
    "lng": 151.1082364,
    "place_id": "ChIJ5eyJs-qnEmsREhfjnTd4WUA",
    "maps_url": "https://www.google.com/maps/place/?q=place_id:ChIJ5eyJs-qnEmsREhfjnTd4WUA"
  },
  {
    "name": "Killmore Pest Control Services Sydney",
    "address": "454 Cleveland St, Surry Hills NSW 2010, Australia",
    "suburb": "Surry Hills NSW 2010",
    "state": "NSW",
    "rating": 4.8,
    "reviews": 456,
    "lat": -33.891464,
    "lng": 151.213225,
    "place_id": "ChIJT0m5yuGxEmsRaIgAMXddZms",
    "maps_url": "https://www.google.com/maps/place/?q=place_id:ChIJT0m5yuGxEmsRaIgAMXddZms"
  },
  {
    "name": "Safe Pest Control Sydney",
    "address": "160 Oxford St, Paddington NSW 2021, Australia",
    "suburb": "Paddington NSW 2021",
    "state": "NSW",
    "rating": 4.9,
    "reviews": 73,
    "lat": -33.8840314,
    "lng": 151.2233828,
    "place_id": "ChIJP0b-PgBjYS4RyvP1NYNcGNg",
    "maps_url": "https://www.google.com/maps/place/?q=place_id:ChIJP0b-PgBjYS4RyvP1NYNcGNg"
  },
  {
    "name": "InnerWest Pest Control Pty Ltd.",
    "address": "239 Parramatta Rd, Annandale NSW 2038, Australia",
    "suburb": "Annandale NSW 2038",
    "state": "NSW",
    "rating": 5,
    "reviews": 414,
    "lat": -33.8881081,
    "lng": 151.1630804,
    "place_id": "ChIJJ1mYXh6xEmsR1tupmHj7qdg",
    "maps_url": "https://www.google.com/maps/place/?q=place_id:ChIJJ1mYXh6xEmsR1tupmHj7qdg"
  },
  {
    "name": "Now Pest Control Sydney",
    "address": "11 Charles St, Leichhardt NSW 2040, Australia",
    "suburb": "Leichhardt NSW 2040",
    "state": "NSW",
    "rating": 5,
    "reviews": 166,
    "lat": -33.877165,
    "lng": 151.1528013,
    "place_id": "ChIJNT_zwVSxEmsR8hY7kNb2qa0",
    "maps_url": "https://www.google.com/maps/place/?q=place_id:ChIJNT_zwVSxEmsR8hY7kNb2qa0"
  },
  {
    "name": "Pro Plus Termite & Pest Control",
    "address": "98 Marsden St, Parramatta NSW 2150, Australia",
    "suburb": "Parramatta NSW 2150",
    "state": "NSW",
    "rating": 5,
    "reviews": 91,
    "lat": -33.8198688,
    "lng": 150.9990637,
    "place_id": "ChIJQcs2L3ijEmsRNGGB7m1fRcE",
    "maps_url": "https://www.google.com/maps/place/?q=place_id:ChIJQcs2L3ijEmsRNGGB7m1fRcE"
  },
  {
    "name": "Hamro Best Pest Control - Pest Control Sydney",
    "address": "3/11 Normanby Rd, Auburn NSW 2144, Australia",
    "suburb": "Auburn NSW 2144",
    "state": "NSW",
    "rating": 5,
    "reviews": 110,
    "lat": -33.8475065,
    "lng": 151.0285865,
    "place_id": "ChIJow6z4paFGGMRIT87v4Mxpmw",
    "maps_url": "https://www.google.com/maps/place/?q=place_id:ChIJow6z4paFGGMRIT87v4Mxpmw"
  },
  {
    "name": "SS Pest Control Parramatta",
    "address": "Lvl 15, Deloitte Building, 60 Station St E, Parramatta NSW 2150, Australia",
    "suburb": "Deloitte Building",
    "state": "NSW",
    "rating": 5,
    "reviews": 42,
    "lat": -33.8185134,
    "lng": 151.0072343,
    "place_id": "ChIJFy8JwoOjEmsRy1Yjp2cK5Xg",
    "maps_url": "https://www.google.com/maps/place/?q=place_id:ChIJFy8JwoOjEmsRy1Yjp2cK5Xg"
  },
  {
    "name": "Safe Pest Control Sydney",
    "address": "Suite 4/247 Church St, Parramatta NSW 2150, Australia",
    "suburb": "Parramatta NSW 2150",
    "state": "NSW",
    "rating": 5,
    "reviews": 51,
    "lat": -33.8131367,
    "lng": 151.0033382,
    "place_id": "ChIJGwCtVx6jEmsRwvsdRZ06LiI",
    "maps_url": "https://www.google.com/maps/place/?q=place_id:ChIJGwCtVx6jEmsRwvsdRZ06LiI"
  },
  {
    "name": "Masters Pest Control Sydney",
    "address": "Unit 1/133 Fairfield Rd, Guildford West NSW 2161, Australia",
    "suburb": "Guildford West NSW 2161",
    "state": "NSW",
    "rating": 4.9,
    "reviews": 203,
    "lat": -33.848121,
    "lng": 150.9618169,
    "place_id": "ChIJ9ZY1um69EmsRXewl5LhHzfY",
    "maps_url": "https://www.google.com/maps/place/?q=place_id:ChIJ9ZY1um69EmsRXewl5LhHzfY"
  },
  {
    "name": "Masters Pest Control Sydney",
    "address": "Shop 18/8 Hannah St, Beecroft NSW 2119, Australia",
    "suburb": "Beecroft NSW 2119",
    "state": "NSW",
    "rating": 4.9,
    "reviews": 308,
    "lat": -33.7491856,
    "lng": 151.065695,
    "place_id": "ChIJMxmDnFynEmsRr2h54qGnTkI",
    "maps_url": "https://www.google.com/maps/place/?q=place_id:ChIJMxmDnFynEmsRr2h54qGnTkI"
  },
  {
    "name": "Hari's Pest Control",
    "address": "57-59 Queen St, Auburn NSW 2144, Australia",
    "suburb": "Auburn NSW 2144",
    "state": "NSW",
    "rating": 4.6,
    "reviews": 222,
    "lat": -33.8500381,
    "lng": 151.0317163,
    "place_id": "ChIJMTWjbrG8EmsR3l8q3EH34xU",
    "maps_url": "https://www.google.com/maps/place/?q=place_id:ChIJMTWjbrG8EmsR3l8q3EH34xU"
  },
  {
    "name": "Iconic pest solutions | Termite & general Pest Control Specialist",
    "address": "1 Good St, Parramatta NSW 2150, Australia",
    "suburb": "Parramatta NSW 2150",
    "state": "NSW",
    "rating": null,
    "reviews": 0,
    "lat": -33.818137,
    "lng": 150.9938916,
    "place_id": "ChIJ_1FpvkmjEmsRn-ojffF-pgU",
    "maps_url": "https://www.google.com/maps/place/?q=place_id:ChIJ_1FpvkmjEmsRn-ojffF-pgU"
  },
  {
    "name": "Newcastle Pest Exterminators",
    "address": "Deborah St, Kotara South NSW 2289, Australia",
    "suburb": "Kotara South NSW 2289",
    "state": "NSW",
    "rating": 4.9,
    "reviews": 712,
    "lat": -32.952383,
    "lng": 151.6929317,
    "place_id": "ChIJf4jG4fA9c2sRl4MAAWZ4IZ0",
    "maps_url": "https://www.google.com/maps/place/?q=place_id:ChIJf4jG4fA9c2sRl4MAAWZ4IZ0"
  },
  {
    "name": "Hunter and Coast Pest & Handyman Services",
    "address": "138 Grandview Rd, New Lambton Heights NSW 2305, Australia",
    "suburb": "New Lambton Heights NSW 2305",
    "state": "NSW",
    "rating": 4.9,
    "reviews": 864,
    "lat": -32.929192,
    "lng": 151.6789277,
    "place_id": "ChIJ5ULC6Aw-c2sR1gZGXRRMndg",
    "maps_url": "https://www.google.com/maps/place/?q=place_id:ChIJ5ULC6Aw-c2sR1gZGXRRMndg"
  },
  {
    "name": "Newcastle Kill A Pest - Pest Control & Termite Inspection Reports",
    "address": "Unit 25/2 Mitchell Rd, Cardiff NSW 2285, Australia",
    "suburb": "Cardiff NSW 2285",
    "state": "NSW",
    "rating": 4.9,
    "reviews": 116,
    "lat": -32.9435613,
    "lng": 151.6498677,
    "place_id": "ChIJVylHsSo-c2sR6QvEPiUZLKQ",
    "maps_url": "https://www.google.com/maps/place/?q=place_id:ChIJVylHsSo-c2sR6QvEPiUZLKQ"
  },
  {
    "name": "Rentokil Pest Control Newcastle",
    "address": "8 Friesian Cl, Sandgate NSW 2304, Australia",
    "suburb": "Sandgate NSW 2304",
    "state": "NSW",
    "rating": 4.8,
    "reviews": 291,
    "lat": -32.8729142,
    "lng": 151.7106582,
    "place_id": "ChIJa9Sr61oVc2sRFERkCtM_XVI",
    "maps_url": "https://www.google.com/maps/place/?q=place_id:ChIJa9Sr61oVc2sRFERkCtM_XVI"
  },
  {
    "name": "Kill A Pest Lake Macquarie - Pest Control & Termite Inspections",
    "address": "22 French Rd, Wangi Wangi NSW 2267, Australia",
    "suburb": "Wangi Wangi NSW 2267",
    "state": "NSW",
    "rating": 4.9,
    "reviews": 259,
    "lat": -33.0701368,
    "lng": 151.5902846,
    "place_id": "ChIJpa255yQkc2sRW0eCOuGI31A",
    "maps_url": "https://www.google.com/maps/place/?q=place_id:ChIJpa255yQkc2sRW0eCOuGI31A"
  },
  {
    "name": "Newcastle Total Pest Control",
    "address": "8 Chelsea Cl, Balmoral NSW 2283, Australia",
    "suburb": "Balmoral NSW 2283",
    "state": "NSW",
    "rating": 4.9,
    "reviews": 92,
    "lat": -33.0434622,
    "lng": 151.5794992,
    "place_id": "ChIJlQFy-rc9c2sRU4GNekGua1g",
    "maps_url": "https://www.google.com/maps/place/?q=place_id:ChIJlQFy-rc9c2sRU4GNekGua1g"
  },
  {
    "name": "Julian Davidson Pest Management",
    "address": "52 Pacific Dr, Swansea Heads NSW 2281, Australia",
    "suburb": "Swansea Heads NSW 2281",
    "state": "NSW",
    "rating": 5,
    "reviews": 99,
    "lat": -33.0961707,
    "lng": 151.6562639,
    "place_id": "ChIJ4e0L2n73O0sRiFjosUU0wcY",
    "maps_url": "https://www.google.com/maps/place/?q=place_id:ChIJ4e0L2n73O0sRiFjosUU0wcY"
  },
  {
    "name": "OzPest Solutions - Pest Control in Maitland",
    "address": "Unit 3/8 Elwell Cl, Beresfield NSW 2322, Australia",
    "suburb": "Beresfield NSW 2322",
    "state": "NSW",
    "rating": 5,
    "reviews": 486,
    "lat": -32.8012849,
    "lng": 151.6315475,
    "place_id": "ChIJRTyFlIg9c2sRIRlW28O-aa0",
    "maps_url": "https://www.google.com/maps/place/?q=place_id:ChIJRTyFlIg9c2sRIRlW28O-aa0"
  },
  {
    "name": "Rebel Pest Professionals",
    "address": "Unit 4/3 Edge St, Boolaroo NSW 2284, Australia",
    "suburb": "Boolaroo NSW 2284",
    "state": "NSW",
    "rating": 4.8,
    "reviews": 191,
    "lat": -32.9410266,
    "lng": 151.6361413,
    "place_id": "ChIJ4_kWYN9gC2sRXN6ug0O2tUE",
    "maps_url": "https://www.google.com/maps/place/?q=place_id:ChIJ4_kWYN9gC2sRXN6ug0O2tUE"
  },
  {
    "name": "Newcastle Kill A Pest - Pest Control & Termite Inspections",
    "address": "2 Sturdee St, New Lambton NSW 2305, Australia",
    "suburb": "New Lambton NSW 2305",
    "state": "NSW",
    "rating": 4.9,
    "reviews": 21,
    "lat": -32.9265565,
    "lng": 151.7211531,
    "place_id": "ChIJmW94KYQVc2sRa_ZXscZ-2ck",
    "maps_url": "https://www.google.com/maps/place/?q=place_id:ChIJmW94KYQVc2sRa_ZXscZ-2ck"
  },
  {
    "name": "Macquarie Pest Control",
    "address": "47 Lewers St, Belmont NSW 2280, Australia",
    "suburb": "Belmont NSW 2280",
    "state": "NSW",
    "rating": 5,
    "reviews": 5,
    "lat": -33.0271925,
    "lng": 151.6480724,
    "place_id": "ChIJ9RkfVSEjc2sRJJwde0LF6rc",
    "maps_url": "https://www.google.com/maps/place/?q=place_id:ChIJ9RkfVSEjc2sRJJwde0LF6rc"
  },
  {
    "name": "All Pest Control Newcastle",
    "address": "6 Worrikul Ave, Fletcher NSW 2287, Australia",
    "suburb": "Fletcher NSW 2287",
    "state": "NSW",
    "rating": 4.7,
    "reviews": 18,
    "lat": -32.8736732,
    "lng": 151.6329039,
    "place_id": "ChIJR1G8tJw_c2sRPW-n1uxxzEA",
    "maps_url": "https://www.google.com/maps/place/?q=place_id:ChIJR1G8tJw_c2sRPW-n1uxxzEA"
  },
  {
    "name": "Andersen Pest Services",
    "address": "123 Regal Way, Valentine NSW 2280, Australia",
    "suburb": "Valentine NSW 2280",
    "state": "NSW",
    "rating": 5,
    "reviews": 157,
    "lat": -33.0084558,
    "lng": 151.6570681,
    "place_id": "ChIJJ2vPzsM9c2sRN_qDvN09QeE",
    "maps_url": "https://www.google.com/maps/place/?q=place_id:ChIJJ2vPzsM9c2sRN_qDvN09QeE"
  },
  {
    "name": "Superior Pest Management",
    "address": "7A Cobbans Cl, Beresfield NSW 2322, Australia",
    "suburb": "Beresfield NSW 2322",
    "state": "NSW",
    "rating": 5,
    "reviews": 12,
    "lat": -32.8019652,
    "lng": 151.6356324,
    "place_id": "ChIJKWjIrGgVc2sRociGXkKsOtE",
    "maps_url": "https://www.google.com/maps/place/?q=place_id:ChIJKWjIrGgVc2sRociGXkKsOtE"
  },
  {
    "name": "Pest Control Newcastle",
    "address": "764 Weemala St, Newcastle NSW 2300, Australia",
    "suburb": "Newcastle NSW 2300",
    "state": "NSW",
    "rating": null,
    "reviews": 0,
    "lat": -33.0166149,
    "lng": 151.6739047,
    "place_id": "ChIJDYV33jQ9c2sRnzkNxfaMzSY",
    "maps_url": "https://www.google.com/maps/place/?q=place_id:ChIJDYV33jQ9c2sRnzkNxfaMzSY"
  },
  {
    "name": "Advanced Pest Control",
    "address": "40 Portside Cres, Wickham NSW 2293, Australia",
    "suburb": "Wickham NSW 2293",
    "state": "NSW",
    "rating": 3.6,
    "reviews": 19,
    "lat": -32.912958,
    "lng": 151.7549588,
    "place_id": "ChIJh6Sgm_gUc2sR6ljmbdwW5KA",
    "maps_url": "https://www.google.com/maps/place/?q=place_id:ChIJh6Sgm_gUc2sR6ljmbdwW5KA"
  },
  {
    "name": "Premier Pest Control - Wollongong",
    "address": "5/94 Auburn St, Wollongong NSW 2500, Australia",
    "suburb": "Wollongong NSW 2500",
    "state": "NSW",
    "rating": 4.9,
    "reviews": 201,
    "lat": -34.433893,
    "lng": 150.887426,
    "place_id": "ChIJMQP_3olW2QwRUXqqXGrRCy8",
    "maps_url": "https://www.google.com/maps/place/?q=place_id:ChIJMQP_3olW2QwRUXqqXGrRCy8"
  },
  {
    "name": "Organic Pest Control Wollongong",
    "address": "11/72 Market St, Wollongong NSW 2500, Australia",
    "suburb": "Wollongong NSW 2500",
    "state": "NSW",
    "rating": 5,
    "reviews": 27,
    "lat": -34.4231898,
    "lng": 150.8941538,
    "place_id": "ChIJdwaoaLUZE2sRL-5RdlpTyzA",
    "maps_url": "https://www.google.com/maps/place/?q=place_id:ChIJdwaoaLUZE2sRL-5RdlpTyzA"
  },
  {
    "name": "Trusted Pest & Termite Control Wollongong",
    "address": "Market St, Wollongong NSW 2500, Australia",
    "suburb": "Wollongong NSW 2500",
    "state": "NSW",
    "rating": 5,
    "reviews": 37,
    "lat": -34.4243329,
    "lng": 150.9008825,
    "place_id": "ChIJqwfE4qgZE2sRkpEd5aNtXIo",
    "maps_url": "https://www.google.com/maps/place/?q=place_id:ChIJqwfE4qgZE2sRkpEd5aNtXIo"
  },
  {
    "name": "Advanced Pest Control Wollongong",
    "address": "4/3 Hargraves Ave, Albion Park Rail NSW 2527, Australia",
    "suburb": "Albion Park Rail NSW 2527",
    "state": "NSW",
    "rating": 4.7,
    "reviews": 38,
    "lat": -34.5570493,
    "lng": 150.7919839,
    "place_id": "ChIJdfytL_USE2sRq5vUFs1fSpM",
    "maps_url": "https://www.google.com/maps/place/?q=place_id:ChIJdfytL_USE2sRq5vUFs1fSpM"
  },
  {
    "name": "Adapt Pest",
    "address": "Kembla St, Wollongong NSW 2500, Australia",
    "suburb": "Wollongong NSW 2500",
    "state": "NSW",
    "rating": 5,
    "reviews": 4,
    "lat": -34.4246178,
    "lng": 150.8977857,
    "place_id": "ChIJT4bfe7kBrgwR_eiUqLwUYdI",
    "maps_url": "https://www.google.com/maps/place/?q=place_id:ChIJT4bfe7kBrgwR_eiUqLwUYdI"
  },
  {
    "name": "Flick Pest Control South Coast",
    "address": "2/20 24 Princes Hwy, Yallah NSW 2530, Australia",
    "suburb": "Yallah NSW 2530",
    "state": "NSW",
    "rating": 4.8,
    "reviews": 170,
    "lat": -34.5402889,
    "lng": 150.783734,
    "place_id": "ChIJL2pHJGcSE2sRqyGcXMnUKhg",
    "maps_url": "https://www.google.com/maps/place/?q=place_id:ChIJL2pHJGcSE2sRqyGcXMnUKhg"
  },
  {
    "name": "Cost Effective Pest Control",
    "address": "117 Lake Entrance Rd, Barrack Heights NSW 2528, Australia",
    "suburb": "Barrack Heights NSW 2528",
    "state": "NSW",
    "rating": 5,
    "reviews": 71,
    "lat": -34.5564098,
    "lng": 150.8475213,
    "place_id": "ChIJ_dkz6K_gA2ERwEpk8PMRoDw",
    "maps_url": "https://www.google.com/maps/place/?q=place_id:ChIJ_dkz6K_gA2ERwEpk8PMRoDw"
  },
  {
    "name": "Miller's Pest Management",
    "address": "198 Wentworth St, Port Kembla NSW 2505, Australia",
    "suburb": "Port Kembla NSW 2505",
    "state": "NSW",
    "rating": 5,
    "reviews": 12,
    "lat": -34.486846,
    "lng": 150.904933,
    "place_id": "ChIJKRuhTgoXE2sRiPiBub6tr7I",
    "maps_url": "https://www.google.com/maps/place/?q=place_id:ChIJKRuhTgoXE2sRiPiBub6tr7I"
  },
  {
    "name": "Australian Pest Specialists - Pest Control Central Coast",
    "address": "Aloha Dr, Chittaway Bay NSW 2261, Australia",
    "suburb": "Chittaway Bay NSW 2261",
    "state": "NSW",
    "rating": 5,
    "reviews": 132,
    "lat": -33.3258352,
    "lng": 151.4458316,
    "place_id": "ChIJc8t2klzOcmsRkGiNPgESdPQ",
    "maps_url": "https://www.google.com/maps/place/?q=place_id:ChIJc8t2klzOcmsRkGiNPgESdPQ"
  },
  {
    "name": "Masters Pest Control Central Coast",
    "address": "Unit 2/333 Trafalgar Ave, Umina Beach NSW 2257, Australia",
    "suburb": "Umina Beach NSW 2257",
    "state": "NSW",
    "rating": 5,
    "reviews": 106,
    "lat": -33.5236927,
    "lng": 151.3201712,
    "place_id": "ChIJmYGcbGZNDWsRnZpU9e17lN0",
    "maps_url": "https://www.google.com/maps/place/?q=place_id:ChIJmYGcbGZNDWsRnZpU9e17lN0"
  },
  {
    "name": "Flatline Pest Control - Pest Control Central Coast / Springfield / West Gosford / Erina / Beauty Bay /",
    "address": "45 Barree Ave, Narara NSW 2250, Australia",
    "suburb": "Narara NSW 2250",
    "state": "NSW",
    "rating": 5,
    "reviews": 130,
    "lat": -33.3927759,
    "lng": 151.3528044,
    "place_id": "ChIJt7D5EDIxDWsRL2OwsrPR_JU",
    "maps_url": "https://www.google.com/maps/place/?q=place_id:ChIJt7D5EDIxDWsRL2OwsrPR_JU"
  },
  {
    "name": "Smash Pest Control",
    "address": "9 Ena St, Terrigal NSW 2260, Australia",
    "suburb": "Terrigal NSW 2260",
    "state": "NSW",
    "rating": 5,
    "reviews": 12,
    "lat": -33.4430701,
    "lng": 151.4401824,
    "place_id": "ChIJeVDp6izJuoAR3hVMYxLTjzQ",
    "maps_url": "https://www.google.com/maps/place/?q=place_id:ChIJeVDp6izJuoAR3hVMYxLTjzQ"
  },
  {
    "name": "Clear-out Pests | Cockroach Exterminator, Emergency Termite Treatment & Inspection, Pest Control Central Coast",
    "address": "26 McKellar Blvd, Blue Haven NSW 2262, Australia",
    "suburb": "Blue Haven NSW 2262",
    "state": "NSW",
    "rating": 5,
    "reviews": 173,
    "lat": -33.2121125,
    "lng": 151.495645,
    "place_id": "ChIJC_nwAf7RcmsRmT-RDB4fgn0",
    "maps_url": "https://www.google.com/maps/place/?q=place_id:ChIJC_nwAf7RcmsRmT-RDB4fgn0"
  },
  {
    "name": "Thunderbear Pest Control",
    "address": "Shelly Beach Rd, Shelly Beach NSW 2261, Australia",
    "suburb": "Shelly Beach NSW 2261",
    "state": "NSW",
    "rating": 5,
    "reviews": 161,
    "lat": -33.3699767,
    "lng": 151.4815115,
    "place_id": "ChIJATURyDk4Hw4R77_fPeyr9bY",
    "maps_url": "https://www.google.com/maps/place/?q=place_id:ChIJATURyDk4Hw4R77_fPeyr9bY"
  },
  {
    "name": "Coastwide Pest Control",
    "address": "7 Stringybark Rd, Hamlyn Terrace NSW 2259, Australia",
    "suburb": "Hamlyn Terrace NSW 2259",
    "state": "NSW",
    "rating": 4.7,
    "reviews": 20,
    "lat": -33.2464047,
    "lng": 151.4716849,
    "place_id": "ChIJe2wvPtTZcmsRjVeq5LSugmc",
    "maps_url": "https://www.google.com/maps/place/?q=place_id:ChIJe2wvPtTZcmsRjVeq5LSugmc"
  },
  {
    "name": "Bugah Pest Control - Commercial & Residential Termite, Flea & Pest Control Services Central Coast",
    "address": "12 Kitty Pl, Watanobbi NSW 2259, Australia",
    "suburb": "Watanobbi NSW 2259",
    "state": "NSW",
    "rating": 4.7,
    "reviews": 36,
    "lat": -33.263235,
    "lng": 151.429567,
    "place_id": "ChIJAzK2t43RcmsR0XjnIPGEFN4",
    "maps_url": "https://www.google.com/maps/place/?q=place_id:ChIJAzK2t43RcmsR0XjnIPGEFN4"
  },
  {
    "name": "Bugg em off pest control",
    "address": "4 Hammond Rd, Toukley NSW 2263, Australia",
    "suburb": "Toukley NSW 2263",
    "state": "NSW",
    "rating": 5,
    "reviews": 18,
    "lat": -33.2632085,
    "lng": 151.5464995,
    "place_id": "ChIJq8KPi6nbcmsRi5WsloRR26g",
    "maps_url": "https://www.google.com/maps/place/?q=place_id:ChIJq8KPi6nbcmsRi5WsloRR26g"
  },
  {
    "name": "Vital Pest Control",
    "address": "7 Bangalay Cl, Blue Haven NSW 2262, Australia",
    "suburb": "Blue Haven NSW 2262",
    "state": "NSW",
    "rating": 5,
    "reviews": 76,
    "lat": -33.2075025,
    "lng": 151.5121347,
    "place_id": "ChIJiRiB2TXAc4oRPvNHEWNwtbo",
    "maps_url": "https://www.google.com/maps/place/?q=place_id:ChIJiRiB2TXAc4oRPvNHEWNwtbo"
  },
  {
    "name": "Central Coast Snake Catchers",
    "address": "Lake Haven Dr, Charmhaven NSW 2263, Australia",
    "suburb": "Charmhaven NSW 2263",
    "state": "NSW",
    "rating": 4.9,
    "reviews": 85,
    "lat": -33.2388928,
    "lng": 151.5001455,
    "place_id": "ChIJCQKoyWDRcmsRnUMCEIhK7Bk",
    "maps_url": "https://www.google.com/maps/place/?q=place_id:ChIJCQKoyWDRcmsRnUMCEIhK7Bk"
  },
  {
    "name": "Pestmac Pest Control Solutions",
    "address": "23 Patterson Cl, Holgate NSW 2250, Australia",
    "suburb": "Holgate NSW 2250",
    "state": "NSW",
    "rating": 5,
    "reviews": 30,
    "lat": -33.396868,
    "lng": 151.4237491,
    "place_id": "ChIJtYOpSP03pSkR1O7JMxB0Xy8",
    "maps_url": "https://www.google.com/maps/place/?q=place_id:ChIJtYOpSP03pSkR1O7JMxB0Xy8"
  },
  {
    "name": "MASH Pest Solutions",
    "address": "20 Lord St, Shelly Beach NSW 2261, Australia",
    "suburb": "Shelly Beach NSW 2261",
    "state": "NSW",
    "rating": 4.9,
    "reviews": 98,
    "lat": -33.3677246,
    "lng": 151.4842503,
    "place_id": "ChIJx7lLCcKSiIURP6J-_BHvOUQ",
    "maps_url": "https://www.google.com/maps/place/?q=place_id:ChIJx7lLCcKSiIURP6J-_BHvOUQ"
  },
  {
    "name": "Second Opinion Pest Control",
    "address": "South Penrith NSW 2750, Australia",
    "suburb": "Australia",
    "state": "NSW",
    "rating": 5,
    "reviews": 108,
    "lat": -33.7726901,
    "lng": 150.696836,
    "place_id": "ChIJpwtX0zOPEmsRWFPIdEoeQLg",
    "maps_url": "https://www.google.com/maps/place/?q=place_id:ChIJpwtX0zOPEmsRWFPIdEoeQLg"
  },
  {
    "name": "Falls Pest Control penrith",
    "address": "19 Debussy Pl, Cranebrook NSW 2749, Australia",
    "suburb": "Cranebrook NSW 2749",
    "state": "NSW",
    "rating": 4.9,
    "reviews": 29,
    "lat": -33.716581,
    "lng": 150.725098,
    "place_id": "ChIJLZd7CPmEEmsRzSPg1O-nKNo",
    "maps_url": "https://www.google.com/maps/place/?q=place_id:ChIJLZd7CPmEEmsRzSPg1O-nKNo"
  },
  {
    "name": "Masters Pest Control Sydney",
    "address": "Suite 1/L1 331 High St, Penrith NSW 2750, Australia",
    "suburb": "Penrith NSW 2750",
    "state": "NSW",
    "rating": 4.9,
    "reviews": 114,
    "lat": -33.7538986,
    "lng": 150.7008246,
    "place_id": "ChIJW77ZRjGFEmsRHl1DrwDeGmc",
    "maps_url": "https://www.google.com/maps/place/?q=place_id:ChIJW77ZRjGFEmsRHl1DrwDeGmc"
  },
  {
    "name": "Penrith Valley Pest Control",
    "address": "Level 1/27 Lawson St, Penrith NSW 2750, Australia",
    "suburb": "Penrith NSW 2750",
    "state": "NSW",
    "rating": 5,
    "reviews": 4,
    "lat": -33.7530008,
    "lng": 150.6999572,
    "place_id": "ChIJFRxLLTAsDYoRy1nQcGnNYmE",
    "maps_url": "https://www.google.com/maps/place/?q=place_id:ChIJFRxLLTAsDYoRy1nQcGnNYmE"
  },
  {
    "name": "Western Pest Management",
    "address": "27 Grays Ln, Cranebrook NSW 2749, Australia",
    "suburb": "Cranebrook NSW 2749",
    "state": "NSW",
    "rating": 4.7,
    "reviews": 41,
    "lat": -33.7066743,
    "lng": 150.7099811,
    "place_id": "ChIJoSH3MluEEmsRWOAu59aZafc",
    "maps_url": "https://www.google.com/maps/place/?q=place_id:ChIJoSH3MluEEmsRWOAu59aZafc"
  },
  {
    "name": "Allstar Pest Control Co",
    "address": "crn station &, Reserve St, Penrith NSW 2750, Australia",
    "suburb": "Reserve St",
    "state": "NSW",
    "rating": 5,
    "reviews": 4,
    "lat": -33.7557561,
    "lng": 150.6928508,
    "place_id": "ChIJQVEjDJCFEmsRpu3WUYQMqIQ",
    "maps_url": "https://www.google.com/maps/place/?q=place_id:ChIJQVEjDJCFEmsRpu3WUYQMqIQ"
  },
  {
    "name": "Steves termite & pest control Penrith",
    "address": "10 Fawkener Pl, Werrington County NSW 2747, Australia",
    "suburb": "Werrington County NSW 2747",
    "state": "NSW",
    "rating": 5,
    "reviews": 1,
    "lat": -33.7451671,
    "lng": 150.7445257,
    "place_id": "ChIJf0s9xdi2cYoRQDENDsfcBp8",
    "maps_url": "https://www.google.com/maps/place/?q=place_id:ChIJf0s9xdi2cYoRQDENDsfcBp8"
  },
  {
    "name": "Critter Busters",
    "address": "9 Gemalong Pl, Glenmore Park NSW 2745, Australia",
    "suburb": "Glenmore Park NSW 2745",
    "state": "NSW",
    "rating": 5,
    "reviews": 22,
    "lat": -33.8007033,
    "lng": 150.6905848,
    "place_id": "ChIJ8VNWa9mOEmsRhYnIHwFAouI",
    "maps_url": "https://www.google.com/maps/place/?q=place_id:ChIJ8VNWa9mOEmsRhYnIHwFAouI"
  },
  {
    "name": "Sydwide Pest Control",
    "address": "15 Dagmar Cres, Blacktown NSW 2148, Australia",
    "suburb": "Blacktown NSW 2148",
    "state": "NSW",
    "rating": 5,
    "reviews": 77,
    "lat": -33.7768473,
    "lng": 150.8968226,
    "place_id": "ChIJsbRGkQlWwk8RsTCb-rsIeR0",
    "maps_url": "https://www.google.com/maps/place/?q=place_id:ChIJsbRGkQlWwk8RsTCb-rsIeR0"
  },
  {
    "name": "Buzz Off Termites & Pest Management Sydney",
    "address": "155 Walters Rd, Blacktown NSW 2148, Australia",
    "suburb": "Blacktown NSW 2148",
    "state": "NSW",
    "rating": 4.9,
    "reviews": 262,
    "lat": -33.7861332,
    "lng": 150.8928495,
    "place_id": "ChIJyTVbz_-YEmsRCzesn0NCoGc",
    "maps_url": "https://www.google.com/maps/place/?q=place_id:ChIJyTVbz_-YEmsRCzesn0NCoGc"
  },
  {
    "name": "Wilson's Pest Control Sydney",
    "address": "252 Bungarribee Rd, Blacktown NSW 2148, Australia",
    "suburb": "Blacktown NSW 2148",
    "state": "NSW",
    "rating": 4.9,
    "reviews": 150,
    "lat": -33.7758687,
    "lng": 150.8933301,
    "place_id": "ChIJ_U1eG6WZEmsRqT5fYe_iFOI",
    "maps_url": "https://www.google.com/maps/place/?q=place_id:ChIJ_U1eG6WZEmsRqT5fYe_iFOI"
  },
  {
    "name": "SS Pest Control Blacktown",
    "address": "Lvl 3/81 Flushcombe Rd, Blacktown NSW 2148, Australia",
    "suburb": "Blacktown NSW 2148",
    "state": "NSW",
    "rating": 4.8,
    "reviews": 113,
    "lat": -33.7727476,
    "lng": 150.9077911,
    "place_id": "ChIJDzIp1MOZEmsRyy5rNUTozWU",
    "maps_url": "https://www.google.com/maps/place/?q=place_id:ChIJDzIp1MOZEmsRyy5rNUTozWU"
  },
  {
    "name": "Pest Control First - Pest Inspection | Termite Inspection | End of Lease Pest Control",
    "address": "14 Burnie St, Blacktown NSW 2148, Australia",
    "suburb": "Blacktown NSW 2148",
    "state": "NSW",
    "rating": 5,
    "reviews": 70,
    "lat": -33.7750376,
    "lng": 150.9209798,
    "place_id": "ChIJ3Q9GMcHyJK8RW1C-haFMMaQ",
    "maps_url": "https://www.google.com/maps/place/?q=place_id:ChIJ3Q9GMcHyJK8RW1C-haFMMaQ"
  },
  {
    "name": "Pest Control Services NSW",
    "address": "Unit 2/4 O'Brien St, Mount Druitt NSW 2770, Australia",
    "suburb": "Mount Druitt NSW 2770",
    "state": "NSW",
    "rating": 5,
    "reviews": 157,
    "lat": -33.7585269,
    "lng": 150.8187821,
    "place_id": "ChIJY65yS8ybEmsRCgRKRj7Fna4",
    "maps_url": "https://www.google.com/maps/place/?q=place_id:ChIJY65yS8ybEmsRCgRKRj7Fna4"
  },
  {
    "name": "Total Pest Management Sydney Pty Ltd",
    "address": "3/14 Bessemer St, Blacktown NSW 2148, Australia",
    "suburb": "Blacktown NSW 2148",
    "state": "NSW",
    "rating": 4.7,
    "reviews": 53,
    "lat": -33.7565079,
    "lng": 150.907015,
    "place_id": "ChIJ9RQg8R2ZEmsRpgIHojl1xwo",
    "maps_url": "https://www.google.com/maps/place/?q=place_id:ChIJ9RQg8R2ZEmsRpgIHojl1xwo"
  },
  {
    "name": "Mala Pest Control",
    "address": "75 Buckley Ave, Blacktown NSW 2148, Australia",
    "suburb": "Blacktown NSW 2148",
    "state": "NSW",
    "rating": 5,
    "reviews": 26,
    "lat": -33.75723010000001,
    "lng": 150.9010473,
    "place_id": "ChIJG2B7zFW036oRIwSNXbHiVs0",
    "maps_url": "https://www.google.com/maps/place/?q=place_id:ChIJG2B7zFW036oRIwSNXbHiVs0"
  },
  {
    "name": "Safeguard Pest Management",
    "address": "6 Wagner Pl, Seven Hills NSW 2147, Australia",
    "suburb": "Seven Hills NSW 2147",
    "state": "NSW",
    "rating": 4.9,
    "reviews": 41,
    "lat": -33.7619225,
    "lng": 150.9526473,
    "place_id": "ChIJk-pV772ZEmsRDp9hM6mDdak",
    "maps_url": "https://www.google.com/maps/place/?q=place_id:ChIJk-pV772ZEmsRDp9hM6mDdak"
  },
  {
    "name": "Verispect Pest & Termite Control",
    "address": "61 Tallagandra Dr, Quakers Hill NSW 2763, Australia",
    "suburb": "Quakers Hill NSW 2763",
    "state": "NSW",
    "rating": 5,
    "reviews": 20,
    "lat": -33.741798,
    "lng": 150.8766009,
    "place_id": "ChIJuV18Kpynt6URTnTf_nXsDzA",
    "maps_url": "https://www.google.com/maps/place/?q=place_id:ChIJuV18Kpynt6URTnTf_nXsDzA"
  },
  {
    "name": "Pestable Pest Control - Pest Control Sydney",
    "address": "99 Bellevue Ave, Georges Hall NSW 2198, Australia",
    "suburb": "Georges Hall NSW 2198",
    "state": "NSW",
    "rating": 4.9,
    "reviews": 216,
    "lat": -33.9111197,
    "lng": 150.9941755,
    "place_id": "ChIJibMNYVy9EmsRVgMwQnaG7Zk",
    "maps_url": "https://www.google.com/maps/place/?q=place_id:ChIJibMNYVy9EmsRVgMwQnaG7Zk"
  },
  {
    "name": "Wham Bam Pest Control Sydney",
    "address": "157 Lucas Rd, Lalor Park NSW 2147, Australia",
    "suburb": "Lalor Park NSW 2147",
    "state": "NSW",
    "rating": 4.9,
    "reviews": 27,
    "lat": -33.7669647,
    "lng": 150.9255754,
    "place_id": "ChIJvws1vF6ZEmsRgWt4xG1Ox24",
    "maps_url": "https://www.google.com/maps/place/?q=place_id:ChIJvws1vF6ZEmsRgWt4xG1Ox24"
  },
  {
    "name": "OCG Pest Control Liverpool⭐",
    "address": "12 Hoxton Park Rd, Liverpool NSW 2170, Australia",
    "suburb": "Liverpool NSW 2170",
    "state": "NSW",
    "rating": 5,
    "reviews": 52,
    "lat": -33.9288918,
    "lng": 150.9162583,
    "place_id": "ChIJ7UQTobqVEmsRkRIVYHiTnR0",
    "maps_url": "https://www.google.com/maps/place/?q=place_id:ChIJ7UQTobqVEmsRkRIVYHiTnR0"
  },
  {
    "name": "Bug Relief Pest Control",
    "address": "1 Riverpark Dr, Liverpool NSW 2170, Australia",
    "suburb": "Liverpool NSW 2170",
    "state": "NSW",
    "rating": 5,
    "reviews": 490,
    "lat": -33.930525,
    "lng": 150.9246891,
    "place_id": "ChIJgbE2MbtU864ROUUpXRFfT_U",
    "maps_url": "https://www.google.com/maps/place/?q=place_id:ChIJgbE2MbtU864ROUUpXRFfT_U"
  },
  {
    "name": "Multipro Pest Management",
    "address": "c/o Wotso Level 1, 244 Macquarie St, Liverpool NSW 2170, Australia",
    "suburb": "244 Macquarie St",
    "state": "NSW",
    "rating": 4.9,
    "reviews": 171,
    "lat": -33.9235862,
    "lng": 150.9238746,
    "place_id": "ChIJFQThDe5MlSARQ5ZyLMBBhjQ",
    "maps_url": "https://www.google.com/maps/place/?q=place_id:ChIJFQThDe5MlSARQ5ZyLMBBhjQ"
  },
  {
    "name": "Sky pest control",
    "address": "85A, Lurnea NSW 2170, Australia",
    "suburb": "Lurnea NSW 2170",
    "state": "NSW",
    "rating": 5,
    "reviews": 13,
    "lat": -33.9326,
    "lng": 150.900826,
    "place_id": "ChIJ1aajH4OVEmsRHy_ge2myV74",
    "maps_url": "https://www.google.com/maps/place/?q=place_id:ChIJ1aajH4OVEmsRHy_ge2myV74"
  },
  {
    "name": "OCG Pest Control Termite Inspections and Pest Control",
    "address": "84 Bergin Cct, Leppington NSW 2179, Australia",
    "suburb": "Leppington NSW 2179",
    "state": "NSW",
    "rating": 5,
    "reviews": 101,
    "lat": -33.9883467,
    "lng": 150.7998072,
    "place_id": "ChIJJSLER9_hb64RFixputWSGPI",
    "maps_url": "https://www.google.com/maps/place/?q=place_id:ChIJJSLER9_hb64RFixputWSGPI"
  },
  {
    "name": "Bug Shield",
    "address": "95 Elizabeth Dr, Liverpool NSW 2170, Australia",
    "suburb": "Liverpool NSW 2170",
    "state": "NSW",
    "rating": 5,
    "reviews": 1,
    "lat": -33.9180185,
    "lng": 150.9158841,
    "place_id": "ChIJq6quTbaVEmsRpcp4dRuDFPg",
    "maps_url": "https://www.google.com/maps/place/?q=place_id:ChIJq6quTbaVEmsRpcp4dRuDFPg"
  },
  {
    "name": "On Call Pest Control",
    "address": "215/219 George St, Liverpool NSW 2170, Australia",
    "suburb": "Liverpool NSW 2170",
    "state": "NSW",
    "rating": 5,
    "reviews": 18,
    "lat": -33.9232302,
    "lng": 150.92452,
    "place_id": "ChIJ05oOUdiVEmsRYgQApxVMYdM",
    "maps_url": "https://www.google.com/maps/place/?q=place_id:ChIJ05oOUdiVEmsRYgQApxVMYdM"
  },
  {
    "name": "Raj Pest Solutions",
    "address": "32/8-10 Lachlan St, Liverpool NSW 2170, Australia",
    "suburb": "Liverpool NSW 2170",
    "state": "NSW",
    "rating": 5,
    "reviews": 1,
    "lat": -33.916148,
    "lng": 150.926848,
    "place_id": "ChIJje4jyTuVEmsR09ibpEyiFVw",
    "maps_url": "https://www.google.com/maps/place/?q=place_id:ChIJje4jyTuVEmsR09ibpEyiFVw"
  },
  {
    "name": "Active Pest Control Management - Pest & Termite Control",
    "address": "24 Thirroul Cct, Prestons NSW 2170, Australia",
    "suburb": "Prestons NSW 2170",
    "state": "NSW",
    "rating": 4.9,
    "reviews": 110,
    "lat": -33.9437231,
    "lng": 150.8644732,
    "place_id": "ChIJcaYafZ-UEmsRTXleWMWHAAI",
    "maps_url": "https://www.google.com/maps/place/?q=place_id:ChIJcaYafZ-UEmsRTXleWMWHAAI"
  },
  {
    "name": "OCG Pest Control Campbelltown",
    "address": "116 Waminda Ave, Campbelltown NSW 2560, Australia",
    "suburb": "Campbelltown NSW 2560",
    "state": "NSW",
    "rating": 5,
    "reviews": 224,
    "lat": -34.0734231,
    "lng": 150.8286604,
    "place_id": "ChIJIfxeEWWU2gcRXOJJ8yj-NbM",
    "maps_url": "https://www.google.com/maps/place/?q=place_id:ChIJIfxeEWWU2gcRXOJJ8yj-NbM"
  },
  {
    "name": "🥇PEST-FREE PEST&TERMITE CONTROL🥇",
    "address": "Sirius St, Campbelltown NSW 2560, Australia",
    "suburb": "Campbelltown NSW 2560",
    "state": "NSW",
    "rating": 5,
    "reviews": 340,
    "lat": -34.065555,
    "lng": 150.84774,
    "place_id": "ChIJ-ZhpmzfvEmsRfgYy43IwXPY",
    "maps_url": "https://www.google.com/maps/place/?q=place_id:ChIJ-ZhpmzfvEmsRfgYy43IwXPY"
  },
  {
    "name": "Pest-Proof Solutions",
    "address": "Donalbain Cct, Campbelltown NSW 2560, Australia",
    "suburb": "Campbelltown NSW 2560",
    "state": "NSW",
    "rating": 5,
    "reviews": 84,
    "lat": -34.1019084,
    "lng": 150.7825932,
    "place_id": "ChIJJQTWH1plkCMRrTHiduLCka0",
    "maps_url": "https://www.google.com/maps/place/?q=place_id:ChIJJQTWH1plkCMRrTHiduLCka0"
  },
  {
    "name": "SS Pest Control Campbelltown",
    "address": "Shop L080 Macarthur Square, 200 Gilchrist Dr, Campbelltown NSW 2560, Australia",
    "suburb": "200 Gilchrist Dr",
    "state": "NSW",
    "rating": 4.9,
    "reviews": 144,
    "lat": -34.0734233,
    "lng": 150.7970552,
    "place_id": "ChIJwS3yoP7vEmsRCNbrpSBe5c0",
    "maps_url": "https://www.google.com/maps/place/?q=place_id:ChIJwS3yoP7vEmsRCNbrpSBe5c0"
  },
  {
    "name": "Macarthur Termite Care & Pest Control",
    "address": "Mackillop Cres, St Helens Park NSW 2560, Australia",
    "suburb": "St Helens Park NSW 2560",
    "state": "NSW",
    "rating": 5,
    "reviews": 119,
    "lat": -34.1152465,
    "lng": 150.7993686,
    "place_id": "ChIJH2NnjYwRv0gRNFFEJua_ijM",
    "maps_url": "https://www.google.com/maps/place/?q=place_id:ChIJH2NnjYwRv0gRNFFEJua_ijM"
  },
  {
    "name": "🥇OCG Solutions Pest Control🥇",
    "address": "27 Dakota Pl, Raby NSW 2566, Australia",
    "suburb": "Raby NSW 2566",
    "state": "NSW",
    "rating": 5,
    "reviews": 177,
    "lat": -34.0145269,
    "lng": 150.8068597,
    "place_id": "ChIJezxUevKbEmsRXGhrV4m-WaY",
    "maps_url": "https://www.google.com/maps/place/?q=place_id:ChIJezxUevKbEmsRXGhrV4m-WaY"
  },
  {
    "name": "Macarthur Pest Solution",
    "address": "L080/200 Gilchrist Dr, Campbelltown NSW 2560, Australia",
    "suburb": "Campbelltown NSW 2560",
    "state": "NSW",
    "rating": 5,
    "reviews": 32,
    "lat": -34.0754132,
    "lng": 150.7973127,
    "place_id": "ChIJibugLt_7EmsRa7opxgMa0DE",
    "maps_url": "https://www.google.com/maps/place/?q=place_id:ChIJibugLt_7EmsRa7opxgMa0DE"
  },
  {
    "name": "Terminate Pest Control",
    "address": "Halifax Way, Gledswood Hills NSW 2557, Australia",
    "suburb": "Gledswood Hills NSW 2557",
    "state": "NSW",
    "rating": 4.9,
    "reviews": 78,
    "lat": -34.0163931,
    "lng": 150.7652017,
    "place_id": "ChIJ4bhGspTzEmsR5LO48QEp804",
    "maps_url": "https://www.google.com/maps/place/?q=place_id:ChIJ4bhGspTzEmsR5LO48QEp804"
  },
  {
    "name": "Termmighty Pest Control & Termite Services",
    "address": "Penola St, Currans Hill NSW 2567, Australia",
    "suburb": "Currans Hill NSW 2567",
    "state": "NSW",
    "rating": 5,
    "reviews": 29,
    "lat": -34.0371404,
    "lng": 150.7756965,
    "place_id": "ChIJqTdDJnbvEmsR7Tu5kNLho4o",
    "maps_url": "https://www.google.com/maps/place/?q=place_id:ChIJqTdDJnbvEmsR7Tu5kNLho4o"
  },
  {
    "name": "D.R.Falls Pest Control",
    "address": "8 Elliotdale Cl, Elderslie NSW 2570, Australia",
    "suburb": "Elderslie NSW 2570",
    "state": "NSW",
    "rating": 5,
    "reviews": 109,
    "lat": -34.062863,
    "lng": 150.717441,
    "place_id": "ChIJdVS1lvbwEmsR5YkIAMCYB-Y",
    "maps_url": "https://www.google.com/maps/place/?q=place_id:ChIJdVS1lvbwEmsR5YkIAMCYB-Y"
  },
  {
    "name": "Certified Pest Control",
    "address": "39b Nash Pl, Currans Hill NSW 2567, Australia",
    "suburb": "Currans Hill NSW 2567",
    "state": "NSW",
    "rating": 5,
    "reviews": 75,
    "lat": -34.0488042,
    "lng": 150.7657382,
    "place_id": "ChIJYd-jeNTxEmsRtL89e1JwC2E",
    "maps_url": "https://www.google.com/maps/place/?q=place_id:ChIJYd-jeNTxEmsRtL89e1JwC2E"
  },
  {
    "name": "Campbelltown Pest Control",
    "address": "170 Waminda Ave, Campbelltown NSW 2560, Australia",
    "suburb": "Campbelltown NSW 2560",
    "state": "NSW",
    "rating": null,
    "reviews": 0,
    "lat": -34.0757548,
    "lng": 150.8243,
    "place_id": "ChIJ9-RfTwrvEmsRhfjQBk3N-I0",
    "maps_url": "https://www.google.com/maps/place/?q=place_id:ChIJ9-RfTwrvEmsRhfjQBk3N-I0"
  },
  {
    "name": "Greater Sydney Pest Control Campbelltown",
    "address": "49 Stowe Ave, Campbelltown NSW 2560, Australia",
    "suburb": "Campbelltown NSW 2560",
    "state": "NSW",
    "rating": null,
    "reviews": 0,
    "lat": -34.0747037,
    "lng": 150.7940079,
    "place_id": "ChIJsxHEb5TvEmsRmQYZZPDrQI8",
    "maps_url": "https://www.google.com/maps/place/?q=place_id:ChIJsxHEb5TvEmsRmQYZZPDrQI8"
  },
  {
    "name": "Active Pest Control Management",
    "address": "36 Loveday St, Oran Park NSW 2570, Australia",
    "suburb": "Oran Park NSW 2570",
    "state": "NSW",
    "rating": 4.9,
    "reviews": 220,
    "lat": -34.0112899,
    "lng": 150.7413858,
    "place_id": "ChIJXXtKk3HzEmsRJNrgcAXapsM",
    "maps_url": "https://www.google.com/maps/place/?q=place_id:ChIJXXtKk3HzEmsRJNrgcAXapsM"
  },
  {
    "name": "Bob Pest Control",
    "address": "28/33-35 Sir Joseph Banks St, Bankstown NSW 2200, Australia",
    "suburb": "Bankstown NSW 2200",
    "state": "NSW",
    "rating": 5,
    "reviews": 26,
    "lat": -33.9114842,
    "lng": 151.039628,
    "place_id": "ChIJ1cggLxmZIkcR5ygkH-6sZfU",
    "maps_url": "https://www.google.com/maps/place/?q=place_id:ChIJ1cggLxmZIkcR5ygkH-6sZfU"
  },
  {
    "name": "Combat Pest Management Pty Ltd | Pest Control Services in Sydney",
    "address": "suite 6, level 1/402-410 Chapel Rd, Bankstown NSW 2200, Australia",
    "suburb": "level 1/402-410 Chapel Rd",
    "state": "NSW",
    "rating": 4.9,
    "reviews": 350,
    "lat": -33.915063,
    "lng": 151.0335811,
    "place_id": "ChIJocVsmgO9EmsRALolWJBFKlc",
    "maps_url": "https://www.google.com/maps/place/?q=place_id:ChIJocVsmgO9EmsRALolWJBFKlc"
  },
  {
    "name": "Integrated Pest Control & Maintenance",
    "address": "18/22 Stanley St, Bankstown NSW 2200, Australia",
    "suburb": "Bankstown NSW 2200",
    "state": "NSW",
    "rating": 4.9,
    "reviews": 48,
    "lat": -33.92113459999999,
    "lng": 151.0370617,
    "place_id": "ChIJ30GwRWO7EmsRkEwBNdJq7WM",
    "maps_url": "https://www.google.com/maps/place/?q=place_id:ChIJ30GwRWO7EmsRkEwBNdJq7WM"
  },
  {
    "name": "Joe's Pest & Termite Solutions",
    "address": "59-61 Brancourt Ave, Yagoona NSW 2199, Australia",
    "suburb": "Yagoona NSW 2199",
    "state": "NSW",
    "rating": 5,
    "reviews": 350,
    "lat": -33.9125163,
    "lng": 151.0284121,
    "place_id": "ChIJp398O069EmsRqxq9HNrcl3Q",
    "maps_url": "https://www.google.com/maps/place/?q=place_id:ChIJp398O069EmsRqxq9HNrcl3Q"
  },
  {
    "name": "SS Pest Control Bankstown",
    "address": "25 Restwell St, Bankstown NSW 2200, Australia",
    "suburb": "Bankstown NSW 2200",
    "state": "NSW",
    "rating": 4.8,
    "reviews": 263,
    "lat": -33.9197463,
    "lng": 151.0346609,
    "place_id": "ChIJVVXFy7a9EmsRf8ldBUEyhdM",
    "maps_url": "https://www.google.com/maps/place/?q=place_id:ChIJVVXFy7a9EmsRf8ldBUEyhdM"
  },
  {
    "name": "Elegance Pest Control",
    "address": "10 Wilbur St, Greenacre NSW 2190, Australia",
    "suburb": "Greenacre NSW 2190",
    "state": "NSW",
    "rating": 5,
    "reviews": 217,
    "lat": -33.9098778,
    "lng": 151.0737246,
    "place_id": "ChIJL3ky9c-7EmsReZ88mWf0FFs",
    "maps_url": "https://www.google.com/maps/place/?q=place_id:ChIJL3ky9c-7EmsReZ88mWf0FFs"
  },
  {
    "name": "All Sydney Pest Control",
    "address": "Edgar St, Condell Park NSW 2200, Australia",
    "suburb": "Condell Park NSW 2200",
    "state": "NSW",
    "rating": 5,
    "reviews": 2,
    "lat": -33.925506,
    "lng": 151.0125627,
    "place_id": "ChIJG75n06u_EmsRgf6NVBGQCsY",
    "maps_url": "https://www.google.com/maps/place/?q=place_id:ChIJG75n06u_EmsRgf6NVBGQCsY"
  },
  {
    "name": "louis pest control",
    "address": "4 Macauley Ave, Bankstown NSW 2200, Australia",
    "suburb": "Bankstown NSW 2200",
    "state": "NSW",
    "rating": 5,
    "reviews": 5,
    "lat": -33.9251317,
    "lng": 151.0370864,
    "place_id": "ChIJ7-0guvC9EmsRYu5KrInbW8E",
    "maps_url": "https://www.google.com/maps/place/?q=place_id:ChIJ7-0guvC9EmsRYu5KrInbW8E"
  },
  {
    "name": "Falcon Pest Control",
    "address": "16 Kathleen St, Wiley Park NSW 2195, Australia",
    "suburb": "Wiley Park NSW 2195",
    "state": "NSW",
    "rating": 5,
    "reviews": 39,
    "lat": -33.9230661,
    "lng": 151.0725417,
    "place_id": "ChIJVVWJWcK7EmsRgfOL19XL8cI",
    "maps_url": "https://www.google.com/maps/place/?q=place_id:ChIJVVWJWcK7EmsRgfOL19XL8cI"
  },
  {
    "name": "Bitter Pest Control",
    "address": "Greenwood Ave, Bankstown NSW 2200, Australia",
    "suburb": "Bankstown NSW 2200",
    "state": "NSW",
    "rating": 5,
    "reviews": 5,
    "lat": -33.919029,
    "lng": 151.0292546,
    "place_id": "ChIJcz1eOY69EmsRu6ncG1V5ZrY",
    "maps_url": "https://www.google.com/maps/place/?q=place_id:ChIJcz1eOY69EmsRu6ncG1V5ZrY"
  },
  {
    "name": "PEST44 COMMERCIAL PEST CONTROL SYDNEY",
    "address": "Unit E102/2 Rowe Dr, Potts Hill NSW 2143, Australia",
    "suburb": "Potts Hill NSW 2143",
    "state": "NSW",
    "rating": 5,
    "reviews": 12,
    "lat": -33.896809,
    "lng": 151.0277574,
    "place_id": "ChIJk3Fks2pcYwwRgS2EO1ghoSo",
    "maps_url": "https://www.google.com/maps/place/?q=place_id:ChIJk3Fks2pcYwwRgS2EO1ghoSo"
  },
  {
    "name": "Hysteam Pest Management",
    "address": "46/46-48 Restwell St, Bankstown NSW 2200, Australia",
    "suburb": "Bankstown NSW 2200",
    "state": "NSW",
    "rating": 5,
    "reviews": 12,
    "lat": -33.920345,
    "lng": 151.0351081,
    "place_id": "ChIJXeyJI9K9EmsRowIYtY7G7T4",
    "maps_url": "https://www.google.com/maps/place/?q=place_id:ChIJXeyJI9K9EmsRowIYtY7G7T4"
  },
  {
    "name": "Safe pest control sydney",
    "address": "38 Murdoch St, Turramurra NSW 2074, Australia",
    "suburb": "Turramurra NSW 2074",
    "state": "NSW",
    "rating": 5,
    "reviews": 231,
    "lat": -33.7241864,
    "lng": 151.1464869,
    "place_id": "ChIJ5d1ztQ6pEmsRmUQOksyvjPY",
    "maps_url": "https://www.google.com/maps/place/?q=place_id:ChIJ5d1ztQ6pEmsRmUQOksyvjPY"
  },
  {
    "name": "Masters Pest Control Sydney",
    "address": "Suite 1A Level 2/802 Pacific Hwy, Gordon NSW 2072, Australia",
    "suburb": "Gordon NSW 2072",
    "state": "NSW",
    "rating": 4.9,
    "reviews": 575,
    "lat": -33.7545347,
    "lng": 151.1515738,
    "place_id": "ChIJ_7u7_tupEmsRK_XNWlrqzAU",
    "maps_url": "https://www.google.com/maps/place/?q=place_id:ChIJ_7u7_tupEmsRK_XNWlrqzAU"
  },
  {
    "name": "Anytime Pest Control Lindfield",
    "address": "8A Ortona Rd, Lindfield NSW 2070, Australia",
    "suburb": "Lindfield NSW 2070",
    "state": "NSW",
    "rating": 5,
    "reviews": 1,
    "lat": -33.7834672,
    "lng": 151.1686881,
    "place_id": "ChIJL96zbACpEmsRxqRjybogZrg",
    "maps_url": "https://www.google.com/maps/place/?q=place_id:ChIJL96zbACpEmsRxqRjybogZrg"
  },
  {
    "name": "Pest Blitz",
    "address": "62/66 Grosvenor St, Neutral Bay NSW 2089, Australia",
    "suburb": "Neutral Bay NSW 2089",
    "state": "NSW",
    "rating": 5,
    "reviews": 168,
    "lat": -33.829863,
    "lng": 151.222604,
    "place_id": "ChIJB5tzyKKuEmsRVwqERqerWhA",
    "maps_url": "https://www.google.com/maps/place/?q=place_id:ChIJB5tzyKKuEmsRVwqERqerWhA"
  },
  {
    "name": "Pest2Kill",
    "address": "Level1/1390 Pacific Hwy, Turramurra NSW 2074, Australia",
    "suburb": "Turramurra NSW 2074",
    "state": "NSW",
    "rating": 5,
    "reviews": 129,
    "lat": -33.7334462,
    "lng": 151.1269891,
    "place_id": "ChIJLQlBqa-nEmsRsDrLIyp_doo",
    "maps_url": "https://www.google.com/maps/place/?q=place_id:ChIJLQlBqa-nEmsRsDrLIyp_doo"
  },
  {
    "name": "SRM Termite & Pest Control",
    "address": "59 Edgeworth David Ave, Waitara NSW 2077, Australia",
    "suburb": "Waitara NSW 2077",
    "state": "NSW",
    "rating": 4.9,
    "reviews": 212,
    "lat": -33.7065406,
    "lng": 151.1090776,
    "place_id": "ChIJY9c6TISnEmsRUTjlC4mSrao",
    "maps_url": "https://www.google.com/maps/place/?q=place_id:ChIJY9c6TISnEmsRUTjlC4mSrao"
  },
  {
    "name": "Rentokil Pest Control Sydney",
    "address": "Unit A1, 3/29 Birnie Ave, Lidcombe NSW 2141, Australia",
    "suburb": "3/29 Birnie Ave",
    "state": "NSW",
    "rating": 4.8,
    "reviews": 1119,
    "lat": -33.8558985,
    "lng": 151.060563,
    "place_id": "ChIJgQ6qoDKpEmsR4Iqfft1ok3s",
    "maps_url": "https://www.google.com/maps/place/?q=place_id:ChIJgQ6qoDKpEmsR4Iqfft1ok3s"
  },
  {
    "name": "ASL Pest Control Sydney",
    "address": "47 Cecil St, Ashfield NSW 2131, Australia",
    "suburb": "Ashfield NSW 2131",
    "state": "NSW",
    "rating": 5,
    "reviews": 138,
    "lat": -33.8843437,
    "lng": 151.1322587,
    "place_id": "ChIJz6A9qY67EmsRyUI4Tjmvn9M",
    "maps_url": "https://www.google.com/maps/place/?q=place_id:ChIJz6A9qY67EmsRyUI4Tjmvn9M"
  },
  {
    "name": "Inspect and Prevent Pest Control",
    "address": "10 Frederick St, Hornsby NSW 2077, Australia",
    "suburb": "Hornsby NSW 2077",
    "state": "NSW",
    "rating": 5,
    "reviews": 56,
    "lat": -33.7052442,
    "lng": 151.0931854,
    "place_id": "ChIJ1wihGk2nEmsRoZqRARBzcJI",
    "maps_url": "https://www.google.com/maps/place/?q=place_id:ChIJ1wihGk2nEmsRoZqRARBzcJI"
  },
  {
    "name": "Micropest Pest Control Sydney",
    "address": "111 Yallambee Rd, Berowra NSW 2081, Australia",
    "suburb": "Berowra NSW 2081",
    "state": "NSW",
    "rating": 5,
    "reviews": 46,
    "lat": -33.6286216,
    "lng": 151.1360196,
    "place_id": "ChIJS8K56v5ZDWsRFnGeO_M7V3Y",
    "maps_url": "https://www.google.com/maps/place/?q=place_id:ChIJS8K56v5ZDWsRFnGeO_M7V3Y"
  },
  {
    "name": "Inspect and prevent pest control",
    "address": "935 Pacific Hwy, Berowra NSW 2081, Australia",
    "suburb": "Berowra NSW 2081",
    "state": "NSW",
    "rating": 5,
    "reviews": 10,
    "lat": -33.6297314,
    "lng": 151.1478519,
    "place_id": "ChIJe8RazPOnEmsREq5wTjAZOyU",
    "maps_url": "https://www.google.com/maps/place/?q=place_id:ChIJe8RazPOnEmsREq5wTjAZOyU"
  },
  {
    "name": "Systems Pest Management Pty Ltd",
    "address": "3/2 Pioneer Ave, Thornleigh NSW 2120, Australia",
    "suburb": "Thornleigh NSW 2120",
    "state": "NSW",
    "rating": 4.8,
    "reviews": 48,
    "lat": -33.7248303,
    "lng": 151.0838201,
    "place_id": "ChIJlTxpA1ynEmsRfvfvG2m5XE8",
    "maps_url": "https://www.google.com/maps/place/?q=place_id:ChIJlTxpA1ynEmsRfvfvG2m5XE8"
  },
  {
    "name": "Apex Pest",
    "address": "18 Salisbury Rd, Asquith NSW 2077, Australia",
    "suburb": "Asquith NSW 2077",
    "state": "NSW",
    "rating": 4.5,
    "reviews": 13,
    "lat": -33.6955901,
    "lng": 151.1118762,
    "place_id": "ChIJL5W2Z7pZDWsRgpcY-ZDxuaQ",
    "maps_url": "https://www.google.com/maps/place/?q=place_id:ChIJL5W2Z7pZDWsRgpcY-ZDxuaQ"
  },
  {
    "name": "Home Termite Control Pty Ltd",
    "address": "107 Browns Rd, Wahroonga NSW 2076, Australia",
    "suburb": "Wahroonga NSW 2076",
    "state": "NSW",
    "rating": 5,
    "reviews": 37,
    "lat": -33.7343381,
    "lng": 151.0913319,
    "place_id": "ChIJHRC4UQCnEmsRM3wYJl4ki0w",
    "maps_url": "https://www.google.com/maps/place/?q=place_id:ChIJHRC4UQCnEmsRM3wYJl4ki0w"
  },
  {
    "name": "Access Pest Control",
    "address": "139a Galston Rd, Hornsby Heights NSW 2077, Australia",
    "suburb": "Hornsby Heights NSW 2077",
    "state": "NSW",
    "rating": 1,
    "reviews": 2,
    "lat": -33.6762206,
    "lng": 151.0973379,
    "place_id": "ChIJHR64q9dwZ0URgPCEZ4kxTg4",
    "maps_url": "https://www.google.com/maps/place/?q=place_id:ChIJHR64q9dwZ0URgPCEZ4kxTg4"
  },
  {
    "name": "Ku-Ring-Gai Pest Control",
    "address": "5 Greenview Parade, Berowra NSW 2081, Australia",
    "suburb": "Berowra NSW 2081",
    "state": "NSW",
    "rating": 5,
    "reviews": 4,
    "lat": -33.631938,
    "lng": 151.146745,
    "place_id": "ChIJ3-xE8FNXDWsRAYXaG0AjJQA",
    "maps_url": "https://www.google.com/maps/place/?q=place_id:ChIJ3-xE8FNXDWsRAYXaG0AjJQA"
  },
  {
    "name": "Roaming Pest and Building",
    "address": "77 Somerville Rd, Hornsby Heights NSW 2077, Australia",
    "suburb": "Hornsby Heights NSW 2077",
    "state": "NSW",
    "rating": 4.4,
    "reviews": 7,
    "lat": -33.665941,
    "lng": 151.1006595,
    "place_id": "ChIJ31gqy7pZDWsRYO4BLwrE970",
    "maps_url": "https://www.google.com/maps/place/?q=place_id:ChIJ31gqy7pZDWsRYO4BLwrE970"
  },
  {
    "name": "Everest Pest Control Pty Ltd",
    "address": "1A Mildred Ave, Manly Vale NSW 2093, Australia",
    "suburb": "Manly Vale NSW 2093",
    "state": "NSW",
    "rating": 5,
    "reviews": 94,
    "lat": -33.7853636,
    "lng": 151.2614666,
    "place_id": "ChIJAbef0w-rEmsRI87jcIENi0Y",
    "maps_url": "https://www.google.com/maps/place/?q=place_id:ChIJAbef0w-rEmsRI87jcIENi0Y"
  },
  {
    "name": "Petrie's Pest Control",
    "address": "23 Austral Ave, North Manly NSW 2100, Australia",
    "suburb": "North Manly NSW 2100",
    "state": "NSW",
    "rating": 5,
    "reviews": 60,
    "lat": -33.7740597,
    "lng": 151.27241,
    "place_id": "ChIJq8DhzparEmsRFYd7DM883GE",
    "maps_url": "https://www.google.com/maps/place/?q=place_id:ChIJq8DhzparEmsRFYd7DM883GE"
  },
  {
    "name": "Beaches Pest Control",
    "address": "25 William St, North Manly NSW 2100, Australia",
    "suburb": "North Manly NSW 2100",
    "state": "NSW",
    "rating": 5,
    "reviews": 6,
    "lat": -33.7691739,
    "lng": 151.270021,
    "place_id": "ChIJVVWZGVuqEmsRlCBYIYNKO8c",
    "maps_url": "https://www.google.com/maps/place/?q=place_id:ChIJVVWZGVuqEmsRlCBYIYNKO8c"
  },
  {
    "name": "Expert Pest Control",
    "address": "33 Parkes St, Manly Vale NSW 2093, Australia",
    "suburb": "Manly Vale NSW 2093",
    "state": "NSW",
    "rating": 5,
    "reviews": 3,
    "lat": -33.7852302,
    "lng": 151.2732983,
    "place_id": "ChIJkZn7c5GrEmsRCzyLV0Iyk3Q",
    "maps_url": "https://www.google.com/maps/place/?q=place_id:ChIJkZn7c5GrEmsRCzyLV0Iyk3Q"
  },
  {
    "name": "Alliance Pest Solutions",
    "address": "8 Clearview Pl, Brookvale NSW 2100, Australia",
    "suburb": "Brookvale NSW 2100",
    "state": "NSW",
    "rating": 5,
    "reviews": 198,
    "lat": -33.761891,
    "lng": 151.2616602,
    "place_id": "ChIJT7NTnAmrEmsROZjfac00-cQ",
    "maps_url": "https://www.google.com/maps/place/?q=place_id:ChIJT7NTnAmrEmsROZjfac00-cQ"
  },
  {
    "name": "Rubix Pest Management",
    "address": "27 Campbell Parade, Manly Vale NSW 2093, Australia",
    "suburb": "Manly Vale NSW 2093",
    "state": "NSW",
    "rating": 5,
    "reviews": 9,
    "lat": -33.7814631,
    "lng": 151.2707417,
    "place_id": "ChIJKx74wcaqcqkRtors2BBqX8o",
    "maps_url": "https://www.google.com/maps/place/?q=place_id:ChIJKx74wcaqcqkRtors2BBqX8o"
  },
  {
    "name": "Manly cleaning and pest control",
    "address": "Unit 6/60 Kenneth Rd, Manly Vale NSW 2095, Australia",
    "suburb": "Manly Vale NSW 2095",
    "state": "NSW",
    "rating": 5,
    "reviews": 1,
    "lat": -33.7865757,
    "lng": 151.2692898,
    "place_id": "ChIJu5rg7QerEmsRIH1AYLlIAc0",
    "maps_url": "https://www.google.com/maps/place/?q=place_id:ChIJu5rg7QerEmsRIH1AYLlIAc0"
  },
  {
    "name": "Northern Beaches Pest Management",
    "address": "3 Bennett St, Freshwater NSW 2096, Australia",
    "suburb": "Freshwater NSW 2096",
    "state": "NSW",
    "rating": 5,
    "reviews": 2,
    "lat": -33.7683373,
    "lng": 151.2807918,
    "place_id": "ChIJaSWU8fWqEmsRCRQTpxOgBjA",
    "maps_url": "https://www.google.com/maps/place/?q=place_id:ChIJaSWU8fWqEmsRCRQTpxOgBjA"
  },
  {
    "name": "Pest2Kill",
    "address": "Suite 102/50 Spit Rd, Mosman NSW 2088, Australia",
    "suburb": "Mosman NSW 2088",
    "state": "NSW",
    "rating": 5,
    "reviews": 286,
    "lat": -33.8235394,
    "lng": 151.2417746,
    "place_id": "ChIJ24CAV2WtEmsRBd4ZvbJNTD0",
    "maps_url": "https://www.google.com/maps/place/?q=place_id:ChIJ24CAV2WtEmsRBd4ZvbJNTD0"
  },
  {
    "name": "Dee Why Pest Control",
    "address": "37A Oceana St, Narraweena NSW 2099, Australia",
    "suburb": "Narraweena NSW 2099",
    "state": "NSW",
    "rating": 4.8,
    "reviews": 58,
    "lat": -33.7548654,
    "lng": 151.2761433,
    "place_id": "ChIJkbx4wH1VDWsRahiqwFN_hu0",
    "maps_url": "https://www.google.com/maps/place/?q=place_id:ChIJkbx4wH1VDWsRahiqwFN_hu0"
  },
  {
    "name": "Manly Cleaning",
    "address": "Unit 6/66 Osborne Rd, Manly NSW 2095, Australia",
    "suburb": "Manly NSW 2095",
    "state": "NSW",
    "rating": 4.9,
    "reviews": 72,
    "lat": -33.8064204,
    "lng": 151.2900084,
    "place_id": "ChIJlY9tPg2rEmsRN2ZFIQYVflc",
    "maps_url": "https://www.google.com/maps/place/?q=place_id:ChIJlY9tPg2rEmsRN2ZFIQYVflc"
  },
  {
    "name": "Northern Beaches Pestman",
    "address": "Unit 6/12 Mactier St, Narrabeen NSW 2101, Australia",
    "suburb": "Narrabeen NSW 2101",
    "state": "NSW",
    "rating": 5,
    "reviews": 6,
    "lat": -33.722464,
    "lng": 151.297183,
    "place_id": "ChIJqaiZ-xNVDWsRCBbccaiOR5s",
    "maps_url": "https://www.google.com/maps/place/?q=place_id:ChIJqaiZ-xNVDWsRCBbccaiOR5s"
  },
  {
    "name": "PestOz",
    "address": "22 New St, Bondi NSW 2030, Australia",
    "suburb": "Bondi NSW 2030",
    "state": "NSW",
    "rating": 5,
    "reviews": 156,
    "lat": -33.8887231,
    "lng": 151.2611188,
    "place_id": "ChIJL-Xg7DWtEmsRcTvb8NAEK10",
    "maps_url": "https://www.google.com/maps/place/?q=place_id:ChIJL-Xg7DWtEmsRcTvb8NAEK10"
  },
  {
    "name": "Pest2Kill",
    "address": "Suite 503/35 Grafton St, Bondi Junction NSW 2022, Australia",
    "suburb": "Bondi Junction NSW 2022",
    "state": "NSW",
    "rating": 5,
    "reviews": 626,
    "lat": -33.8904271,
    "lng": 151.2451066,
    "place_id": "ChIJtdmwL5CtEmsReOeu7WcnNvI",
    "maps_url": "https://www.google.com/maps/place/?q=place_id:ChIJtdmwL5CtEmsReOeu7WcnNvI"
  },
  {
    "name": "24 Hour Pest Control Sydney - Reliance Pest Management",
    "address": "190 Gale Rd, Maroubra NSW 2035, Australia",
    "suburb": "Maroubra NSW 2035",
    "state": "NSW",
    "rating": 4.9,
    "reviews": 50,
    "lat": -33.9394031,
    "lng": 151.2472903,
    "place_id": "ChIJJ0Bi9D-uEmsRQLeHorrYcxE",
    "maps_url": "https://www.google.com/maps/place/?q=place_id:ChIJJ0Bi9D-uEmsRQLeHorrYcxE"
  },
  {
    "name": "Insight Pest Control",
    "address": "Unit 2/143 Clovelly Rd, Randwick NSW 2031, Australia",
    "suburb": "Randwick NSW 2031",
    "state": "NSW",
    "rating": 4.8,
    "reviews": 20,
    "lat": -33.9095781,
    "lng": 151.2510542,
    "place_id": "ChIJub0e-3SyEmsR2yF1nFWLshk",
    "maps_url": "https://www.google.com/maps/place/?q=place_id:ChIJub0e-3SyEmsR2yF1nFWLshk"
  },
  {
    "name": "Sydney Pest Removal",
    "address": "12-22 Dora St, Hurstville NSW 2220, Australia",
    "suburb": "Hurstville NSW 2220",
    "state": "NSW",
    "rating": 4,
    "reviews": 8,
    "lat": -33.96399,
    "lng": 151.1007733,
    "place_id": "ChIJo8vPv1--V60RE4cKi4O9hgY",
    "maps_url": "https://www.google.com/maps/place/?q=place_id:ChIJo8vPv1--V60RE4cKi4O9hgY"
  },
  {
    "name": "Knockdown Pest Control",
    "address": "76 Chalmers St, Belmore NSW 2192, Australia",
    "suburb": "Belmore NSW 2192",
    "state": "NSW",
    "rating": 4.3,
    "reviews": 41,
    "lat": -33.9242467,
    "lng": 151.0842459,
    "place_id": "ChIJVVXRMc-7EmsRG3N4b7Bx7qI",
    "maps_url": "https://www.google.com/maps/place/?q=place_id:ChIJVVXRMc-7EmsRG3N4b7Bx7qI"
  },
  {
    "name": "Glas Pest Control",
    "address": "Bennett St, Bondi NSW 2026, Australia",
    "suburb": "Bondi NSW 2026",
    "state": "NSW",
    "rating": null,
    "reviews": 0,
    "lat": -33.8936568,
    "lng": 151.2602629,
    "place_id": "ChIJiShuuVmtEmsR5d7giwO57Gg",
    "maps_url": "https://www.google.com/maps/place/?q=place_id:ChIJiShuuVmtEmsR5d7giwO57Gg"
  },
  {
    "name": "Cyrus Pest Control",
    "address": "1/22 Cavendish St, Enmore NSW 2042, Australia",
    "suburb": "Enmore NSW 2042",
    "state": "NSW",
    "rating": 5,
    "reviews": 12,
    "lat": -33.898541,
    "lng": 151.17001,
    "place_id": "ChIJN2GytziwEmsR9QH2opIexFA",
    "maps_url": "https://www.google.com/maps/place/?q=place_id:ChIJN2GytziwEmsR9QH2opIexFA"
  },
  {
    "name": "Flick Pest Control Sydney",
    "address": "Unit 9/145 Arthur St, Homebush West NSW 2140, Australia",
    "suburb": "Homebush West NSW 2140",
    "state": "NSW",
    "rating": 4.4,
    "reviews": 1570,
    "lat": -33.8662417,
    "lng": 151.0620439,
    "place_id": "ChIJ__9z3ju7EmsRnvkMw4hoCcU",
    "maps_url": "https://www.google.com/maps/place/?q=place_id:ChIJ__9z3ju7EmsRnvkMw4hoCcU"
  },
  {
    "name": "Border Pest Control",
    "address": "Unit 5/362 Rau St, East Albury NSW 2640, Australia",
    "suburb": "East Albury NSW 2640",
    "state": "NSW",
    "rating": 4.9,
    "reviews": 127,
    "lat": -36.080219,
    "lng": 146.9282775,
    "place_id": "ChIJzQ7vBmxfIWsR802_YZ5Bt10",
    "maps_url": "https://www.google.com/maps/place/?q=place_id:ChIJzQ7vBmxfIWsR802_YZ5Bt10"
  },
  {
    "name": "Rentokil Pest Control Albury",
    "address": "869 Knight Rd, North Albury NSW 2640, Australia",
    "suburb": "North Albury NSW 2640",
    "state": "NSW",
    "rating": 4.9,
    "reviews": 91,
    "lat": -36.0651306,
    "lng": 146.9424214,
    "place_id": "ChIJnx_xHjjgI2sREI_GrMMHlRg",
    "maps_url": "https://www.google.com/maps/place/?q=place_id:ChIJnx_xHjjgI2sREI_GrMMHlRg"
  },
  {
    "name": "Professional Pest Control - A Flick Anticimex Company",
    "address": "Unit 14/82 Merkel St, Thurgoona NSW 2640, Australia",
    "suburb": "Thurgoona NSW 2640",
    "state": "NSW",
    "rating": 5,
    "reviews": 41,
    "lat": -36.0599789,
    "lng": 146.9623151,
    "place_id": "ChIJh0PtdxHdI2sRXd8kZ72oeE4",
    "maps_url": "https://www.google.com/maps/place/?q=place_id:ChIJh0PtdxHdI2sRXd8kZ72oeE4"
  },
  {
    "name": "Pianto’s Pest Control",
    "address": "5/1 Sanyo Dr, Wodonga VIC 3690, Australia",
    "suburb": "Wodonga VIC 3690",
    "state": "NSW",
    "rating": 4.9,
    "reviews": 92,
    "lat": -36.1234752,
    "lng": 146.9014621,
    "place_id": "ChIJ-f6z_BbfI2sRj4vcFGnMTtA",
    "maps_url": "https://www.google.com/maps/place/?q=place_id:ChIJ-f6z_BbfI2sRj4vcFGnMTtA"
  },
  {
    "name": "Pestpac Pest Control Albury Wodonga",
    "address": "606 Nurigong St, Albury NSW 2640, Australia",
    "suburb": "Albury NSW 2640",
    "state": "NSW",
    "rating": 4.6,
    "reviews": 21,
    "lat": -36.0901795,
    "lng": 146.9096483,
    "place_id": "ChIJ58CCHCvgI2sRNvPTJ12X404",
    "maps_url": "https://www.google.com/maps/place/?q=place_id:ChIJ58CCHCvgI2sRNvPTJ12X404"
  },
  {
    "name": "Albury Wodonga Pest Control",
    "address": "112 Scholz Rd, Walla Walla NSW 2659, Australia",
    "suburb": "Walla Walla NSW 2659",
    "state": "NSW",
    "rating": 4.5,
    "reviews": 4,
    "lat": -35.6601616,
    "lng": 146.8837577,
    "place_id": "ChIJW-DhD_uAIWsRlSTILsp1Tvw",
    "maps_url": "https://www.google.com/maps/place/?q=place_id:ChIJW-DhD_uAIWsRlSTILsp1Tvw"
  },
  {
    "name": "Woody's Pest Control",
    "address": "Beethoven St, Springdale Heights NSW 2641, Australia",
    "suburb": "Springdale Heights NSW 2641",
    "state": "NSW",
    "rating": 5,
    "reviews": 6,
    "lat": -36.0276453,
    "lng": 146.940608,
    "place_id": "ChIJtSz6Pf15wwoRe-i8VCwRHkI",
    "maps_url": "https://www.google.com/maps/place/?q=place_id:ChIJtSz6Pf15wwoRe-i8VCwRHkI"
  },
  {
    "name": "Build n Pest Property Inspections",
    "address": "8 Coulston St, Wodonga VIC 3690, Australia",
    "suburb": "Wodonga VIC 3690",
    "state": "NSW",
    "rating": 5,
    "reviews": 201,
    "lat": -36.1270192,
    "lng": 146.910892,
    "place_id": "ChIJIy_ujgR-xSARjdCGJOfaSvk",
    "maps_url": "https://www.google.com/maps/place/?q=place_id:ChIJIy_ujgR-xSARjdCGJOfaSvk"
  },
  {
    "name": "QUICK-KILL",
    "address": "352 Woodstock Ct, Albury NSW 2640, Australia",
    "suburb": "Albury NSW 2640",
    "state": "NSW",
    "rating": null,
    "reviews": 0,
    "lat": -36.0862671,
    "lng": 146.9273194,
    "place_id": "ChIJVVUZI9zhI2sRSqDywX305Qk",
    "maps_url": "https://www.google.com/maps/place/?q=place_id:ChIJVVUZI9zhI2sRSqDywX305Qk"
  },
  {
    "name": "First Stop Pest Management - Wagga Wagga",
    "address": "47 Fay Ave, Kooringal NSW 2650, Australia",
    "suburb": "Kooringal NSW 2650",
    "state": "NSW",
    "rating": 5,
    "reviews": 36,
    "lat": -35.1416162,
    "lng": 147.3824772,
    "place_id": "ChIJY_kEv3Cwd0ARI4_c-oxT7dc",
    "maps_url": "https://www.google.com/maps/place/?q=place_id:ChIJY_kEv3Cwd0ARI4_c-oxT7dc"
  },
  {
    "name": "Wagga Pest Solutions",
    "address": "1 Baylis St, Wagga Wagga NSW 2650, Australia",
    "suburb": "Wagga Wagga NSW 2650",
    "state": "NSW",
    "rating": 4.9,
    "reviews": 36,
    "lat": -35.1187041,
    "lng": 147.3691685,
    "place_id": "ChIJc0oTKR0oFocR8buDlOAzRCc",
    "maps_url": "https://www.google.com/maps/place/?q=place_id:ChIJc0oTKR0oFocR8buDlOAzRCc"
  },
  {
    "name": "Avante Guard Pest Control",
    "address": "80 Jack Ave, Mount Austin NSW 2650, Australia",
    "suburb": "Mount Austin NSW 2650",
    "state": "NSW",
    "rating": 4.9,
    "reviews": 37,
    "lat": -35.1347177,
    "lng": 147.3433046,
    "place_id": "ChIJMSxHnjeZGGsRwuzBvxqhEXU",
    "maps_url": "https://www.google.com/maps/place/?q=place_id:ChIJMSxHnjeZGGsRwuzBvxqhEXU"
  },
  {
    "name": "Terminate Pty Ltd",
    "address": "96 Kaloona Dr, Bourkelands NSW 2650, Australia",
    "suburb": "Bourkelands NSW 2650",
    "state": "NSW",
    "rating": 5,
    "reviews": 22,
    "lat": -35.1596446,
    "lng": 147.3400026,
    "place_id": "ChIJw_oV5sKeGGsRJc7FgttuizU",
    "maps_url": "https://www.google.com/maps/place/?q=place_id:ChIJw_oV5sKeGGsRJc7FgttuizU"
  },
  {
    "name": "Advanced Pest Management Riverina",
    "address": "5 Rowe St, Lake Albert NSW 2650, Australia",
    "suburb": "Lake Albert NSW 2650",
    "state": "NSW",
    "rating": 5,
    "reviews": 2,
    "lat": -35.1731469,
    "lng": 147.3849791,
    "place_id": "ChIJvxmIYn6ZGGsRQ3E-bummSBo",
    "maps_url": "https://www.google.com/maps/place/?q=place_id:ChIJvxmIYn6ZGGsRQ3E-bummSBo"
  },
  {
    "name": "Rapture Pest Control Coolamon",
    "address": "45 Cowabbie St, Coolamon NSW 2701, Australia",
    "suburb": "Coolamon NSW 2701",
    "state": "NSW",
    "rating": 5,
    "reviews": 17,
    "lat": -34.8197715,
    "lng": 147.2028179,
    "place_id": "ChIJ78MqQroTH2sRlRn-F3uaXwU",
    "maps_url": "https://www.google.com/maps/place/?q=place_id:ChIJ78MqQroTH2sRlRn-F3uaXwU"
  },
  {
    "name": "Flick Pest Control Wagga Wagga",
    "address": "8 Riedell St, Wagga Wagga NSW 2650, Australia",
    "suburb": "Wagga Wagga NSW 2650",
    "state": "NSW",
    "rating": 3.8,
    "reviews": 13,
    "lat": -35.1240538,
    "lng": 147.3979944,
    "place_id": "ChIJ54Wv0M-bGGsRmFvvXkLJuIE",
    "maps_url": "https://www.google.com/maps/place/?q=place_id:ChIJ54Wv0M-bGGsRmFvvXkLJuIE"
  },
  {
    "name": "Kooringal Pest Control",
    "address": "37 Plumpton Rd, Lake Albert NSW 2650, Australia",
    "suburb": "Lake Albert NSW 2650",
    "state": "NSW",
    "rating": 4.4,
    "reviews": 13,
    "lat": -35.1560276,
    "lng": 147.3703046,
    "place_id": "ChIJ9Sy0iameGGsRncYfr9Okwdg",
    "maps_url": "https://www.google.com/maps/place/?q=place_id:ChIJ9Sy0iameGGsRncYfr9Okwdg"
  },
  {
    "name": "All Clear Inspections",
    "address": "49 Dobney Ave, Wagga Wagga NSW 2650, Australia",
    "suburb": "Wagga Wagga NSW 2650",
    "state": "NSW",
    "rating": 5,
    "reviews": 21,
    "lat": -35.1199842,
    "lng": 147.3451241,
    "place_id": "ChIJt1pZKi6ZGGsR8qPH8cyimpE",
    "maps_url": "https://www.google.com/maps/place/?q=place_id:ChIJt1pZKi6ZGGsR8qPH8cyimpE"
  },
  {
    "name": "Pearson Pest",
    "address": "Unit 12, 84/92 Barnes St, Taminda NSW 2340, Australia",
    "suburb": "84/92 Barnes St",
    "state": "NSW",
    "rating": 4.9,
    "reviews": 21,
    "lat": -31.093673,
    "lng": 150.909865,
    "place_id": "ChIJb1Uo-tiYCmsRRy_AVPIFMFw",
    "maps_url": "https://www.google.com/maps/place/?q=place_id:ChIJb1Uo-tiYCmsRRy_AVPIFMFw"
  },
  {
    "name": "Keech Pest Control",
    "address": "27 Elm St, South Tamworth NSW 2340, Australia",
    "suburb": "South Tamworth NSW 2340",
    "state": "NSW",
    "rating": 5,
    "reviews": 11,
    "lat": -31.1104756,
    "lng": 150.9069129,
    "place_id": "ChIJjQ-y5SmTzQgR74v272dyF-c",
    "maps_url": "https://www.google.com/maps/place/?q=place_id:ChIJjQ-y5SmTzQgR74v272dyF-c"
  },
  {
    "name": "Wright's Pest Solutions Tamworth",
    "address": "15 Wallamoul St, Oxley Vale NSW 2340, Australia",
    "suburb": "Oxley Vale NSW 2340",
    "state": "NSW",
    "rating": 5,
    "reviews": 7,
    "lat": -31.0578557,
    "lng": 150.8923735,
    "place_id": "ChIJa2I3diCZCmsRh8yT9ZWY3GM",
    "maps_url": "https://www.google.com/maps/place/?q=place_id:ChIJa2I3diCZCmsRh8yT9ZWY3GM"
  },
  {
    "name": "4 Seasons Pest Control",
    "address": "18 Craigends Ln, Hillvue NSW 2340, Australia",
    "suburb": "Hillvue NSW 2340",
    "state": "NSW",
    "rating": 5,
    "reviews": 2,
    "lat": -31.124342,
    "lng": 150.9219577,
    "place_id": "ChIJy55WrkBrI6sR6qo2Z3-waE4",
    "maps_url": "https://www.google.com/maps/place/?q=place_id:ChIJy55WrkBrI6sR6qo2Z3-waE4"
  },
  {
    "name": "Sullivan Pest Management Pty Ltd",
    "address": "890 Upper Moore Creek Rd, Tamworth NSW 2340, Australia",
    "suburb": "Tamworth NSW 2340",
    "state": "NSW",
    "rating": 5,
    "reviews": 2,
    "lat": -31.0004453,
    "lng": 150.9123352,
    "place_id": "ChIJ1ZYbN-CfCmsRkqL5hktU6pM",
    "maps_url": "https://www.google.com/maps/place/?q=place_id:ChIJ1ZYbN-CfCmsRkqL5hktU6pM"
  },
  {
    "name": "Statewide Pest Solutions And Bird Netting",
    "address": "11 Barnes St, Taminda NSW 2340, Australia",
    "suburb": "Taminda NSW 2340",
    "state": "NSW",
    "rating": 4,
    "reviews": 9,
    "lat": -31.0889675,
    "lng": 150.9168008,
    "place_id": "ChIJqTzILMyZCmsRtIUMm_x0zDU",
    "maps_url": "https://www.google.com/maps/place/?q=place_id:ChIJqTzILMyZCmsRtIUMm_x0zDU"
  },
  {
    "name": "Pest Busters PC",
    "address": "210 Francis St, Bendemeer NSW 2355, Australia",
    "suburb": "Bendemeer NSW 2355",
    "state": "NSW",
    "rating": null,
    "reviews": 0,
    "lat": -30.8874485,
    "lng": 151.1467432,
    "place_id": "ChIJcTveXFMFoGsRs43mfjMZmkY",
    "maps_url": "https://www.google.com/maps/place/?q=place_id:ChIJcTveXFMFoGsRs43mfjMZmkY"
  },
  {
    "name": "Tamworth Pest Control",
    "address": "70 Camhouses, Wilnecote, Tamworth B77 4HJ, UK",
    "suburb": "Wilnecote",
    "state": "NSW",
    "rating": 4.8,
    "reviews": 50,
    "lat": 52.6198515,
    "lng": -1.6529928,
    "place_id": "ChIJ8yuc-ZCrcEgRWMaumZpdoTM",
    "maps_url": "https://www.google.com/maps/place/?q=place_id:ChIJ8yuc-ZCrcEgRWMaumZpdoTM"
  },
  {
    "name": "Rimac Pest & building Inspections",
    "address": "20 Stephen Rd, Hallsville NSW 2340, Australia",
    "suburb": "Hallsville NSW 2340",
    "state": "NSW",
    "rating": 4.7,
    "reviews": 11,
    "lat": -31.0340716,
    "lng": 150.8768448,
    "place_id": "ChIJV7vvG8uYCmsRuq5VaE7Fhpg",
    "maps_url": "https://www.google.com/maps/place/?q=place_id:ChIJV7vvG8uYCmsRuq5VaE7Fhpg"
  },
  {
    "name": "Haynes Pest Management Pty Ltd",
    "address": "11 Barnes St, Tamworth NSW 2340, Australia",
    "suburb": "Tamworth NSW 2340",
    "state": "NSW",
    "rating": null,
    "reviews": 0,
    "lat": -31.0889675,
    "lng": 150.9168008,
    "place_id": "ChIJeW0cpdGYCmsRzuMwRS1FoYo",
    "maps_url": "https://www.google.com/maps/place/?q=place_id:ChIJeW0cpdGYCmsRzuMwRS1FoYo"
  },
  {
    "name": "Good Life",
    "address": "150 Peel St, North Tamworth NSW 2340, Australia",
    "suburb": "North Tamworth NSW 2340",
    "state": "NSW",
    "rating": null,
    "reviews": 0,
    "lat": -31.081448,
    "lng": 150.9215765,
    "place_id": "ChIJNwMHB8qYCmsR4EZHgRhENtg",
    "maps_url": "https://www.google.com/maps/place/?q=place_id:ChIJNwMHB8qYCmsR4EZHgRhENtg"
  },
  {
    "name": "Insectagone",
    "address": "219 Hill St, Orange NSW 2800, Australia",
    "suburb": "Orange NSW 2800",
    "state": "NSW",
    "rating": 5,
    "reviews": 7,
    "lat": -33.2665892,
    "lng": 149.0968359,
    "place_id": "ChIJjYjort_p7WARoGePSumF3So",
    "maps_url": "https://www.google.com/maps/place/?q=place_id:ChIJjYjort_p7WARoGePSumF3So"
  },
  {
    "name": "KORTOS Pest and Property | Bathurst, Lithgow, Orange, Oberon, Blayney",
    "address": "Landseer Street, Bathurst NSW 2795, Australia",
    "suburb": "Bathurst NSW 2795",
    "state": "NSW",
    "rating": 5,
    "reviews": 30,
    "lat": -33.4201463,
    "lng": 149.5777426,
    "place_id": "ChIJizwJMZLhEWsRJ-HbMIzkC0o",
    "maps_url": "https://www.google.com/maps/place/?q=place_id:ChIJizwJMZLhEWsRJ-HbMIzkC0o"
  },
  {
    "name": "Eagle Eye Termite & Pest Control Orange",
    "address": "29 Obley St, Cumnock NSW 2867, Australia",
    "suburb": "Cumnock NSW 2867",
    "state": "NSW",
    "rating": 5,
    "reviews": 3,
    "lat": -32.9291111,
    "lng": 148.7544655,
    "place_id": "ChIJmeCF0JrdD2sR4v1ZKe9aC8Q",
    "maps_url": "https://www.google.com/maps/place/?q=place_id:ChIJmeCF0JrdD2sR4v1ZKe9aC8Q"
  },
  {
    "name": "Dentec Pest Management",
    "address": "Unit 5/57 Douglas Mawson Dr, Dubbo NSW 2830, Australia",
    "suburb": "Dubbo NSW 2830",
    "state": "NSW",
    "rating": 4.9,
    "reviews": 331,
    "lat": -32.2498309,
    "lng": 148.6462836,
    "place_id": "ChIJvY3METptD2sR41p5r9IDO7w",
    "maps_url": "https://www.google.com/maps/place/?q=place_id:ChIJvY3METptD2sR41p5r9IDO7w"
  },
  {
    "name": "Dubbo Budget Pest Control",
    "address": "98 Myall St, Dubbo NSW 2830, Australia",
    "suburb": "Dubbo NSW 2830",
    "state": "NSW",
    "rating": 5,
    "reviews": 1,
    "lat": -32.2397029,
    "lng": 148.6131237,
    "place_id": "ChIJQSkgtEp-x0sRzNbJVJjbOco",
    "maps_url": "https://www.google.com/maps/place/?q=place_id:ChIJQSkgtEp-x0sRzNbJVJjbOco"
  },
  {
    "name": "Pest Alert - Pest Control Dubbo",
    "address": "Unit 1/3 Capital Dr, Dubbo NSW 2830, Australia",
    "suburb": "Dubbo NSW 2830",
    "state": "NSW",
    "rating": 5,
    "reviews": 84,
    "lat": -32.263252,
    "lng": 148.65245,
    "place_id": "ChIJzflx5yZyD2sRns8b9w_29uI",
    "maps_url": "https://www.google.com/maps/place/?q=place_id:ChIJzflx5yZyD2sRns8b9w_29uI"
  },
  {
    "name": "Davrac Rural Pest Services",
    "address": "Curries Rd, Dubbo NSW 2830, Australia",
    "suburb": "Dubbo NSW 2830",
    "state": "NSW",
    "rating": 5,
    "reviews": 1,
    "lat": -32.2651737,
    "lng": 148.5201333,
    "place_id": "ChIJSU2hko36e4YRJBWArsLOUSU",
    "maps_url": "https://www.google.com/maps/place/?q=place_id:ChIJSU2hko36e4YRJBWArsLOUSU"
  },
  {
    "name": "Termitrust Pest Control Dubbo | Termi Home & Commercial",
    "address": "4/14 Asset Way, Dubbo NSW 2830, Australia",
    "suburb": "Dubbo NSW 2830",
    "state": "NSW",
    "rating": 5,
    "reviews": 115,
    "lat": -32.2647662,
    "lng": 148.6515051,
    "place_id": "ChIJy67j6a1xD2sRaTCxnf9uxOI",
    "maps_url": "https://www.google.com/maps/place/?q=place_id:ChIJy67j6a1xD2sRaTCxnf9uxOI"
  },
  {
    "name": "Inland Pest Management",
    "address": "Unit 11/11 Asset Way, Dubbo NSW 2830, Australia",
    "suburb": "Dubbo NSW 2830",
    "state": "NSW",
    "rating": 5,
    "reviews": 4,
    "lat": -32.2645974,
    "lng": 148.6506375,
    "place_id": "ChIJGcKJpKpxD2sRYZ6NClpNjVM",
    "maps_url": "https://www.google.com/maps/place/?q=place_id:ChIJGcKJpKpxD2sRYZ6NClpNjVM"
  },
  {
    "name": "Flick Pest Control Dubbo",
    "address": "8 B Bourke St, Dubbo NSW 2830, Australia",
    "suburb": "Dubbo NSW 2830",
    "state": "NSW",
    "rating": 4.4,
    "reviews": 50,
    "lat": -32.2313839,
    "lng": 148.612287,
    "place_id": "ChIJjTUF2Z9xD2sRDZ2KxWiCxBo",
    "maps_url": "https://www.google.com/maps/place/?q=place_id:ChIJjTUF2Z9xD2sRDZ2KxWiCxBo"
  },
  {
    "name": "Greenspest",
    "address": "8/74 Mountbatten Dr, Dubbo NSW 2830, Australia",
    "suburb": "Dubbo NSW 2830",
    "state": "NSW",
    "rating": 5,
    "reviews": 4,
    "lat": -32.2501219,
    "lng": 148.6412821,
    "place_id": "ChIJZ5vKKbkrL4YRIE2WMOb5jBU",
    "maps_url": "https://www.google.com/maps/place/?q=place_id:ChIJZ5vKKbkrL4YRIE2WMOb5jBU"
  },
  {
    "name": "Farmers Friend Vermin Control",
    "address": "Gidgee Rd, Dubbo NSW 2830, Australia",
    "suburb": "Dubbo NSW 2830",
    "state": "NSW",
    "rating": 5,
    "reviews": 3,
    "lat": -32.1994264,
    "lng": 148.4976384,
    "place_id": "ChIJ20XR1tCNcmMRmUVyaGNmtgk",
    "maps_url": "https://www.google.com/maps/place/?q=place_id:ChIJ20XR1tCNcmMRmUVyaGNmtgk"
  },
  {
    "name": "Central West Pest Control",
    "address": "Rosedale Ridge, Rosedale Rd, Dubbo NSW 2830, Australia",
    "suburb": "Rosedale Rd",
    "state": "NSW",
    "rating": 5,
    "reviews": 1,
    "lat": -32.2524212,
    "lng": 148.542799,
    "place_id": "ChIJofyHlGp7D2sRHQJ0ySjwcdg",
    "maps_url": "https://www.google.com/maps/place/?q=place_id:ChIJofyHlGp7D2sRHQJ0ySjwcdg"
  },
  {
    "name": "Allo`s Pest Control & Handyman",
    "address": "52 Mountbatten Dr, Dubbo NSW 2830, Australia",
    "suburb": "Dubbo NSW 2830",
    "state": "NSW",
    "rating": 5,
    "reviews": 1,
    "lat": -32.249839,
    "lng": 148.6389127,
    "place_id": "ChIJiWLSNkxxD2sR0UYaVs4TWOg",
    "maps_url": "https://www.google.com/maps/place/?q=place_id:ChIJiWLSNkxxD2sR0UYaVs4TWOg"
  },
  {
    "name": "absolute pest control",
    "address": "45 Leonard St, Dubbo NSW 2830, Australia",
    "suburb": "Dubbo NSW 2830",
    "state": "NSW",
    "rating": null,
    "reviews": 0,
    "lat": -32.2398215,
    "lng": 148.6229183,
    "place_id": "ChIJv53318FxD2sRX8LvtwP2-IQ",
    "maps_url": "https://www.google.com/maps/place/?q=place_id:ChIJv53318FxD2sRX8LvtwP2-IQ"
  },
  {
    "name": "Complete Pest Control",
    "address": "3/12 Industrial Dr, North Boambee Valley NSW 2450, Australia",
    "suburb": "North Boambee Valley NSW 2450",
    "state": "NSW",
    "rating": 4.8,
    "reviews": 219,
    "lat": -30.3139588,
    "lng": 153.0880829,
    "place_id": "ChIJwfSjiwQOnGsRjttGybiEEOQ",
    "maps_url": "https://www.google.com/maps/place/?q=place_id:ChIJwfSjiwQOnGsRjttGybiEEOQ"
  },
  {
    "name": "Harbour Pest Solutions",
    "address": "8 Crescent St, Boambee East NSW 2452, Australia",
    "suburb": "Boambee East NSW 2452",
    "state": "NSW",
    "rating": 5,
    "reviews": 52,
    "lat": -30.342638,
    "lng": 153.0823506,
    "place_id": "ChIJRfeo5R4RnGsRspTY-dz0uT0",
    "maps_url": "https://www.google.com/maps/place/?q=place_id:ChIJRfeo5R4RnGsRspTY-dz0uT0"
  },
  {
    "name": "Exodus Pest Management - Coffs Harbour",
    "address": "9/10 Wisteria Cl, Coffs Harbour NSW 2450, Australia",
    "suburb": "Coffs Harbour NSW 2450",
    "state": "NSW",
    "rating": 4.9,
    "reviews": 63,
    "lat": -30.290252,
    "lng": 153.093389,
    "place_id": "ChIJB8GCfG8OnGsRG4_MGc7dkDI",
    "maps_url": "https://www.google.com/maps/place/?q=place_id:ChIJB8GCfG8OnGsRG4_MGc7dkDI"
  },
  {
    "name": "Flick Pest Control Coffs Harbour",
    "address": "2/10 Gdt Seccombe Cl, Coffs Harbour NSW 2450, Australia",
    "suburb": "Coffs Harbour NSW 2450",
    "state": "NSW",
    "rating": 4.7,
    "reviews": 32,
    "lat": -30.287353,
    "lng": 153.127969,
    "place_id": "ChIJ5a5gQMsNnGsR-o7kHx_x0xs",
    "maps_url": "https://www.google.com/maps/place/?q=place_id:ChIJ5a5gQMsNnGsR-o7kHx_x0xs"
  },
  {
    "name": "All Pest Solutions Mid North Coast",
    "address": "21 Hurley Dr, Coffs Harbour NSW 2450, Australia",
    "suburb": "Coffs Harbour NSW 2450",
    "state": "NSW",
    "rating": 4.8,
    "reviews": 35,
    "lat": -30.3110798,
    "lng": 153.101651,
    "place_id": "ChIJHRqBbRIPnGsRgw2c7t0wbiU",
    "maps_url": "https://www.google.com/maps/place/?q=place_id:ChIJHRqBbRIPnGsRgw2c7t0wbiU"
  },
  {
    "name": "Brazel's Pest Control",
    "address": "35 Hurley Dr, Coffs Harbour NSW 2450, Australia",
    "suburb": "Coffs Harbour NSW 2450",
    "state": "NSW",
    "rating": 4.7,
    "reviews": 15,
    "lat": -30.29707599999999,
    "lng": 153.115798,
    "place_id": "ChIJeVgSgQ8OnGsRqC7lrlVhVHo",
    "maps_url": "https://www.google.com/maps/place/?q=place_id:ChIJeVgSgQ8OnGsRqC7lrlVhVHo"
  },
  {
    "name": "Bugmen Pest and Termite Management",
    "address": "10 The Corso, Moonee Beach NSW 2450, Australia",
    "suburb": "Moonee Beach NSW 2450",
    "state": "NSW",
    "rating": 4.8,
    "reviews": 37,
    "lat": -30.2090805,
    "lng": 153.1549894,
    "place_id": "ChIJHzPtVMwNnGsR-HNzqIH7804",
    "maps_url": "https://www.google.com/maps/place/?q=place_id:ChIJHzPtVMwNnGsR-HNzqIH7804"
  },
  {
    "name": "BPI North Coast Building and Pest Inspections",
    "address": "Coffs Harbour NSW 2450, Australia",
    "suburb": "Australia",
    "state": "NSW",
    "rating": 5,
    "reviews": 29,
    "lat": -30.2962776,
    "lng": 153.1140269,
    "place_id": "ChIJk1W1E9sEnGsRjjmPTOXEGlk",
    "maps_url": "https://www.google.com/maps/place/?q=place_id:ChIJk1W1E9sEnGsRjjmPTOXEGlk"
  },
  {
    "name": "Bryan's Steam Cleaning & Pest Management",
    "address": "132 Shephards Ln, Coffs Harbour NSW 2450, Australia",
    "suburb": "Coffs Harbour NSW 2450",
    "state": "NSW",
    "rating": 5,
    "reviews": 7,
    "lat": -30.2823007,
    "lng": 153.0912826,
    "place_id": "ChIJtS1fb7wPnGsR2Ll20g6EEIk",
    "maps_url": "https://www.google.com/maps/place/?q=place_id:ChIJtS1fb7wPnGsR2Ll20g6EEIk"
  },
  {
    "name": "Alliance Pest Control",
    "address": "444 Stuarts Point Rd, Yarrahapinni NSW 2441, Australia",
    "suburb": "Yarrahapinni NSW 2441",
    "state": "NSW",
    "rating": 5,
    "reviews": 11,
    "lat": -30.8334065,
    "lng": 152.9477422,
    "place_id": "ChIJcSNBk3nTnWsR8qcmZ_8rZVs",
    "maps_url": "https://www.google.com/maps/place/?q=place_id:ChIJcSNBk3nTnWsR8qcmZ_8rZVs"
  },
  {
    "name": "All Pest Solutions - An Anticimex Company",
    "address": "18 Russellton Dr, Alstonville NSW 2477, Australia",
    "suburb": "Alstonville NSW 2477",
    "state": "NSW",
    "rating": 4.7,
    "reviews": 256,
    "lat": -28.8354257,
    "lng": 153.4213899,
    "place_id": "ChIJQST2M0CAkGsRi3B50AMaIuA",
    "maps_url": "https://www.google.com/maps/place/?q=place_id:ChIJQST2M0CAkGsRi3B50AMaIuA"
  },
  {
    "name": "Inspect - Building & Pest Inspections - Coffs Harbour",
    "address": "66 Boultwood St, Coffs Harbour NSW 2450, Australia",
    "suburb": "Coffs Harbour NSW 2450",
    "state": "NSW",
    "rating": 4.9,
    "reviews": 8,
    "lat": -30.2866499,
    "lng": 153.1314991,
    "place_id": "ChIJt-4Wug3zm2sRz8bR1wMuW0A",
    "maps_url": "https://www.google.com/maps/place/?q=place_id:ChIJt-4Wug3zm2sRz8bR1wMuW0A"
  },
  {
    "name": "Pacific Pest Inspections",
    "address": "Coffs Harbour NSW 2450, Australia",
    "suburb": "Australia",
    "state": "NSW",
    "rating": null,
    "reviews": 0,
    "lat": -30.3214537,
    "lng": 153.0839629,
    "place_id": "ChIJhaDArtkNnGsRGKVkSs4iImA",
    "maps_url": "https://www.google.com/maps/place/?q=place_id:ChIJhaDArtkNnGsRGKVkSs4iImA"
  },
  {
    "name": "Port Macquarie Pest Control",
    "address": "2 The Bowsprit, Port Macquarie NSW 2444, Australia",
    "suburb": "Port Macquarie NSW 2444",
    "state": "NSW",
    "rating": 4.8,
    "reviews": 18,
    "lat": -31.4369224,
    "lng": 152.8850377,
    "place_id": "ChIJictzut7_nWsRdsVerLB3zXc",
    "maps_url": "https://www.google.com/maps/place/?q=place_id:ChIJictzut7_nWsRdsVerLB3zXc"
  },
  {
    "name": "Complete Pest Control",
    "address": "Unit 6/11 Trade Cct, Wauchope NSW 2446, Australia",
    "suburb": "Wauchope NSW 2446",
    "state": "NSW",
    "rating": 5,
    "reviews": 24,
    "lat": -31.4926423,
    "lng": 152.731137,
    "place_id": "ChIJ89AedxX5dWsRlHQzW_MVmOQ",
    "maps_url": "https://www.google.com/maps/place/?q=place_id:ChIJ89AedxX5dWsRlHQzW_MVmOQ"
  },
  {
    "name": "Flick Pest Control Port Macquarie",
    "address": "25/35 Merrigal Rd, Port Macquarie NSW 2444, Australia",
    "suburb": "Port Macquarie NSW 2444",
    "state": "NSW",
    "rating": 4.7,
    "reviews": 156,
    "lat": -31.456125,
    "lng": 152.882109,
    "place_id": "ChIJXeoRqXv_nWsRhqvmcZYlFng",
    "maps_url": "https://www.google.com/maps/place/?q=place_id:ChIJXeoRqXv_nWsRhqvmcZYlFng"
  },
  {
    "name": "Bretts Pest Control Port Macquarie",
    "address": "23 Phar Lap Cct, Port Macquarie NSW 2444, Australia",
    "suburb": "Port Macquarie NSW 2444",
    "state": "NSW",
    "rating": 4.9,
    "reviews": 10,
    "lat": -31.4630874,
    "lng": 152.8513513,
    "place_id": "ChIJXzbCpjYAdmsR03qlmRCTjKM",
    "maps_url": "https://www.google.com/maps/place/?q=place_id:ChIJXzbCpjYAdmsR03qlmRCTjKM"
  },
  {
    "name": "Pestmac Pest Control Solutions",
    "address": "59 Lilli Pilli Rd, Kundabung NSW 2441, Australia",
    "suburb": "Kundabung NSW 2441",
    "state": "NSW",
    "rating": 5,
    "reviews": 13,
    "lat": -31.1975163,
    "lng": 152.8099967,
    "place_id": "ChIJ5YIGxurqhUIRYM8u94HHr3c",
    "maps_url": "https://www.google.com/maps/place/?q=place_id:ChIJ5YIGxurqhUIRYM8u94HHr3c"
  },
  {
    "name": "Gows Big Red Carpet Cleaning and Pest Control",
    "address": "Unit 2/19 Uralla Rd, Port Macquarie NSW 2444, Australia",
    "suburb": "Port Macquarie NSW 2444",
    "state": "NSW",
    "rating": 4.9,
    "reviews": 317,
    "lat": -31.45129679999999,
    "lng": 152.8833326,
    "place_id": "ChIJM1fVASP_nWsRtf9rHi_lQkw",
    "maps_url": "https://www.google.com/maps/place/?q=place_id:ChIJM1fVASP_nWsRtf9rHi_lQkw"
  },
  {
    "name": "Fierce Pest Control Lake Macquarie",
    "address": "184 Grand Parade, Bonnells Bay NSW 2265, Australia",
    "suburb": "Bonnells Bay NSW 2265",
    "state": "NSW",
    "rating": 5,
    "reviews": 66,
    "lat": -33.1065887,
    "lng": 151.5311974,
    "place_id": "ChIJlfsm-tllDykRBn-MlX7cr8A",
    "maps_url": "https://www.google.com/maps/place/?q=place_id:ChIJlfsm-tllDykRBn-MlX7cr8A"
  },
  {
    "name": "Termite Matters Total Pest Solutions",
    "address": "8 Trade Cct, Wauchope NSW 2446, Australia",
    "suburb": "Wauchope NSW 2446",
    "state": "NSW",
    "rating": 5,
    "reviews": 4,
    "lat": -31.4931017,
    "lng": 152.7320705,
    "place_id": "ChIJL8Yzk23_nWsRgeIV8htuEiY",
    "maps_url": "https://www.google.com/maps/place/?q=place_id:ChIJL8Yzk23_nWsRgeIV8htuEiY"
  },
  {
    "name": "Northern Rivers Pest Control",
    "address": "32 Surry St, Coraki NSW 2471, Australia",
    "suburb": "Coraki NSW 2471",
    "state": "NSW",
    "rating": 5,
    "reviews": 80,
    "lat": -28.9937751,
    "lng": 153.2780979,
    "place_id": "ChIJXQGui_NtmmsRyCRMfeLsXkI",
    "maps_url": "https://www.google.com/maps/place/?q=place_id:ChIJXQGui_NtmmsRyCRMfeLsXkI"
  },
  {
    "name": "Clifford Pest Control",
    "address": "Skyline Rd, Goonellabah NSW 2480, Australia",
    "suburb": "Goonellabah NSW 2480",
    "state": "NSW",
    "rating": 5,
    "reviews": 2,
    "lat": -28.8419962,
    "lng": 153.321046,
    "place_id": "ChIJewm1iH93mmsRN5BGpvpyOqA",
    "maps_url": "https://www.google.com/maps/place/?q=place_id:ChIJewm1iH93mmsRN5BGpvpyOqA"
  },
  {
    "name": "Natraspray Lismore",
    "address": "34 Napier St, Goonellabah NSW 2480, Australia",
    "suburb": "Goonellabah NSW 2480",
    "state": "NSW",
    "rating": null,
    "reviews": 0,
    "lat": -28.8232349,
    "lng": 153.3510442,
    "place_id": "ChIJlS23ZDWdkGsRd-vRbcg_LHY",
    "maps_url": "https://www.google.com/maps/place/?q=place_id:ChIJlS23ZDWdkGsRd-vRbcg_LHY"
  },
  {
    "name": "Sanctuary Pest Management",
    "address": "2/27 Brigantine St, Byron Bay NSW 2481, Australia",
    "suburb": "Byron Bay NSW 2481",
    "state": "NSW",
    "rating": 4.9,
    "reviews": 72,
    "lat": -28.6361324,
    "lng": 153.5816075,
    "place_id": "ChIJKyA5xepikGsR9ZJWHQnJOVA",
    "maps_url": "https://www.google.com/maps/place/?q=place_id:ChIJKyA5xepikGsR9ZJWHQnJOVA"
  },
  {
    "name": "Peace Of Mind Termite & Pest Management - Commercial Pest Control",
    "address": "78 Smiths Creek Rd, Uki NSW 2484, Australia",
    "suburb": "Uki NSW 2484",
    "state": "NSW",
    "rating": 4.9,
    "reviews": 100,
    "lat": -28.4166683,
    "lng": 153.3438212,
    "place_id": "ChIJVZVEz7P_kGsRsjqlrWB6bW0",
    "maps_url": "https://www.google.com/maps/place/?q=place_id:ChIJVZVEz7P_kGsRsjqlrWB6bW0"
  },
  {
    "name": "Casino Pest Control",
    "address": "41 Farley St, Casino NSW 2470, Australia",
    "suburb": "Casino NSW 2470",
    "state": "NSW",
    "rating": 4.6,
    "reviews": 16,
    "lat": -28.8570901,
    "lng": 153.0456882,
    "place_id": "ChIJXYqFqvQPmmsR-cGTuq_jBYM",
    "maps_url": "https://www.google.com/maps/place/?q=place_id:ChIJXYqFqvQPmmsR-cGTuq_jBYM"
  },
  {
    "name": "Pest-A-Gon",
    "address": "10A Habitat Wy, Lennox Head NSW 2478, Australia",
    "suburb": "Lennox Head NSW 2478",
    "state": "NSW",
    "rating": 5,
    "reviews": 21,
    "lat": -28.8087368,
    "lng": 153.5887981,
    "place_id": "ChIJc-BiVKd_kGsRdJsGbWoRrm8",
    "maps_url": "https://www.google.com/maps/place/?q=place_id:ChIJc-BiVKd_kGsRdJsGbWoRrm8"
  },
  {
    "name": "Building & Pest Inspections",
    "address": "Lismore NSW 2480, Australia",
    "suburb": "Australia",
    "state": "NSW",
    "rating": 5,
    "reviews": 1,
    "lat": -28.8280175,
    "lng": 153.2857826,
    "place_id": "ChIJZyB_fR2ekGsRHbbsNk5wD8I",
    "maps_url": "https://www.google.com/maps/place/?q=place_id:ChIJZyB_fR2ekGsRHbbsNk5wD8I"
  },
  {
    "name": "AC Pest",
    "address": "17 Phyllis St, South Lismore NSW 2480, Australia",
    "suburb": "South Lismore NSW 2480",
    "state": "NSW",
    "rating": null,
    "reviews": 0,
    "lat": -28.8097731,
    "lng": 153.2671324,
    "place_id": "ChIJxSMfxSaekGsRs95Gy-AQ054",
    "maps_url": "https://www.google.com/maps/place/?q=place_id:ChIJxSMfxSaekGsRs95Gy-AQ054"
  },
  {
    "name": "Active Pest Management, Ballina NSW",
    "address": "Unit 3/16 Ascot Rd, Ballina NSW 2478, Australia",
    "suburb": "Ballina NSW 2478",
    "state": "NSW",
    "rating": 4.9,
    "reviews": 31,
    "lat": -28.8494543,
    "lng": 153.558656,
    "place_id": "ChIJ4e23AxiAkGsRLHancFW5kXs",
    "maps_url": "https://www.google.com/maps/place/?q=place_id:ChIJ4e23AxiAkGsRLHancFW5kXs"
  },
  {
    "name": "Northern Rivers Best Pest Control",
    "address": "75 Cherry St, Ballina NSW 2478, Australia",
    "suburb": "Ballina NSW 2478",
    "state": "NSW",
    "rating": 5,
    "reviews": 1,
    "lat": -28.8643622,
    "lng": 153.565281,
    "place_id": "ChIJx29XlbCukigRMAfYm2EZ5jY",
    "maps_url": "https://www.google.com/maps/place/?q=place_id:ChIJx29XlbCukigRMAfYm2EZ5jY"
  },
  {
    "name": "Coastal Pest Solutions",
    "address": "22 Morpeth St, Harwood NSW 2465, Australia",
    "suburb": "Harwood NSW 2465",
    "state": "NSW",
    "rating": 4.9,
    "reviews": 55,
    "lat": -29.4251632,
    "lng": 153.2393745,
    "place_id": "ChIJZ0gy0zpMmmsRBgti1Wk84mo",
    "maps_url": "https://www.google.com/maps/place/?q=place_id:ChIJZ0gy0zpMmmsRBgti1Wk84mo"
  },
  {
    "name": "TSD Pest Control",
    "address": "Leisure Dr, Banora Point NSW 2486, Australia",
    "suburb": "Banora Point NSW 2486",
    "state": "NSW",
    "rating": 5,
    "reviews": 242,
    "lat": -28.212505,
    "lng": 153.530593,
    "place_id": "ChIJA76M3j7Db4YRk5dFPZq6WoY",
    "maps_url": "https://www.google.com/maps/place/?q=place_id:ChIJA76M3j7Db4YRk5dFPZq6WoY"
  },
  {
    "name": "Surekil Pest Control",
    "address": "8/25 Ourimbah Rd, Tweed Heads NSW 2485, Australia",
    "suburb": "Tweed Heads NSW 2485",
    "state": "NSW",
    "rating": 4.9,
    "reviews": 157,
    "lat": -28.176565,
    "lng": 153.52653,
    "place_id": "ChIJrZIopS0AkWsRqddY1_a8iLU",
    "maps_url": "https://www.google.com/maps/place/?q=place_id:ChIJrZIopS0AkWsRqddY1_a8iLU"
  },
  {
    "name": "Safe House Pest Control, Gold Coast & Tweed",
    "address": "1 Bilkurra Ct, Elanora QLD 4221, Australia",
    "suburb": "Elanora QLD 4221",
    "state": "NSW",
    "rating": 5,
    "reviews": 138,
    "lat": -28.1375415,
    "lng": 153.4455314,
    "place_id": "ChIJtTiBCAEDkWsRgVv4WhqO3uQ",
    "maps_url": "https://www.google.com/maps/place/?q=place_id:ChIJtTiBCAEDkWsRgVv4WhqO3uQ"
  },
  {
    "name": "Pest-Ex Pest and Termite Control Tweed Heads",
    "address": "521 Terranora Rd, Terranora NSW 2486, Australia",
    "suburb": "Terranora NSW 2486",
    "state": "NSW",
    "rating": 5,
    "reviews": 7,
    "lat": -28.242292,
    "lng": 153.514808,
    "place_id": "ChIJGd59dx3_kGsRMJFo0Oqrjxc",
    "maps_url": "https://www.google.com/maps/place/?q=place_id:ChIJGd59dx3_kGsRMJFo0Oqrjxc"
  },
  {
    "name": "Hamma Pest Solutions - Kingscliff Pest Control",
    "address": "Nautilus Wy, Kingscliff NSW 2487, Australia",
    "suburb": "Kingscliff NSW 2487",
    "state": "NSW",
    "rating": 5,
    "reviews": 169,
    "lat": -28.2827018,
    "lng": 153.5760959,
    "place_id": "ChIJr5Qril_t52gRBEX2WoUUMHU",
    "maps_url": "https://www.google.com/maps/place/?q=place_id:ChIJr5Qril_t52gRBEX2WoUUMHU"
  },
  {
    "name": "GEKA Pest Management - Termite and Pest Control Services",
    "address": "15 Franklin St, Banora Point NSW 2486, Australia",
    "suburb": "Banora Point NSW 2486",
    "state": "NSW",
    "rating": 5,
    "reviews": 115,
    "lat": -28.2136701,
    "lng": 153.5139164,
    "place_id": "ChIJHQu2WN3EtWcRRTxW3hk0L_U",
    "maps_url": "https://www.google.com/maps/place/?q=place_id:ChIJHQu2WN3EtWcRRTxW3hk0L_U"
  },
  {
    "name": "Evict the Squatters - Professional Pest Control",
    "address": "5 Glenbrae Dr, Terranora NSW 2486, Australia",
    "suburb": "Terranora NSW 2486",
    "state": "NSW",
    "rating": 5,
    "reviews": 78,
    "lat": -28.2376395,
    "lng": 153.4911581,
    "place_id": "ChIJnQ9Mka7_kGsRmDmZA9P2Ogk",
    "maps_url": "https://www.google.com/maps/place/?q=place_id:ChIJnQ9Mka7_kGsRmDmZA9P2Ogk"
  },
  {
    "name": "Federal Pest Control",
    "address": "5/5 Coghill Dr, Currumbin Waters QLD 4223, Australia",
    "suburb": "Currumbin Waters QLD 4223",
    "state": "NSW",
    "rating": 4.9,
    "reviews": 604,
    "lat": -28.1505286,
    "lng": 153.4748878,
    "place_id": "ChIJq12OH_wTkWsRydCpmyz-Ic4",
    "maps_url": "https://www.google.com/maps/place/?q=place_id:ChIJq12OH_wTkWsRydCpmyz-Ic4"
  },
  {
    "name": "Wards Pest Control",
    "address": "25 Karingal Ave, Bilambil Heights NSW 2486, Australia",
    "suburb": "Bilambil Heights NSW 2486",
    "state": "NSW",
    "rating": 5,
    "reviews": 19,
    "lat": -28.2002013,
    "lng": 153.4951519,
    "place_id": "ChIJ-Z3nMqP_kGsRzg09BZNCo0k",
    "maps_url": "https://www.google.com/maps/place/?q=place_id:ChIJ-Z3nMqP_kGsRzg09BZNCo0k"
  },
  {
    "name": "Eastcoast Pest Management",
    "address": "1/13 Cherub St, Tugun QLD 4224, Australia",
    "suburb": "Tugun QLD 4224",
    "state": "NSW",
    "rating": 5,
    "reviews": 41,
    "lat": -28.1460444,
    "lng": 153.4914721,
    "place_id": "ChIJ-8OH6Y2V1g8RGkTddIzn1PY",
    "maps_url": "https://www.google.com/maps/place/?q=place_id:ChIJ-8OH6Y2V1g8RGkTddIzn1PY"
  },
  {
    "name": "Evergreen Pest Management",
    "address": "17 Oleander Ave, Cabarita Beach NSW 2488, Australia",
    "suburb": "Cabarita Beach NSW 2488",
    "state": "NSW",
    "rating": 5,
    "reviews": 11,
    "lat": -28.3355652,
    "lng": 153.5697992,
    "place_id": "ChIJe90cRgT5kGsRQ04JqNWXMZY",
    "maps_url": "https://www.google.com/maps/place/?q=place_id:ChIJe90cRgT5kGsRQ04JqNWXMZY"
  },
  {
    "name": "Capital Pest Management",
    "address": "Shop 3/2 Villiers Dr, Currumbin Waters QLD 4223, Australia",
    "suburb": "Currumbin Waters QLD 4223",
    "state": "NSW",
    "rating": 5,
    "reviews": 74,
    "lat": -28.1501919,
    "lng": 153.4713187,
    "place_id": "ChIJi9manIQDkWsRV0S0Ef521TA",
    "maps_url": "https://www.google.com/maps/place/?q=place_id:ChIJi9manIQDkWsRV0S0Ef521TA"
  },
  {
    "name": "Evergreen Pest Management",
    "address": "Tweed Heads NSW 2485, Australia",
    "suburb": "Australia",
    "state": "NSW",
    "rating": 5,
    "reviews": 6,
    "lat": -28.173524,
    "lng": 153.5430516,
    "place_id": "ChIJMTKlDC8AkWsRTutk0Sfl_Xc",
    "maps_url": "https://www.google.com/maps/place/?q=place_id:ChIJMTKlDC8AkWsRTutk0Sfl_Xc"
  },
  {
    "name": "Zapem Pest Management Gold Coast",
    "address": "93 Glen Eagles Dr, Robina QLD 4226, Australia",
    "suburb": "Robina QLD 4226",
    "state": "NSW",
    "rating": 5,
    "reviews": 174,
    "lat": -28.0745569,
    "lng": 153.3950494,
    "place_id": "ChIJhzzeq00DkWsRtJOKz7E_5cI",
    "maps_url": "https://www.google.com/maps/place/?q=place_id:ChIJhzzeq00DkWsRtJOKz7E_5cI"
  },
  {
    "name": "Richards Pest Control",
    "address": "2 Jenley Ct, Upper Coomera QLD 4209, Australia",
    "suburb": "Upper Coomera QLD 4209",
    "state": "NSW",
    "rating": 5,
    "reviews": 508,
    "lat": -27.8782103,
    "lng": 153.2948852,
    "place_id": "ChIJpxDUkmcCkWsRlLy7-AeqOu8",
    "maps_url": "https://www.google.com/maps/place/?q=place_id:ChIJpxDUkmcCkWsRlLy7-AeqOu8"
  },