[
  {
    "name": "Studio Pilates International Bathurst Street Sydney",
    "address": "Level 2/93 Bathurst St, Sydney NSW 2000, Australia",
    "suburb": "Sydney NSW 2000",
    "state": "NSW",
    "rating": 4.9,
    "reviews": 312,
    "lat": -33.8744081,
    "lng": 151.2054632,
    "place_id": "ChIJ5ct0FlSvEmsRbAyvKk7Upw8",
    "maps_url": "https://www.google.com/maps/place/?q=place_id:ChIJ5ct0FlSvEmsRbAyvKk7Upw8"
  },
  {
    "name": "PilatesBarre",
    "address": "77 Liverpool St, Sydney NSW 2000, Australia",
    "suburb": "Sydney NSW 2000",
    "state": "NSW",
    "rating": 4.9,
    "reviews": 382,
    "lat": -33.8764549,
    "lng": 151.2056194,
    "place_id": "ChIJ1795vqWvEmsR_GoUyCOm7yU",
    "maps_url": "https://www.google.com/maps/place/?q=place_id:ChIJ1795vqWvEmsR_GoUyCOm7yU"
  },
  {
    "name": "Studio Pilates International Surry Hills",
    "address": "425 Elizabeth St, Surry Hills NSW 2010, Australia",
    "suburb": "Surry Hills NSW 2010",
    "state": "NSW",
    "rating": 4.9,
    "reviews": 130,
    "lat": -33.8856758,
    "lng": 151.2079969,
    "place_id": "ChIJBRuwhvCvEmsRvfEa_8DVJXg",
    "maps_url": "https://www.google.com/maps/place/?q=place_id:ChIJBRuwhvCvEmsRvfEa_8DVJXg"
  },
  {
    "name": "Bodylove Pilates - Sydney",
    "address": "Level 8/222 Clarence St, Sydney NSW 2000, Australia",
    "suburb": "Sydney NSW 2000",
    "state": "NSW",
    "rating": 4.1,
    "reviews": 81,
    "lat": -33.8721458,
    "lng": 151.2058925,
    "place_id": "ChIJBeOyRBGvEmsRD7xdPy88QQg",
    "maps_url": "https://www.google.com/maps/place/?q=place_id:ChIJBeOyRBGvEmsRD7xdPy88QQg"
  },
  {
    "name": "Pilates On George",
    "address": "Dymocks Building, Level 9, Suite 1/428 George St, Sydney NSW 2000, Australia",
    "suburb": "Level 9",
    "state": "NSW",
    "rating": 4.9,
    "reviews": 57,
    "lat": -33.8699555,
    "lng": 151.2071225,
    "place_id": "ChIJie85AT-uEmsR-_XuvUdA3-c",
    "maps_url": "https://www.google.com/maps/place/?q=place_id:ChIJie85AT-uEmsR-_XuvUdA3-c"
  },
  {
    "name": "United Pilates Sydney CBD",
    "address": "20a Goulburn St, Sydney NSW 2000, Australia",
    "suburb": "Sydney NSW 2000",
    "state": "NSW",
    "rating": 5,
    "reviews": 12,
    "lat": -33.877548,
    "lng": 151.2050056,
    "place_id": "ChIJE4ZqM3uvEmsROnOhmffnrHI",
    "maps_url": "https://www.google.com/maps/place/?q=place_id:ChIJE4ZqM3uvEmsROnOhmffnrHI"
  },
  {
    "name": "The Movement House - Pilates Studio",
    "address": "Level 1, Suite 14-15/104 Bathurst St, Sydney NSW 2000, Australia",
    "suburb": "Suite 14-15/104 Bathurst St",
    "state": "NSW",
    "rating": 5,
    "reviews": 21,
    "lat": -33.8743674,
    "lng": 151.2083512,
    "place_id": "ChIJvzCWMEavEmsR8216td74w70",
    "maps_url": "https://www.google.com/maps/place/?q=place_id:ChIJvzCWMEavEmsR8216td74w70"
  },
  {
    "name": "Breathe Movement Studios Sydney CBD",
    "address": "Breathe House, 3 Barrack St, Sydney NSW 2000, Australia",
    "suburb": "3 Barrack St",
    "state": "NSW",
    "rating": 4.8,
    "reviews": 33,
    "lat": -33.8678443,
    "lng": 151.20539,
    "place_id": "ChIJ0RHCvZWvEmsRy0FKhDTRYaY",
    "maps_url": "https://www.google.com/maps/place/?q=place_id:ChIJ0RHCvZWvEmsRy0FKhDTRYaY"
  },
  {
    "name": "True Pilates Sydney Studio",
    "address": "3, 96-102 Buckingham St, Surry Hills NSW 2010, Australia",
    "suburb": "96-102 Buckingham St",
    "state": "NSW",
    "rating": 4.9,
    "reviews": 56,
    "lat": -33.8890398,
    "lng": 151.2073536,
    "place_id": "ChIJnznGed-xEmsRheZPuivgu3I",
    "maps_url": "https://www.google.com/maps/place/?q=place_id:ChIJnznGed-xEmsRheZPuivgu3I"
  },
  {
    "name": "Urban Pilates North Sydney",
    "address": "80 Mount St, North Sydney NSW 2060, Australia",
    "suburb": "North Sydney NSW 2060",
    "state": "NSW",
    "rating": 5,
    "reviews": 109,
    "lat": -33.8388311,
    "lng": 151.2080478,
    "place_id": "ChIJ7THrWWyvEmsR6VK5B01AH4g",
    "maps_url": "https://www.google.com/maps/place/?q=place_id:ChIJ7THrWWyvEmsR6VK5B01AH4g"
  },
  {
    "name": "Wellness Pilates CBD",
    "address": "Suite 465/311 Castlereagh St, Haymarket NSW 2000, Australia",
    "suburb": "Haymarket NSW 2000",
    "state": "NSW",
    "rating": 5,
    "reviews": 107,
    "lat": -33.8791049,
    "lng": 151.2080012,
    "place_id": "ChIJ679ayQGvEmsRj983CfY_h3k",
    "maps_url": "https://www.google.com/maps/place/?q=place_id:ChIJ679ayQGvEmsRj983CfY_h3k"
  },
  {
    "name": "Stanley Pilates and Yoga",
    "address": "Level 1/71-73 Stanley St, Darlinghurst NSW 2010, Australia",
    "suburb": "Darlinghurst NSW 2010",
    "state": "NSW",
    "rating": 5,
    "reviews": 77,
    "lat": -33.8759827,
    "lng": 151.2152575,
    "place_id": "ChIJ5zCh1CmvEmsRxiha2U-raBY",
    "maps_url": "https://www.google.com/maps/place/?q=place_id:ChIJ5zCh1CmvEmsRxiha2U-raBY"
  },
  {
    "name": "Pilatesbarre CBD Market st",
    "address": "Level 12/22 Market St, Sydney NSW 2000, Australia",
    "suburb": "Sydney NSW 2000",
    "state": "NSW",
    "rating": 5,
    "reviews": 4,
    "lat": -33.8706697,
    "lng": 151.2050195,
    "place_id": "ChIJUxlvb96vEmsR-BoaPDSQw2g",
    "maps_url": "https://www.google.com/maps/place/?q=place_id:ChIJUxlvb96vEmsR-BoaPDSQw2g"
  },
  {
    "name": "Central Pilates Studio",
    "address": "7/88 Mountain St, Ultimo NSW 2007, Australia",
    "suburb": "Ultimo NSW 2007",
    "state": "NSW",
    "rating": 5,
    "reviews": 20,
    "lat": -33.8838327,
    "lng": 151.1966045,
    "place_id": "ChIJmwor9iCuEmsRUd2YR1rJu00",
    "maps_url": "https://www.google.com/maps/place/?q=place_id:ChIJmwor9iCuEmsRUd2YR1rJu00"
  },
  {
    "name": "HIIT Pilates Studio Surry Hills",
    "address": "Level 1/231-233 Commonwealth St, Surry Hills NSW 2010, Australia",
    "suburb": "Surry Hills NSW 2010",
    "state": "NSW",
    "rating": 5,
    "reviews": 78,
    "lat": -33.8834175,
    "lng": 151.2098055,
    "place_id": "ChIJRQtf9ievEmsRg0KBpkGwEF4",
    "maps_url": "https://www.google.com/maps/place/?q=place_id:ChIJRQtf9ievEmsRg0KBpkGwEF4"
  },
  {
    "name": "Luna Pilates Sydney",
    "address": "International House, Level 2/104 Bathurst St, Sydney NSW 2000, Australia",
    "suburb": "Level 2/104 Bathurst St",
    "state": "NSW",
    "rating": 5,
    "reviews": 16,
    "lat": -33.8743036,
    "lng": 151.2081952,
    "place_id": "ChIJGwSo2civEmsRipZ7QVX7CUg",
    "maps_url": "https://www.google.com/maps/place/?q=place_id:ChIJGwSo2civEmsRipZ7QVX7CUg"
  },
  {
    "name": "Studio Form & Flow",
    "address": "393 Glebe Point Rd, Glebe NSW 2037, Australia",
    "suburb": "Glebe NSW 2037",
    "state": "NSW",
    "rating": 5,
    "reviews": 114,
    "lat": -33.875178,
    "lng": 151.1837256,
    "place_id": "ChIJjRlCmUGvEmsRdp-qejRmE1s",
    "maps_url": "https://www.google.com/maps/place/?q=place_id:ChIJjRlCmUGvEmsRdp-qejRmE1s"
  },
  {
    "name": "SOMA Health & Wellness Club",
    "address": "Aurora Place, Ground Floor/88 Phillip St, Sydney NSW 2000, Australia",
    "suburb": "Ground Floor/88 Phillip St",
    "state": "NSW",
    "rating": 4.9,
    "reviews": 283,
    "lat": -33.8650775,
    "lng": 151.2121816,
    "place_id": "ChIJxdD9IQqvEmsRvOKRa1crdZM",
    "maps_url": "https://www.google.com/maps/place/?q=place_id:ChIJxdD9IQqvEmsRvOKRa1crdZM"
  },
  {
    "name": "CorePlus Darlinghurst - Pilates Yoga Reformer",
    "address": "152 Riley St, Darlinghurst NSW 2010, Australia",
    "suburb": "Darlinghurst NSW 2010",
    "state": "NSW",
    "rating": 4.8,
    "reviews": 49,
    "lat": -33.8777952,
    "lng": 151.2148481,
    "place_id": "ChIJl9lD2DWvEmsRUDlC6n3yPgs",
    "maps_url": "https://www.google.com/maps/place/?q=place_id:ChIJl9lD2DWvEmsRUDlC6n3yPgs"
  },
  {
    "name": "EVERYBODY pilates CBD",
    "address": "L/3/39-41 Goulburn St, Haymarket NSW 2000, Australia",
    "suburb": "Haymarket NSW 2000",
    "state": "NSW",
    "rating": 4.7,
    "reviews": 106,
    "lat": -33.8778923,
    "lng": 151.2052629,
    "place_id": "ChIJtQ0qwl67EmsRDDTdthPJKu4",
    "maps_url": "https://www.google.com/maps/place/?q=place_id:ChIJtQ0qwl67EmsRDDTdthPJKu4"
  },
  {
    "name": "@pilates 24/7 Newcastle",
    "address": "461 Hunter St, Newcastle NSW 2300, Australia",
    "suburb": "Newcastle NSW 2300",
    "state": "NSW",
    "rating": 5,
    "reviews": 4,
    "lat": -32.9275436,
    "lng": 151.7695181,
    "place_id": "ChIJ5fDgZDIVc2sRzmCCNMobSDs",
    "maps_url": "https://www.google.com/maps/place/?q=place_id:ChIJ5fDgZDIVc2sRzmCCNMobSDs"
  },
  {
    "name": "The Pilates Space",
    "address": "95 Hunter St, Newcastle NSW 2300, Australia",
    "suburb": "Newcastle NSW 2300",
    "state": "NSW",
    "rating": 5,
    "reviews": 120,
    "lat": -32.9275244,
    "lng": 151.7823371,
    "place_id": "ChIJffdB02QUc2sR5cxqeVFZSZ4",
    "maps_url": "https://www.google.com/maps/place/?q=place_id:ChIJffdB02QUc2sR5cxqeVFZSZ4"
  },
  {
    "name": "The Pilates Space",
    "address": "1/200 Union St, The Junction NSW 2291, Australia",
    "suburb": "The Junction NSW 2291",
    "state": "NSW",
    "rating": 4.9,
    "reviews": 67,
    "lat": -32.9382147,
    "lng": 151.7588326,
    "place_id": "ChIJsz3gQScVc2sRn1kxhpD4H0s",
    "maps_url": "https://www.google.com/maps/place/?q=place_id:ChIJsz3gQScVc2sRn1kxhpD4H0s"
  },
  {
    "name": "Grace Movement",
    "address": "70 Denison St, Hamilton NSW 2303, Australia",
    "suburb": "Hamilton NSW 2303",
    "state": "NSW",
    "rating": 5,
    "reviews": 64,
    "lat": -32.9256669,
    "lng": 151.7508167,
    "place_id": "ChIJ_9WRub4Vc2sR23GanTRUsLg",
    "maps_url": "https://www.google.com/maps/place/?q=place_id:ChIJ_9WRub4Vc2sR23GanTRUsLg"
  },
  {
    "name": "PEACHES Pilates Newcastle",
    "address": "78 Glebe Rd, The Junction NSW 2291, Australia",
    "suburb": "The Junction NSW 2291",
    "state": "NSW",
    "rating": 5,
    "reviews": 42,
    "lat": -32.9386249,
    "lng": 151.7590808,
    "place_id": "ChIJgc4STkMVc2sRxG8zsvF_k5M",
    "maps_url": "https://www.google.com/maps/place/?q=place_id:ChIJgc4STkMVc2sRxG8zsvF_k5M"
  },
  {
    "name": "PHYX Newcastle Physio & Pilates",
    "address": "Level 1/178 Hunter St, Newcastle NSW 2300, Australia",
    "suburb": "Newcastle NSW 2300",
    "state": "NSW",
    "rating": 5,
    "reviews": 96,
    "lat": -32.926774,
    "lng": 151.7805335,
    "place_id": "ChIJU8F-DEQUc2sRphfgCT_SeaE",
    "maps_url": "https://www.google.com/maps/place/?q=place_id:ChIJU8F-DEQUc2sRphfgCT_SeaE"
  },
  {
    "name": "STRONG Pilates Broadmeadow",
    "address": "2/55 Broadmeadow Rd, Broadmeadow NSW 2292, Australia",
    "suburb": "Broadmeadow NSW 2292",
    "state": "NSW",
    "rating": 5,
    "reviews": 172,
    "lat": -32.914807,
    "lng": 151.7327578,
    "place_id": "ChIJBZMbvj8Vc2sRPBTwxrHi938",
    "maps_url": "https://www.google.com/maps/place/?q=place_id:ChIJBZMbvj8Vc2sRPBTwxrHi938"
  },
  {
    "name": "Fleur Wellbeing",
    "address": "2/5 Library Ln, Charlestown NSW 2290, Australia",
    "suburb": "Charlestown NSW 2290",
    "state": "NSW",
    "rating": 5,
    "reviews": 92,
    "lat": -32.9626548,
    "lng": 151.6965004,
    "place_id": "ChIJEe2iE4s9c2sRrqFlGfFn23o",
    "maps_url": "https://www.google.com/maps/place/?q=place_id:ChIJEe2iE4s9c2sRrqFlGfFn23o"
  },
  {
    "name": "Ma'at Studio Pilates",
    "address": "2 Pearson St, Lambton NSW 2299, Australia",
    "suburb": "Lambton NSW 2299",
    "state": "NSW",
    "rating": 5,
    "reviews": 22,
    "lat": -32.9127543,
    "lng": 151.7084349,
    "place_id": "ChIJ9bsQ-d0Vc2sRyjnHfBc3erk",
    "maps_url": "https://www.google.com/maps/place/?q=place_id:ChIJ9bsQ-d0Vc2sRyjnHfBc3erk"
  },
  {
    "name": "Muse Pilates Studio Hamilton",
    "address": "1a/44 Beaumont St, Hamilton NSW 2303, Australia",
    "suburb": "Hamilton NSW 2303",
    "state": "NSW",
    "rating": 4.8,
    "reviews": 62,
    "lat": -32.9201966,
    "lng": 151.7473834,
    "place_id": "ChIJK4S6RjYVc2sRRKCZz3Pe9Yw",
    "maps_url": "https://www.google.com/maps/place/?q=place_id:ChIJK4S6RjYVc2sRRKCZz3Pe9Yw"
  },
  {
    "name": "c10 Reformer Pilates",
    "address": "Unit 3 building 3/335 Hillsborough Rd, Warners Bay NSW 2284, Australia",
    "suburb": "Warners Bay NSW 2284",
    "state": "NSW",
    "rating": 5,
    "reviews": 38,
    "lat": -32.9636275,
    "lng": 151.6591929,
    "place_id": "ChIJsZt4n1Y9c2sR8vPlUWpOg7o",
    "maps_url": "https://www.google.com/maps/place/?q=place_id:ChIJsZt4n1Y9c2sR8vPlUWpOg7o"
  },
  {
    "name": "KX Pilates Kotara",
    "address": "5A/88 Park Ave, Kotara NSW 2289, Australia",
    "suburb": "Kotara NSW 2289",
    "state": "NSW",
    "rating": 5,
    "reviews": 85,
    "lat": -32.9402559,
    "lng": 151.7101249,
    "place_id": "ChIJs-pCJO8Vc2sRFqgq6l05Nr0",
    "maps_url": "https://www.google.com/maps/place/?q=place_id:ChIJs-pCJO8Vc2sRFqgq6l05Nr0"
  },
  {
    "name": "Wickham St Studios Pilates And Yoga",
    "address": "12 Wickham St, Wickham NSW 2293, Australia",
    "suburb": "Wickham NSW 2293",
    "state": "NSW",
    "rating": 5,
    "reviews": 68,
    "lat": -32.9232172,
    "lng": 151.7589643,
    "place_id": "ChIJJxlSSbcVc2sRCqZ-nkTw6LQ",
    "maps_url": "https://www.google.com/maps/place/?q=place_id:ChIJJxlSSbcVc2sRCqZ-nkTw6LQ"
  },
  {
    "name": "TruForm",
    "address": "13/75 Bailey St, Adamstown NSW 2289, Australia",
    "suburb": "Adamstown NSW 2289",
    "state": "NSW",
    "rating": 5,
    "reviews": 43,
    "lat": -32.940703,
    "lng": 151.7167845,
    "place_id": "ChIJ81-tC0kVc2sRL6u7br43j2c",
    "maps_url": "https://www.google.com/maps/place/?q=place_id:ChIJ81-tC0kVc2sRL6u7br43j2c"
  },
  {
    "name": "Our Pilates Co",
    "address": "316 Charlestown Rd, Charlestown NSW 2290, Australia",
    "suburb": "Charlestown NSW 2290",
    "state": "NSW",
    "rating": 5,
    "reviews": 80,
    "lat": -32.9611874,
    "lng": 151.6944244,
    "place_id": "ChIJ70qLFj09c2sRB1wj-FjpgK0",
    "maps_url": "https://www.google.com/maps/place/?q=place_id:ChIJ70qLFj09c2sRB1wj-FjpgK0"
  },
  {
    "name": "ToneLAB: Reformer (The Junction)",
    "address": "11 Kenrick St, The Junction NSW 2291, Australia",
    "suburb": "The Junction NSW 2291",
    "state": "NSW",
    "rating": 4.9,
    "reviews": 46,
    "lat": -32.9382903,
    "lng": 151.7597296,
    "place_id": "ChIJAyXt7AcVc2sRJqjdYzp62LY",
    "maps_url": "https://www.google.com/maps/place/?q=place_id:ChIJAyXt7AcVc2sRJqjdYzp62LY"
  },
  {
    "name": "Sento Club",
    "address": "99 Elder St, Lambton NSW 2299, Australia",
    "suburb": "Lambton NSW 2299",
    "state": "NSW",
    "rating": 5,
    "reviews": 43,
    "lat": -32.911671,
    "lng": 151.7083168,
    "place_id": "ChIJ-zkaK6cVc2sR-2WWUP4i1wM",
    "maps_url": "https://www.google.com/maps/place/?q=place_id:ChIJ-zkaK6cVc2sR-2WWUP4i1wM"
  },
  {
    "name": "Pilates for Life",
    "address": "18 Hall St, Newcastle West NSW 2300, Australia",
    "suburb": "Newcastle West NSW 2300",
    "state": "NSW",
    "rating": 5,
    "reviews": 4,
    "lat": -32.9297556,
    "lng": 151.763843,
    "place_id": "ChIJXXQI0jkUc2sRPDajHLLcTGM",
    "maps_url": "https://www.google.com/maps/place/?q=place_id:ChIJXXQI0jkUc2sRPDajHLLcTGM"
  },
  {
    "name": "fluō movement NEWCASTLE GYROTONIC GYROKINESIS Pilates",
    "address": "Entry at Rear, of Building/151 Young Rd, Lambton NSW 2299, Australia",
    "suburb": "of Building/151 Young Rd",
    "state": "NSW",
    "rating": 5,
    "reviews": 11,
    "lat": -32.91097870000001,
    "lng": 151.7137161,
    "place_id": "ChIJGzVkeVAVc2sR0-yp6xF5ifU",
    "maps_url": "https://www.google.com/maps/place/?q=place_id:ChIJGzVkeVAVc2sR0-yp6xF5ifU"
  },
  {
    "name": "Lifestyle Pilates & Rehabilitation Studio PTY LTD",
    "address": "132 Garden Grove Parade, Adamstown Heights NSW 2289, Australia",
    "suburb": "Adamstown Heights NSW 2289",
    "state": "NSW",
    "rating": 5,
    "reviews": 8,
    "lat": -32.94080600000001,
    "lng": 151.7177413,
    "place_id": "ChIJGx4rr-YVc2sRgk-zzEifO1g",
    "maps_url": "https://www.google.com/maps/place/?q=place_id:ChIJGx4rr-YVc2sRgk-zzEifO1g"
  },
  {
    "name": "Studio Pilates International Wollongong",
    "address": "83 Campbell St, Wollongong NSW 2500, Australia",
    "suburb": "Wollongong NSW 2500",
    "state": "NSW",
    "rating": 5,
    "reviews": 81,
    "lat": -34.4198454,
    "lng": 150.8954692,
    "place_id": "ChIJm5Yx7YAZE2sR_4VET59xmow",
    "maps_url": "https://www.google.com/maps/place/?q=place_id:ChIJm5Yx7YAZE2sR_4VET59xmow"
  },
  {
    "name": "The Pilates Workshop",
    "address": "398 Keira St, Wollongong NSW 2500, Australia",
    "suburb": "Wollongong NSW 2500",
    "state": "NSW",
    "rating": 5,
    "reviews": 31,
    "lat": -34.4384572,
    "lng": 150.8908324,
    "place_id": "ChIJA9QaDDsZE2sRuLlqI7dr41c",
    "maps_url": "https://www.google.com/maps/place/?q=place_id:ChIJA9QaDDsZE2sRuLlqI7dr41c"
  },
  {
    "name": "Good Moves Studio Wollongong",
    "address": "3/71 Auburn St, Wollongong NSW 2500, Australia",
    "suburb": "Wollongong NSW 2500",
    "state": "NSW",
    "rating": 4.9,
    "reviews": 84,
    "lat": -34.4335238,
    "lng": 150.8884014,
    "place_id": "ChIJ4zVVFvEZE2sRTC7zY6pDDO0",
    "maps_url": "https://www.google.com/maps/place/?q=place_id:ChIJ4zVVFvEZE2sRTC7zY6pDDO0"
  },
  {
    "name": "Wollongong Pilates Studio",
    "address": "9/83-85 Railway St, Corrimal NSW 2518, Australia",
    "suburb": "Corrimal NSW 2518",
    "state": "NSW",
    "rating": 5,
    "reviews": 36,
    "lat": -34.373378,
    "lng": 150.89621,
    "place_id": "ChIJVYk159EeE2sR2SSVDRbTCwI",
    "maps_url": "https://www.google.com/maps/place/?q=place_id:ChIJVYk159EeE2sR2SSVDRbTCwI"
  },
  {
    "name": "Humans In Movement",
    "address": "U 4/36/42 Auburn St, Wollongong NSW 2500, Australia",
    "suburb": "Wollongong NSW 2500",
    "state": "NSW",
    "rating": 5,
    "reviews": 6,
    "lat": -34.4295513,
    "lng": 150.8886841,
    "place_id": "ChIJr_YBAfUZE2sRPsRjDJbmiOE",
    "maps_url": "https://www.google.com/maps/place/?q=place_id:ChIJr_YBAfUZE2sRPsRjDJbmiOE"
  },
  {
    "name": "Pilates Haus",
    "address": "Shop 1/98 Princes Hwy, Fairy Meadow NSW 2519, Australia",
    "suburb": "Fairy Meadow NSW 2519",
    "state": "NSW",
    "rating": 5,
    "reviews": 129,
    "lat": -34.393302,
    "lng": 150.8932635,
    "place_id": "ChIJmc8n5JsZE2sRmFAthFyA6OU",
    "maps_url": "https://www.google.com/maps/place/?q=place_id:ChIJmc8n5JsZE2sRmFAthFyA6OU"
  },
  {
    "name": "Pilates Co-Working Studio Wollongong",
    "address": "141 Kembla St, Wollongong NSW 2500, Australia",
    "suburb": "Wollongong NSW 2500",
    "state": "NSW",
    "rating": 5,
    "reviews": 4,
    "lat": -34.4339986,
    "lng": 150.8961858,
    "place_id": "ChIJXdyjkXMZE2sR0ZqtsyB0Ggk",
    "maps_url": "https://www.google.com/maps/place/?q=place_id:ChIJXdyjkXMZE2sR0ZqtsyB0Ggk"
  },
  {
    "name": "Scottie's Pilates",
    "address": "Level 1/115 Corrimal St, Wollongong NSW 2500, Australia",
    "suburb": "Wollongong NSW 2500",
    "state": "NSW",
    "rating": 5,
    "reviews": 10,
    "lat": -34.4248732,
    "lng": 150.9004186,
    "place_id": "ChIJIUzbwXsZE2sRM5nLpdJhpbY",
    "maps_url": "https://www.google.com/maps/place/?q=place_id:ChIJIUzbwXsZE2sRM5nLpdJhpbY"
  },
  {
    "name": "M Pilates and Movement",
    "address": "1/141 Kembla St, Wollongong NSW 2500, Australia",
    "suburb": "Wollongong NSW 2500",
    "state": "NSW",
    "rating": 5,
    "reviews": 5,
    "lat": -34.4339986,
    "lng": 150.8961858,
    "place_id": "ChIJb4DtaiMZE2sRHG2RFUzXFY8",
    "maps_url": "https://www.google.com/maps/place/?q=place_id:ChIJb4DtaiMZE2sRHG2RFUzXFY8"
  },
  {
    "name": "EQ Pilates",
    "address": "37-39 Chapman St, Fairy Meadow NSW 2519, Australia",
    "suburb": "Fairy Meadow NSW 2519",
    "state": "NSW",
    "rating": 5,
    "reviews": 37,
    "lat": -34.3875643,
    "lng": 150.8954556,
    "place_id": "ChIJ_wXvx2UZE2sRjznTAiAs0nU",
    "maps_url": "https://www.google.com/maps/place/?q=place_id:ChIJ_wXvx2UZE2sRjznTAiAs0nU"
  },
  {
    "name": "inLIFE Wellness Wollongong",
    "address": "38 Stewart St, Wollongong NSW 2500, Australia",
    "suburb": "Wollongong NSW 2500",
    "state": "NSW",
    "rating": 5,
    "reviews": 24,
    "lat": -34.427389,
    "lng": 150.8974466,
    "place_id": "ChIJnQaXswAZE2sR3aqJ0GqA7EE",
    "maps_url": "https://www.google.com/maps/place/?q=place_id:ChIJnQaXswAZE2sR3aqJ0GqA7EE"
  },
  {
    "name": "Refined Pilates",
    "address": "119 Wentworth St, Port Kembla NSW 2505, Australia",
    "suburb": "Port Kembla NSW 2505",
    "state": "NSW",
    "rating": 5,
    "reviews": 15,
    "lat": -34.4823976,
    "lng": 150.9025792,
    "place_id": "ChIJ2Z9e5loXE2sRoc7_Sg0hg1o",
    "maps_url": "https://www.google.com/maps/place/?q=place_id:ChIJ2Z9e5loXE2sRoc7_Sg0hg1o"
  },
  {
    "name": "Pilates Pavilion",
    "address": "100 Railway St, Corrimal NSW 2518, Australia",
    "suburb": "Corrimal NSW 2518",
    "state": "NSW",
    "rating": 4.9,
    "reviews": 35,
    "lat": -34.3730142,
    "lng": 150.8983302,
    "place_id": "ChIJLcTDl7QfE2sRRVeg9_ksxXA",
    "maps_url": "https://www.google.com/maps/place/?q=place_id:ChIJLcTDl7QfE2sRRVeg9_ksxXA"
  },
  {
    "name": "KAI YOGA & PILATES",
    "address": "172A & C, 172C Princes Hwy, Corrimal NSW 2518, Australia",
    "suburb": "172C Princes Hwy",
    "state": "NSW",
    "rating": 5,
    "reviews": 44,
    "lat": -34.3708834,
    "lng": 150.8977481,
    "place_id": "ChIJ26fqpvQfE2sRBib6XdLzUFo",
    "maps_url": "https://www.google.com/maps/place/?q=place_id:ChIJ26fqpvQfE2sRBib6XdLzUFo"
  },
  {
    "name": "Pilates Haus CBD",
    "address": "66/68 Keira St, Wollongong NSW 2500, Australia",
    "suburb": "Wollongong NSW 2500",
    "state": "NSW",
    "rating": 5,
    "reviews": 9,
    "lat": -34.4200391,
    "lng": 150.8939036,
    "place_id": "ChIJ80RdkPUZE2sRL4hDvJ7BAzk",
    "maps_url": "https://www.google.com/maps/place/?q=place_id:ChIJ80RdkPUZE2sRL4hDvJ7BAzk"
  },
  {
    "name": "Pilates Collective Balgownie",
    "address": "1/168 Balgownie Rd, Balgownie NSW 2519, Australia",
    "suburb": "Balgownie NSW 2519",
    "state": "NSW",
    "rating": 4.9,
    "reviews": 37,
    "lat": -34.3884357,
    "lng": 150.8771748,
    "place_id": "ChIJm96Yf0EZE2sRih2GalbvWUw",
    "maps_url": "https://www.google.com/maps/place/?q=place_id:ChIJm96Yf0EZE2sRih2GalbvWUw"
  },
  {
    "name": "Good Moves Studio Fernhill",
    "address": "Unit 1/12-16 Pringle Rd, Fernhill NSW 2519, Australia",
    "suburb": "Fernhill NSW 2519",
    "state": "NSW",
    "rating": 5,
    "reviews": 22,
    "lat": -34.385726,
    "lng": 150.891769,
    "place_id": "ChIJi5wV_coZE2sRaJKoF7iJtEg",
    "maps_url": "https://www.google.com/maps/place/?q=place_id:ChIJi5wV_coZE2sRaJKoF7iJtEg"
  },
  {
    "name": "Wellness Centre Wollongong",
    "address": "81 Keira St, Wollongong NSW 2500, Australia",
    "suburb": "Wollongong NSW 2500",
    "state": "NSW",
    "rating": 5,
    "reviews": 52,
    "lat": -34.4209679,
    "lng": 150.8940897,
    "place_id": "ChIJEar0lacZE2sRzlweeJW92CI",
    "maps_url": "https://www.google.com/maps/place/?q=place_id:ChIJEar0lacZE2sRzlweeJW92CI"
  },
  {
    "name": "Sun Studio Pilates",
    "address": "110 Wentworth St, Port Kembla NSW 2505, Australia",
    "suburb": "Port Kembla NSW 2505",
    "state": "NSW",
    "rating": 5,
    "reviews": 43,
    "lat": -34.4823632,
    "lng": 150.9034108,
    "place_id": "ChIJPdjge-IXE2sRON-qeOPaklE",
    "maps_url": "https://www.google.com/maps/place/?q=place_id:ChIJPdjge-IXE2sRON-qeOPaklE"
  },
  {
    "name": "The Pilates Workshop",
    "address": "3/6 Benson Ave, Shellharbour City Centre NSW 2528, Australia",
    "suburb": "Shellharbour City Centre NSW 2528",
    "state": "NSW",
    "rating": 5,
    "reviews": 10,
    "lat": -34.5672545,
    "lng": 150.8379845,
    "place_id": "ChIJE4-FWcsTE2sRe51MjzmFq0Y",
    "maps_url": "https://www.google.com/maps/place/?q=place_id:ChIJE4-FWcsTE2sRe51MjzmFq0Y"
  },
  {
    "name": "Mind Flow Pilates",
    "address": "Unit 3/36 Empire Bay Dr, Kincumber NSW 2251, Australia",
    "suburb": "Kincumber NSW 2251",
    "state": "NSW",
    "rating": 5,
    "reviews": 48,
    "lat": -33.4743778,
    "lng": 151.3940168,
    "place_id": "ChIJ40geSHW1cmsRmA50zt7QWgw",
    "maps_url": "https://www.google.com/maps/place/?q=place_id:ChIJ40geSHW1cmsRmA50zt7QWgw"
  },
  {
    "name": "Pilates with April",
    "address": "2/389 Avoca Dr, Green Point NSW 2251, Australia",
    "suburb": "Green Point NSW 2251",
    "state": "NSW",
    "rating": 5,
    "reviews": 79,
    "lat": -33.4630719,
    "lng": 151.3625696,
    "place_id": "ChIJ7_E4Ua-3cmsRy4g_LRFrBoo",
    "maps_url": "https://www.google.com/maps/place/?q=place_id:ChIJ7_E4Ua-3cmsRy4g_LRFrBoo"
  },
  {
    "name": "Flow & Flex Pilates studio",
    "address": "unit 2/170 Mann St, Gosford NSW 2250, Australia",
    "suburb": "Gosford NSW 2250",
    "state": "NSW",
    "rating": 5,
    "reviews": 56,
    "lat": -33.4253233,
    "lng": 151.3419008,
    "place_id": "ChIJaSd8aibLcmsRlwZDMgvlZ3w",
    "maps_url": "https://www.google.com/maps/place/?q=place_id:ChIJaSd8aibLcmsRlwZDMgvlZ3w"
  },
  {
    "name": "Reform Pilates Studio",
    "address": "316 Main Rd, Toukley NSW 2263, Australia",
    "suburb": "Toukley NSW 2263",
    "state": "NSW",
    "rating": 5,
    "reviews": 7,
    "lat": -33.264383,
    "lng": 151.5461449,
    "place_id": "ChIJu_MNmQ7bcmsRJGmjI017GJA",
    "maps_url": "https://www.google.com/maps/place/?q=place_id:ChIJu_MNmQ7bcmsRJGmjI017GJA"
  },
  {
    "name": "Renae Blackmore Pilates Studio",
    "address": "10 Dashwood Cl, Wamberal NSW 2260, Australia",
    "suburb": "Wamberal NSW 2260",
    "state": "NSW",
    "rating": 5,
    "reviews": 24,
    "lat": -33.4090636,
    "lng": 151.4535473,
    "place_id": "ChIJjejcow_JcmsRFfsvw7pkDhQ",
    "maps_url": "https://www.google.com/maps/place/?q=place_id:ChIJjejcow_JcmsRFfsvw7pkDhQ"
  },
  {
    "name": "Mindful Movement Pilates Studio",
    "address": "501 The Entrance Rd, Long Jetty NSW 2261, Australia",
    "suburb": "Long Jetty NSW 2261",
    "state": "NSW",
    "rating": 5,
    "reviews": 47,
    "lat": -33.3647935,
    "lng": 151.476808,
    "place_id": "ChIJt-QdbJ_JcmsRRk6IqWei-Ck",
    "maps_url": "https://www.google.com/maps/place/?q=place_id:ChIJt-QdbJ_JcmsRRk6IqWei-Ck"
  },
  {
    "name": "Fusion Pilates Terrigal",
    "address": "Suite 3/10-14 Church St, Terrigal NSW 2260, Australia",
    "suburb": "Terrigal NSW 2260",
    "state": "NSW",
    "rating": 5,
    "reviews": 46,
    "lat": -33.4476683,
    "lng": 151.4437978,
    "place_id": "ChIJLb66MfbJcmsRu0GVjkzhljg",
    "maps_url": "https://www.google.com/maps/place/?q=place_id:ChIJLb66MfbJcmsRu0GVjkzhljg"
  },
  {
    "name": "Sculpt with Madison",
    "address": "3/389 Avoca Dr, Green Point NSW 2251, Australia",
    "suburb": "Green Point NSW 2251",
    "state": "NSW",
    "rating": 5,
    "reviews": 7,
    "lat": -33.4630719,
    "lng": 151.3625696,
    "place_id": "ChIJo3PNe4O1cmsR5SwhtAN5YAA",
    "maps_url": "https://www.google.com/maps/place/?q=place_id:ChIJo3PNe4O1cmsR5SwhtAN5YAA"
  },
  {
    "name": "Compass Pilates",
    "address": "Level 1, 7/13-15 Thompson St, Long Jetty NSW 2261, Australia",
    "suburb": "7/13-15 Thompson St",
    "state": "NSW",
    "rating": 5,
    "reviews": 142,
    "lat": -33.357901,
    "lng": 151.486166,
    "place_id": "ChIJH2IMNDnPcmsRQjgtpFZUeDA",
    "maps_url": "https://www.google.com/maps/place/?q=place_id:ChIJH2IMNDnPcmsRQjgtpFZUeDA"
  },
  {
    "name": "Excelsia Studios",
    "address": "The Industry Grounds Unit 2 224 Central Coast Highway, Entrance/off Penrose Cres, Erina NSW 2250, Australia",
    "suburb": "Entrance/off Penrose Cres",
    "state": "NSW",
    "rating": 4.8,
    "reviews": 72,
    "lat": -33.4350471,
    "lng": 151.3894958,
    "place_id": "ChIJZxnpcnHKcmsRAhlztD_RI9I",
    "maps_url": "https://www.google.com/maps/place/?q=place_id:ChIJZxnpcnHKcmsRAhlztD_RI9I"
  },
  {
    "name": "Recalibrate Pilates",
    "address": "2/43 Pacific Hwy, Ourimbah NSW 2258, Australia",
    "suburb": "Ourimbah NSW 2258",
    "state": "NSW",
    "rating": 5,
    "reviews": 11,
    "lat": -33.3611589,
    "lng": 151.3697972,
    "place_id": "ChIJI6LYwL3LcmsRt7Dsv813JTk",
    "maps_url": "https://www.google.com/maps/place/?q=place_id:ChIJI6LYwL3LcmsRt7Dsv813JTk"
  },
  {
    "name": "Vigour Reformer Pilates Studio",
    "address": "8 Brooks Ave, Wyoming NSW 2250, Australia",
    "suburb": "Wyoming NSW 2250",
    "state": "NSW",
    "rating": 5,
    "reviews": 10,
    "lat": -33.4008407,
    "lng": 151.3478613,
    "place_id": "ChIJb3JcVgXLcmsRvcp85J3mg-A",
    "maps_url": "https://www.google.com/maps/place/?q=place_id:ChIJb3JcVgXLcmsRvcp85J3mg-A"
  },
  {
    "name": "Pilates Cartel Lake Munmorah",
    "address": "2/1 Quisenberry Dr, Lake Munmorah NSW 2259, Australia",
    "suburb": "Lake Munmorah NSW 2259",
    "state": "NSW",
    "rating": 5,
    "reviews": 55,
    "lat": -33.1924389,
    "lng": 151.5795367,
    "place_id": "ChIJ02BpMr_ZcmsReLQKDvfRPqo",
    "maps_url": "https://www.google.com/maps/place/?q=place_id:ChIJ02BpMr_ZcmsReLQKDvfRPqo"
  },
  {
    "name": "Pilates on the Lane",
    "address": "Nooree Ln, Avoca Beach NSW 2251, Australia",
    "suburb": "Avoca Beach NSW 2251",
    "state": "NSW",
    "rating": 5,
    "reviews": 20,
    "lat": -33.4658034,
    "lng": 151.424379,
    "place_id": "ChIJOxkGXmm3cmsRmvE-bYGdQDM",
    "maps_url": "https://www.google.com/maps/place/?q=place_id:ChIJOxkGXmm3cmsRmvE-bYGdQDM"
  },
  {
    "name": "Soulforma Studios",
    "address": "1 Dulmison Ave, Wyong NSW 2259, Australia",
    "suburb": "Wyong NSW 2259",
    "state": "NSW",
    "rating": 5,
    "reviews": 36,
    "lat": -33.268725,
    "lng": 151.4410394,
    "place_id": "ChIJ89qH3yPRcmsRSAM48h3SIAo",
    "maps_url": "https://www.google.com/maps/place/?q=place_id:ChIJ89qH3yPRcmsRSAM48h3SIAo"
  },
  {
    "name": "Life Fit Pilates",
    "address": "Tania Dr, Point Clare NSW 2250, Australia",
    "suburb": "Point Clare NSW 2250",
    "state": "NSW",
    "rating": 5,
    "reviews": 6,
    "lat": -33.4392495,
    "lng": 151.3233769,
    "place_id": "ChIJF6_7z-9LDWsR__JTq1zQ4Q8",
    "maps_url": "https://www.google.com/maps/place/?q=place_id:ChIJF6_7z-9LDWsR__JTq1zQ4Q8"
  },
  {
    "name": "FORMAT PILATES",
    "address": "Pacific St, Toowoon Bay NSW 2261, Australia",
    "suburb": "Toowoon Bay NSW 2261",
    "state": "NSW",
    "rating": 5,
    "reviews": 8,
    "lat": -33.359783,
    "lng": 151.4954912,
    "place_id": "ChIJH97ua9rPcmsRf_udwun9PmY",
    "maps_url": "https://www.google.com/maps/place/?q=place_id:ChIJH97ua9rPcmsRf_udwun9PmY"
  },
  {
    "name": "The Good Well Studios",
    "address": "8/4 Ilya Ave, Erina NSW 2250, Australia",
    "suburb": "Erina NSW 2250",
    "state": "NSW",
    "rating": 5,
    "reviews": 189,
    "lat": -33.439521,
    "lng": 151.3832692,
    "place_id": "ChIJ5USTanjKcmsRc5lI2zLzzCE",
    "maps_url": "https://www.google.com/maps/place/?q=place_id:ChIJ5USTanjKcmsRc5lI2zLzzCE"
  },
  {
    "name": "Pilates at Sarahs",
    "address": "Shop 3/41 Brisbane Water Dr, Point Clare NSW 2250, Australia",
    "suburb": "Point Clare NSW 2250",
    "state": "NSW",
    "rating": 4.9,
    "reviews": 14,
    "lat": -33.4467124,
    "lng": 151.3274152,
    "place_id": "ChIJiy8CG6TLcmsRYBQQKFuc1Ts",
    "maps_url": "https://www.google.com/maps/place/?q=place_id:ChIJiy8CG6TLcmsRYBQQKFuc1Ts"
  },
  {
    "name": "Belle Movement Pilates Personal Training - Umina Beach",
    "address": "254 West St, Umina Beach NSW 2257, Australia",
    "suburb": "Umina Beach NSW 2257",
    "state": "NSW",
    "rating": 5,
    "reviews": 108,
    "lat": -33.5219556,
    "lng": 151.321244,
    "place_id": "ChIJL2uR_sZNDWsRZPC9fMmzvik",
    "maps_url": "https://www.google.com/maps/place/?q=place_id:ChIJL2uR_sZNDWsRZPC9fMmzvik"
  },
  {
    "name": "AURA Pilates & Fitness",
    "address": "10/103 George St, Parramatta NSW 2150, Australia",
    "suburb": "Parramatta NSW 2150",
    "state": "NSW",
    "rating": 5,
    "reviews": 228,
    "lat": -33.8151888,
    "lng": 151.0096226,
    "place_id": "ChIJRcKfEf-jEmsRlN31nuIoDQk",
    "maps_url": "https://www.google.com/maps/place/?q=place_id:ChIJRcKfEf-jEmsRlN31nuIoDQk"
  },
  {
    "name": "Align Studios",
    "address": "Shop 2/20-24 Sorrell St, Parramatta NSW 2150, Australia",
    "suburb": "Parramatta NSW 2150",
    "state": "NSW",
    "rating": 5,
    "reviews": 147,
    "lat": -33.8096355,
    "lng": 151.0070769,
    "place_id": "ChIJV8cZTyLxEmsRY5aO5VXhL18",
    "maps_url": "https://www.google.com/maps/place/?q=place_id:ChIJV8cZTyLxEmsRY5aO5VXhL18"
  },
  {
    "name": "Sky J Pilates Parramatta",
    "address": "25 Sorrell St, Parramatta NSW 2150, Australia",
    "suburb": "Parramatta NSW 2150",
    "state": "NSW",
    "rating": 4.9,
    "reviews": 61,
    "lat": -33.8074529,
    "lng": 151.0069534,
    "place_id": "ChIJIwSDGU2jEmsRzSWRVRAPghs",
    "maps_url": "https://www.google.com/maps/place/?q=place_id:ChIJIwSDGU2jEmsRzSWRVRAPghs"
  },
  {
    "name": "KX Pilates Parramatta",
    "address": "Level 1/216/218 Church St, Parramatta NSW 2150, Australia",
    "suburb": "Parramatta NSW 2150",
    "state": "NSW",
    "rating": 4.6,
    "reviews": 86,
    "lat": -33.8146353,
    "lng": 151.0031775,
    "place_id": "ChIJT72rkhGjEmsRuPGkqeKZiTk",
    "maps_url": "https://www.google.com/maps/place/?q=place_id:ChIJT72rkhGjEmsRuPGkqeKZiTk"
  },
  {
    "name": "Movement Collective Parramatta",
    "address": "9/88 Church St, Enter via, West Village, Fire Horse Ln, Parramatta NSW 2150, Australia",
    "suburb": "Enter via",
    "state": "NSW",
    "rating": 5,
    "reviews": 32,
    "lat": -33.8198063,
    "lng": 151.0042163,
    "place_id": "ChIJAUKGYICoEmsRzi-A14VkJZo",
    "maps_url": "https://www.google.com/maps/place/?q=place_id:ChIJAUKGYICoEmsRzi-A14VkJZo"
  },
  {
    "name": "inLIFE Wellness Parramatta",
    "address": "1/639 Church St, Parramatta NSW 2150, Australia",
    "suburb": "Parramatta NSW 2150",
    "state": "NSW",
    "rating": 4.9,
    "reviews": 59,
    "lat": -33.7939186,
    "lng": 150.9998559,
    "place_id": "ChIJbdHmw66jEmsRbKDUl82Ym9s",
    "maps_url": "https://www.google.com/maps/place/?q=place_id:ChIJbdHmw66jEmsRbKDUl82Ym9s"
  },
  {
    "name": "Pilates Parramatta",
    "address": "95 Victoria Rd, Parramatta NSW 2150, Australia",
    "suburb": "Parramatta NSW 2150",
    "state": "NSW",
    "rating": 4.4,
    "reviews": 15,
    "lat": -33.808883,
    "lng": 151.0159041,
    "place_id": "ChIJS3NAuKGjEmsR46KkMjVjx8c",
    "maps_url": "https://www.google.com/maps/place/?q=place_id:ChIJS3NAuKGjEmsR46KkMjVjx8c"
  },
  {
    "name": "Core Lab Pilates",
    "address": "29 Crescent St, Holroyd NSW 2142, Australia",
    "suburb": "Holroyd NSW 2142",
    "state": "NSW",
    "rating": 5,
    "reviews": 10,
    "lat": -33.8302415,
    "lng": 150.9993366,
    "place_id": "ChIJt-RPg02jEmsRcT1q3osUcCI",
    "maps_url": "https://www.google.com/maps/place/?q=place_id:ChIJt-RPg02jEmsRcT1q3osUcCI"
  },
  {
    "name": "Active Movement Studio Parramatta",
    "address": "Suite 1, Ground Floor/111 Phillip St, Parramatta NSW 2150, Australia",
    "suburb": "Ground Floor/111 Phillip St",
    "state": "NSW",
    "rating": 5,
    "reviews": 143,
    "lat": -33.8139723,
    "lng": 151.0094444,
    "place_id": "ChIJeYFSTBijEmsRTiLHgZtuVgM",
    "maps_url": "https://www.google.com/maps/place/?q=place_id:ChIJeYFSTBijEmsRTiLHgZtuVgM"
  },
  {
    "name": "Greater Wellness Pilates",
    "address": "Shop 7/181 Church St, Parramatta NSW 2150, Australia",
    "suburb": "Parramatta NSW 2150",
    "state": "NSW",
    "rating": 5,
    "reviews": 1,
    "lat": -33.8163442,
    "lng": 151.0029971,
    "place_id": "ChIJr3oyy2KjEmsR0HaWPYCKRbk",
    "maps_url": "https://www.google.com/maps/place/?q=place_id:ChIJr3oyy2KjEmsR0HaWPYCKRbk"
  },
  {
    "name": "ReformX Pilates North Parramatta",
    "address": "460 Church St, North Parramatta NSW 2151, Australia",
    "suburb": "North Parramatta NSW 2151",
    "state": "NSW",
    "rating": 4.7,
    "reviews": 25,
    "lat": -33.8053867,
    "lng": 151.006294,
    "place_id": "ChIJxYJtcRWjEmsRLTBw0cKuAsg",
    "maps_url": "https://www.google.com/maps/place/?q=place_id:ChIJxYJtcRWjEmsRLTBw0cKuAsg"
  },
  {
    "name": "The UP Pilates",
    "address": "68 Kirby St, Rydalmere NSW 2116, Australia",
    "suburb": "Rydalmere NSW 2116",
    "state": "NSW",
    "rating": 5,
    "reviews": 36,
    "lat": -33.8085433,
    "lng": 151.048293,
    "place_id": "ChIJq4dgmT-jEmsRPad6kwKkWfU",
    "maps_url": "https://www.google.com/maps/place/?q=place_id:ChIJq4dgmT-jEmsRPad6kwKkWfU"
  },
  {
    "name": "PilatesBarre Lidcombe",
    "address": "Level 1/Shop 122/92 Parramatta Rd, Lidcombe NSW 2141, Australia",
    "suburb": "Lidcombe NSW 2141",
    "state": "NSW",
    "rating": 4.9,
    "reviews": 405,
    "lat": -33.8487833,
    "lng": 151.0484293,
    "place_id": "ChIJ2fS_eRu7EmsRATAMaQ2oums",
    "maps_url": "https://www.google.com/maps/place/?q=place_id:ChIJ2fS_eRu7EmsRATAMaQ2oums"
  },
  {
    "name": "Bforty Pilates Constitution Hill",
    "address": "16 Hollis St, Constitution Hill NSW 2145, Australia",
    "suburb": "Constitution Hill NSW 2145",
    "state": "NSW",
    "rating": 4.9,
    "reviews": 87,
    "lat": -33.7922199,
    "lng": 150.9742881,
    "place_id": "ChIJR2U1p_GjEmsRWTYoNGqb3dY",
    "maps_url": "https://www.google.com/maps/place/?q=place_id:ChIJR2U1p_GjEmsRWTYoNGqb3dY"
  },
  {
    "name": "Wellness Pilates Castle Hill",
    "address": "Suite 5-6 and Suite 11/261 Old Northern Rd, Castle Hill NSW 2154, Australia",
    "suburb": "Castle Hill NSW 2154",
    "state": "NSW",
    "rating": 5,
    "reviews": 115,
    "lat": -33.7344246,
    "lng": 151.0038745,
    "place_id": "ChIJSbmOAmKhEmsRe10K9YC7vE8",
    "maps_url": "https://www.google.com/maps/place/?q=place_id:ChIJSbmOAmKhEmsRe10K9YC7vE8"
  },
  {
    "name": "United Pilates Eastwood",
    "address": "1/161 Rowe St, Eastwood NSW 2122, Australia",
    "suburb": "Eastwood NSW 2122",
    "state": "NSW",
    "rating": 4.9,
    "reviews": 71,
    "lat": -33.7914279,
    "lng": 151.0805314,
    "place_id": "ChIJWy_LLqqlEmsRNgN1EhWIWEY",
    "maps_url": "https://www.google.com/maps/place/?q=place_id:ChIJWy_LLqqlEmsRNgN1EhWIWEY"
  },
  {
    "name": "Wellness Pilates Eastwood",
    "address": "103, Level 1/2 Rowe St, Eastwood NSW 2122, Australia",
    "suburb": "Level 1/2 Rowe St",
    "state": "NSW",
    "rating": 5,
    "reviews": 101,
    "lat": -33.7908645,
    "lng": 151.0862133,
    "place_id": "ChIJLZ1RAYylEmsRSUrn6AoAeeM",
    "maps_url": "https://www.google.com/maps/place/?q=place_id:ChIJLZ1RAYylEmsRSUrn6AoAeeM"
  },
  {
    "name": "Genesis Health and Fitness",
    "address": "91-95 Fennell St, Parramatta NSW 2150, Australia",
    "suburb": "Parramatta NSW 2150",
    "state": "NSW",
    "rating": 4.1,
    "reviews": 326,
    "lat": -33.8070647,
    "lng": 151.0137915,
    "place_id": "ChIJgQgmJQOjEmsR5QhAXL2CKa8",
    "maps_url": "https://www.google.com/maps/place/?q=place_id:ChIJgQgmJQOjEmsR5QhAXL2CKa8"
  },
  {
    "name": "Universal Fitness Group",
    "address": "Level 1, 12 Darcy Street, 4 Parramatta Sq, Parramatta NSW 2150, Australia",
    "suburb": "12 Darcy Street",
    "state": "NSW",
    "rating": 4.6,
    "reviews": 180,
    "lat": -33.8165526,
    "lng": 151.0042635,
    "place_id": "ChIJpdYV2CGjEmsRaOezNB-hbsM",
    "maps_url": "https://www.google.com/maps/place/?q=place_id:ChIJpdYV2CGjEmsRaOezNB-hbsM"
  },
  {
    "name": "D Rizk",
    "address": "Marsden St, Parramatta NSW 2150, Australia",
    "suburb": "Parramatta NSW 2150",
    "state": "NSW",
    "rating": null,
    "reviews": 0,
    "lat": -33.8183617,
    "lng": 151.000568,
    "place_id": "ChIJhblYJPqjEmsRV5XZ1Av1ZGA",
    "maps_url": "https://www.google.com/maps/place/?q=place_id:ChIJhblYJPqjEmsRV5XZ1Av1ZGA"
  },
  {
    "name": "Melbourne Yoga and Pilates",
    "address": "Ground floor, 428 Little Bourke St, Melbourne VIC 3000, Australia",
    "suburb": "428 Little Bourke St",
    "state": "VIC",
    "rating": 4.7,
    "reviews": 111,
    "lat": -37.8139717,
    "lng": 144.9597639,
    "place_id": "ChIJZ9UjuUpd1moR5gbVhHkQARA",
    "maps_url": "https://www.google.com/maps/place/?q=place_id:ChIJZ9UjuUpd1moR5gbVhHkQARA"
  },
  {
    "name": "Villa Pilates CBD",
    "address": "2/322 Little Lonsdale St, Melbourne VIC 3000, Australia",
    "suburb": "Melbourne VIC 3000",
    "state": "VIC",
    "rating": 4.8,
    "reviews": 59,
    "lat": -37.811686,
    "lng": 144.960078,
    "place_id": "ChIJr5gm45xd1moRLYQeneBdj_g",
    "maps_url": "https://www.google.com/maps/place/?q=place_id:ChIJr5gm45xd1moRLYQeneBdj_g"
  },
  {
    "name": "Caro Flow Pilates",
    "address": "level 1/226 Swanston St, Melbourne VIC 3000, Australia",
    "suburb": "Melbourne VIC 3000",
    "state": "VIC",
    "rating": 5,
    "reviews": 2,
    "lat": -37.8125487,
    "lng": 144.965509,
    "place_id": "ChIJH9V12K9D1moR8IwSupd556Y",
    "maps_url": "https://www.google.com/maps/place/?q=place_id:ChIJH9V12K9D1moR8IwSupd556Y"
  },
  {
    "name": "@pilates 24/7 South Melbourne",
    "address": "187 Ferrars St, South Melbourne VIC 3205, Australia",
    "suburb": "South Melbourne VIC 3205",
    "state": "VIC",
    "rating": 5,
    "reviews": 27,
    "lat": -37.8304067,
    "lng": 144.9540783,
    "place_id": "ChIJMQr3UWFn1moRethvcKKxcok",
    "maps_url": "https://www.google.com/maps/place/?q=place_id:ChIJMQr3UWFn1moRethvcKKxcok"
  },
  {
    "name": "Upstate South Melbourne",
    "address": "Unit 1/206 Clarendon St, South Melbourne VIC 3205, Australia",
    "suburb": "South Melbourne VIC 3205",
    "state": "VIC",
    "rating": 4.8,
    "reviews": 230,
    "lat": -37.8310729,
    "lng": 144.9594141,
    "place_id": "ChIJgXvKMGhn1moRYHJNkX_ukKI",
    "maps_url": "https://www.google.com/maps/place/?q=place_id:ChIJgXvKMGhn1moRYHJNkX_ukKI"
  },
  {
    "name": "Upstate Studios",
    "address": "Floor 1/62-70 Johnston St, Fitzroy VIC 3065, Australia",
    "suburb": "Fitzroy VIC 3065",
    "state": "VIC",
    "rating": 4.9,
    "reviews": 791,
    "lat": -37.7983279,
    "lng": 144.9767913,
    "place_id": "ChIJu_CTZ_VD1moRpkyCtkNi-so",
    "maps_url": "https://www.google.com/maps/place/?q=place_id:ChIJu_CTZ_VD1moRpkyCtkNi-so"
  },
  {
    "name": "Harmony Pilates Studio",
    "address": "69 Victoria Ave, Albert Park VIC 3206, Australia",
    "suburb": "Albert Park VIC 3206",
    "state": "VIC",
    "rating": 5,
    "reviews": 64,
    "lat": -37.8441244,
    "lng": 144.9515463,
    "place_id": "ChIJ5W2cBMdn1moRO7g35iBYRdg",
    "maps_url": "https://www.google.com/maps/place/?q=place_id:ChIJ5W2cBMdn1moRO7g35iBYRdg"
  },
  {
    "name": "Villa Pilates Carlton",
    "address": "Level 1/231 Queensberry St, Carlton VIC 3053, Australia",
    "suburb": "Carlton VIC 3053",
    "state": "VIC",
    "rating": 4.8,
    "reviews": 64,
    "lat": -37.804573,
    "lng": 144.961036,
    "place_id": "ChIJbVdKUd9D1moRV6fHTkbqpTE",
    "maps_url": "https://www.google.com/maps/place/?q=place_id:ChIJbVdKUd9D1moRV6fHTkbqpTE"
  },
  {
    "name": "Aleenta Health Club I Reformer Pilates (Melb CBD)",
    "address": "next to endota spa, St. James Square, 4/555 Bourke St, Melbourne VIC 3000, Australia",
    "suburb": "St. James Square",
    "state": "VIC",
    "rating": 4.7,
    "reviews": 95,
    "lat": -37.8164987,
    "lng": 144.9576215,
    "place_id": "ChIJKy13f0xd1moRCHpyPiHEQdM",
    "maps_url": "https://www.google.com/maps/place/?q=place_id:ChIJKy13f0xd1moRCHpyPiHEQdM"
  },
  {
    "name": "Aligned for Life Pilates",
    "address": "4/370 Little Bourke St, Melbourne VIC 3000, Australia",
    "suburb": "Melbourne VIC 3000",
    "state": "VIC",
    "rating": 5,
    "reviews": 72,
    "lat": -37.8134723,
    "lng": 144.9618094,
    "place_id": "ChIJyw4lN7VC1moRM9dqI2WDwNY",
    "maps_url": "https://www.google.com/maps/place/?q=place_id:ChIJyw4lN7VC1moRM9dqI2WDwNY"
  },
  {
    "name": "RISE Pilates North Melbourne",
    "address": "128 Peel St, North Melbourne VIC 3051, Australia",
    "suburb": "North Melbourne VIC 3051",
    "state": "VIC",
    "rating": 4.5,
    "reviews": 34,
    "lat": -37.8051164,
    "lng": 144.9564206,
    "place_id": "ChIJfRgo7Itd1moRO5U54YLO6XE",
    "maps_url": "https://www.google.com/maps/place/?q=place_id:ChIJfRgo7Itd1moRO5U54YLO6XE"
  },
  {
    "name": "Good Times Pilates Fitzroy",
    "address": "Unit 5/19-35 Gertrude St, Fitzroy VIC 3065, Australia",
    "suburb": "Fitzroy VIC 3065",
    "state": "VIC",
    "rating": 5,
    "reviews": 87,
    "lat": -37.805387,
    "lng": 144.975267,
    "place_id": "ChIJZ62lvW1D1moRcgSbrTN53Pk",
    "maps_url": "https://www.google.com/maps/place/?q=place_id:ChIJZ62lvW1D1moRcgSbrTN53Pk"
  },
  {
    "name": "JD Pilates",
    "address": "525 Collins St, Melbourne VIC 3000, Australia",
    "suburb": "Melbourne VIC 3000",
    "state": "VIC",
    "rating": 4.8,
    "reviews": 19,
    "lat": -37.81843,
    "lng": 144.9573117,
    "place_id": "ChIJ35fGvk1d1moRRwkAWr4eBjI",
    "maps_url": "https://www.google.com/maps/place/?q=place_id:ChIJ35fGvk1d1moRRwkAWr4eBjI"
  },
  {
    "name": "KX Pilates Melbourne CBD North",
    "address": "15 MacKenzie St, Melbourne VIC 3000, Australia",
    "suburb": "Melbourne VIC 3000",
    "state": "VIC",
    "rating": 4.8,
    "reviews": 20,
    "lat": -37.8075233,
    "lng": 144.9673338,
    "place_id": "ChIJb70tpUND1moRIBflPogB_gI",
    "maps_url": "https://www.google.com/maps/place/?q=place_id:ChIJb70tpUND1moRIBflPogB_gI"
  },
  {
    "name": "Strong Pilates Port Melbourne",
    "address": "1/35 Crockford St, Port Melbourne VIC 3207, Australia",
    "suburb": "Port Melbourne VIC 3207",
    "state": "VIC",
    "rating": 4.9,
    "reviews": 60,
    "lat": -37.8340786,
    "lng": 144.9477433,
    "place_id": "ChIJA511zqRn1moRWOw9PmkL65E",
    "maps_url": "https://www.google.com/maps/place/?q=place_id:ChIJA511zqRn1moRWOw9PmkL65E"
  },
  {
    "name": "The Movement Refinery",
    "address": "Ground floor 268/270 Rosslyn St, West Melbourne VIC 3003, Australia",
    "suburb": "West Melbourne VIC 3003",
    "state": "VIC",
    "rating": 5,
    "reviews": 55,
    "lat": -37.8105468,
    "lng": 144.9461919,
    "place_id": "ChIJy8dEiRVd1moRPeNWly75qAw",
    "maps_url": "https://www.google.com/maps/place/?q=place_id:ChIJy8dEiRVd1moRPeNWly75qAw"
  },
  {
    "name": "Pilates on Collins",
    "address": "12 Collins St, Melbourne VIC 3000, Australia",
    "suburb": "Melbourne VIC 3000",
    "state": "VIC",
    "rating": 4.7,
    "reviews": 13,
    "lat": -37.8133526,
    "lng": 144.9732761,
    "place_id": "ChIJnY8uMcZC1moRHoHbV5QOYIM",
    "maps_url": "https://www.google.com/maps/place/?q=place_id:ChIJnY8uMcZC1moRHoHbV5QOYIM"
  },
  {
    "name": "Upstate South Yarra",
    "address": "447 Chapel St, South Yarra VIC 3141, Australia",
    "suburb": "South Yarra VIC 3141",
    "state": "VIC",
    "rating": 4.9,
    "reviews": 280,
    "lat": -37.8439871,
    "lng": 144.9943811,
    "place_id": "ChIJ9Wriu_Jp1moRos7mPIYWYmI",
    "maps_url": "https://www.google.com/maps/place/?q=place_id:ChIJ9Wriu_Jp1moRos7mPIYWYmI"
  },
  {
    "name": "CorePlus North Melbourne",
    "address": "493-495 Queensberry St, North Melbourne VIC 3051, Australia",
    "suburb": "North Melbourne VIC 3051",
    "state": "VIC",
    "rating": 4.9,
    "reviews": 90,
    "lat": -37.8033968,
    "lng": 144.9508118,
    "place_id": "ChIJ--jrzTld1moRg6jX6xqMhwY",
    "maps_url": "https://www.google.com/maps/place/?q=place_id:ChIJ--jrzTld1moRg6jX6xqMhwY"
  },
  {
    "name": "F2 Collective | Pilates Studio",
    "address": "Suite 105/6 Bluestone Wy, Brunswick East VIC 3057, Australia",
    "suburb": "Brunswick East VIC 3057",
    "state": "VIC",
    "rating": 5,
    "reviews": 30,
    "lat": -37.7717258,
    "lng": 144.9789375,
    "place_id": "ChIJnS7hmftD1moR0cxpnbN3iSU",
    "maps_url": "https://www.google.com/maps/place/?q=place_id:ChIJnS7hmftD1moR0cxpnbN3iSU"
  },
  {
    "name": "@Pilates Geelong",
    "address": "88 Ryrie St, Geelong VIC 3220, Australia",
    "suburb": "Geelong VIC 3220",
    "state": "VIC",
    "rating": 5,
    "reviews": 27,
    "lat": -38.1488601,
    "lng": 144.3574098,
    "place_id": "ChIJ_z5GSQAV1GoRt_nlyeihYz0",
    "maps_url": "https://www.google.com/maps/place/?q=place_id:ChIJ_z5GSQAV1GoRt_nlyeihYz0"
  },
  {
    "name": "CorePlus Geelong - Pilates Yoga Reformer",
    "address": "401 Moorabool St, Geelong VIC 3220, Australia",
    "suburb": "Geelong VIC 3220",
    "state": "VIC",
    "rating": 4.7,
    "reviews": 34,
    "lat": -38.1590226,
    "lng": 144.3556352,
    "place_id": "ChIJAZms4pYV1GoRvkCA9gXwKSk",
    "maps_url": "https://www.google.com/maps/place/?q=place_id:ChIJAZms4pYV1GoRvkCA9gXwKSk"
  },
  {
    "name": "Abode Pilates",
    "address": "Shop 8/329 Pakington St, Newtown VIC 3220, Australia",
    "suburb": "Newtown VIC 3220",
    "state": "VIC",
    "rating": 5,
    "reviews": 9,
    "lat": -38.1564939,
    "lng": 144.3449929,
    "place_id": "ChIJ0whXnKcT1GoR8tupVWEO1Ds",
    "maps_url": "https://www.google.com/maps/place/?q=place_id:ChIJ0whXnKcT1GoR8tupVWEO1Ds"
  },
  {
    "name": "Upstate Geelong Mat",
    "address": "205 Moorabool St, Geelong VIC 3220, Australia",
    "suburb": "Geelong VIC 3220",
    "state": "VIC",
    "rating": 4.9,
    "reviews": 772,
    "lat": -38.1505589,
    "lng": 144.3594375,
    "place_id": "ChIJM8qFGhwU1GoR--4sNW_iSf8",
    "maps_url": "https://www.google.com/maps/place/?q=place_id:ChIJM8qFGhwU1GoR--4sNW_iSf8"
  },
  {
    "name": "Upstate Geelong Boxing and Reformer",
    "address": "186 Moorabool St, Geelong VIC 3220, Australia",
    "suburb": "Geelong VIC 3220",
    "state": "VIC",
    "rating": 4.9,
    "reviews": 326,
    "lat": -38.1504429,
    "lng": 144.3590081,
    "place_id": "ChIJPYY8rNMV1GoRUsnqrG6DwKI",
    "maps_url": "https://www.google.com/maps/place/?q=place_id:ChIJPYY8rNMV1GoRUsnqrG6DwKI"
  },
  {
    "name": "Strong Pilates Geelong",
    "address": "T12/400 Pakington St, Newtown VIC 3220, Australia",
    "suburb": "Newtown VIC 3220",
    "state": "VIC",
    "rating": 5,
    "reviews": 40,
    "lat": -38.1617405,
    "lng": 144.3449255,
    "place_id": "ChIJBYeyAxwT1GoRSZxZ9LAd914",
    "maps_url": "https://www.google.com/maps/place/?q=place_id:ChIJBYeyAxwT1GoRSZxZ9LAd914"
  },
  {
    "name": "Bed Pilates",
    "address": "57 W Fyans St, Newtown VIC 3220, Australia",
    "suburb": "Newtown VIC 3220",
    "state": "VIC",
    "rating": 5,
    "reviews": 41,
    "lat": -38.1598129,
    "lng": 144.3454759,
    "place_id": "ChIJz9jSTrQT1GoRJYiJdOoTYjQ",
    "maps_url": "https://www.google.com/maps/place/?q=place_id:ChIJz9jSTrQT1GoRJYiJdOoTYjQ"
  },
  {
    "name": "Geelong Pilates Studio",
    "address": "7 shop/1 Belle Vue Ave, Highton VIC 3216, Australia",
    "suburb": "Highton VIC 3216",
    "state": "VIC",
    "rating": 4.9,
    "reviews": 24,
    "lat": -38.1719934,
    "lng": 144.3246813,
    "place_id": "ChIJoaQeLQsT1GoR6KE_nZgnz1M",
    "maps_url": "https://www.google.com/maps/place/?q=place_id:ChIJoaQeLQsT1GoR6KE_nZgnz1M"
  },
  {
    "name": "MONDO Reformer Pilates",
    "address": "Anglesea Terrace, Geelong West VIC 3218, Australia",
    "suburb": "Geelong West VIC 3218",
    "state": "VIC",
    "rating": 5,
    "reviews": 13,
    "lat": -38.1368479,
    "lng": 144.3503496,
    "place_id": "ChIJPygwvskX1GoRjstU374NuG8",
    "maps_url": "https://www.google.com/maps/place/?q=place_id:ChIJPygwvskX1GoRjstU374NuG8"
  },
  {
    "name": "The Virtual Reformer Pilates Room",
    "address": "Shop 6/65-71 Barrabool Rd, Highton VIC 3216, Australia",
    "suburb": "Highton VIC 3216",
    "state": "VIC",
    "rating": 4.9,
    "reviews": 16,
    "lat": -38.1715475,
    "lng": 144.3247225,
    "place_id": "ChIJ4aoIxmsT1GoROdjkOO3qJeU",
    "maps_url": "https://www.google.com/maps/place/?q=place_id:ChIJ4aoIxmsT1GoROdjkOO3qJeU"
  },
  {
    "name": "Geelong Clinical Pilates",
    "address": "Shop 1C/110/122 High St, Belmont VIC 3216, Australia",
    "suburb": "Belmont VIC 3216",
    "state": "VIC",
    "rating": 5,
    "reviews": 8,
    "lat": -38.1721151,
    "lng": 144.3452124,
    "place_id": "ChIJs1GKRHwT1GoR_hJ5zoEhJMA",
    "maps_url": "https://www.google.com/maps/place/?q=place_id:ChIJs1GKRHwT1GoR_hJ5zoEhJMA"
  },
  {
    "name": "ZOO PILATES",
    "address": "5 Forrest St, Geelong VIC 3220, Australia",
    "suburb": "Geelong VIC 3220",
    "state": "VIC",
    "rating": 5,
    "reviews": 7,
    "lat": -38.1625868,
    "lng": 144.3667657,
    "place_id": "ChIJn0Au8o0V1GoRIkTtXYcnI_c",
    "maps_url": "https://www.google.com/maps/place/?q=place_id:ChIJn0Au8o0V1GoRIkTtXYcnI_c"
  },
  {
    "name": "Bay City Pilates",
    "address": "368 Latrobe Terrace, Newtown VIC 3220, Australia",
    "suburb": "Newtown VIC 3220",
    "state": "VIC",
    "rating": 5,
    "reviews": 2,
    "lat": -38.1556493,
    "lng": 144.3507932,
    "place_id": "ChIJbzGMyXsV1GoR1irSNPIq4BQ",
    "maps_url": "https://www.google.com/maps/place/?q=place_id:ChIJbzGMyXsV1GoR1irSNPIq4BQ"
  },
  {
    "name": "Studio Elevate Geelong | By Gabi J Pilates",
    "address": "273A Myers St, East Geelong VIC 3129, Australia",
    "suburb": "East Geelong VIC 3129",
    "state": "VIC",
    "rating": 5,
    "reviews": 12,
    "lat": -38.1549696,
    "lng": 144.3724038,
    "place_id": "ChIJaYoe5i5B1GoRPYz-dBjUOzs",
    "maps_url": "https://www.google.com/maps/place/?q=place_id:ChIJaYoe5i5B1GoRPYz-dBjUOzs"
  },
  {
    "name": "Flooid Pilates",
    "address": "2 Searle St, Geelong West VIC 3218, Australia",
    "suburb": "Geelong West VIC 3218",
    "state": "VIC",
    "rating": 5,
    "reviews": 9,
    "lat": -38.1445206,
    "lng": 144.3410575,
    "place_id": "ChIJK-xhToYT1GoRpo3TvXPqLGY",
    "maps_url": "https://www.google.com/maps/place/?q=place_id:ChIJK-xhToYT1GoRpo3TvXPqLGY"
  },
  {
    "name": "Pronto Pilates - Geelong West",
    "address": "Suite 10/240 Pakington St, Geelong West VIC 3218, Australia",
    "suburb": "Geelong West VIC 3218",
    "state": "VIC",
    "rating": null,
    "reviews": 0,
    "lat": -38.1440319,
    "lng": 144.3478788,
    "place_id": "ChIJF2Cf0goV1GoRJD67KxkfY1w",
    "maps_url": "https://www.google.com/maps/place/?q=place_id:ChIJF2Cf0goV1GoRJD67KxkfY1w"
  },
  {
    "name": "Bell Post Pilates",
    "address": "25 Milton St, Bell Park VIC 3215, Australia",
    "suburb": "Bell Park VIC 3215",
    "state": "VIC",
    "rating": 5,
    "reviews": 10,
    "lat": -38.1166907,
    "lng": 144.3335943,
    "place_id": "ChIJI9Ez8yZCJ2AR-5sJyErUjko",
    "maps_url": "https://www.google.com/maps/place/?q=place_id:ChIJI9Ez8yZCJ2AR-5sJyErUjko"
  },
  {
    "name": "Move Sports Physio & Pilates Studio",
    "address": "264 Shannon Ave, Geelong West VIC 3218, Australia",
    "suburb": "Geelong West VIC 3218",
    "state": "VIC",
    "rating": 5,
    "reviews": 50,
    "lat": -38.1449867,
    "lng": 144.3359126,
    "place_id": "ChIJXfvtzKET1GoRUyehJ268WiI",
    "maps_url": "https://www.google.com/maps/place/?q=place_id:ChIJXfvtzKET1GoRUyehJ268WiI"
  },
  {
    "name": "Upstate Newtown",
    "address": "Unit 2/14 Lambert Ave, Newtown VIC 3220, Australia",
    "suburb": "Newtown VIC 3220",
    "state": "VIC",
    "rating": 5,
    "reviews": 80,
    "lat": -38.160002,
    "lng": 144.3385697,
    "place_id": "ChIJr53chUAT1GoRIKFQEunVi6o",
    "maps_url": "https://www.google.com/maps/place/?q=place_id:ChIJr53chUAT1GoRIKFQEunVi6o"
  },
  {
    "name": "Enhance Pilates & Movement",
    "address": "458-498 Torquay Rd, Armstrong Creek VIC 3217, Australia",
    "suburb": "Armstrong Creek VIC 3217",
    "state": "VIC",
    "rating": 5,
    "reviews": 119,
    "lat": -38.2258023,
    "lng": 144.3374153,
    "place_id": "ChIJR_gn1rNt1GoRaTCE0jdSecQ",
    "maps_url": "https://www.google.com/maps/place/?q=place_id:ChIJR_gn1rNt1GoRaTCE0jdSecQ"
  },
  {
    "name": "CorePlus Ballarat - Pilates Yoga Reformer",
    "address": "512 Mair St, Ballarat Central VIC 3350, Australia",
    "suburb": "Ballarat Central VIC 3350",
    "state": "VIC",
    "rating": 5,
    "reviews": 22,
    "lat": -37.5588868,
    "lng": 143.8534252,
    "place_id": "ChIJs_VTqbZF0WoRjBQma0bDEOc",
    "maps_url": "https://www.google.com/maps/place/?q=place_id:ChIJs_VTqbZF0WoRjBQma0bDEOc"
  },
  {
    "name": "Upstate Ballarat",
    "address": "102 Lydiard St N, Ballarat Central VIC 3350, Australia",
    "suburb": "Ballarat Central VIC 3350",
    "state": "VIC",
    "rating": 4.9,
    "reviews": 182,
    "lat": -37.559612,
    "lng": 143.8585024,
    "place_id": "ChIJbSVKi-FF0WoRjwxDW1c_j9U",
    "maps_url": "https://www.google.com/maps/place/?q=place_id:ChIJbSVKi-FF0WoRjwxDW1c_j9U"
  },
  {
    "name": "Strong Pilates Ballarat",
    "address": "912 Howitt Street, Wendouree VIC 3355, Australia",
    "suburb": "Wendouree VIC 3355",
    "state": "VIC",
    "rating": 5,
    "reviews": 36,
    "lat": -37.5411403,
    "lng": 143.8418319,
    "place_id": "ChIJw4C0LWZF0WoROcHV8Vv0OjY",
    "maps_url": "https://www.google.com/maps/place/?q=place_id:ChIJw4C0LWZF0WoROcHV8Vv0OjY"
  },
  {
    "name": "FS8 Ballarat",
    "address": "112 Lydiard St N, Ballarat Central VIC 3350, Australia",
    "suburb": "Ballarat Central VIC 3350",
    "state": "VIC",
    "rating": 4.7,
    "reviews": 7,
    "lat": -37.55938580000001,
    "lng": 143.8585503,
    "place_id": "ChIJ1a7vc85F0WoRMwa7OjcwGTc",
    "maps_url": "https://www.google.com/maps/place/?q=place_id:ChIJ1a7vc85F0WoRMwa7OjcwGTc"
  },
  {
    "name": "TRS Pilates Ballarat",
    "address": "Home Co, Shop 10/25 Learmonth Rd, Wendouree VIC 3355, Australia",
    "suburb": "Shop 10/25 Learmonth Rd",
    "state": "VIC",
    "rating": 5,
    "reviews": 43,
    "lat": -37.5345048,
    "lng": 143.8156989,
    "place_id": "ChIJn2TRlyZD0WoRRm9ydPY7zmE",
    "maps_url": "https://www.google.com/maps/place/?q=place_id:ChIJn2TRlyZD0WoRRm9ydPY7zmE"
  },
  {
    "name": "FORRM. Pilates Ballarat",
    "address": "615 Skipton St, Redan VIC 3350, Australia",
    "suburb": "Redan VIC 3350",
    "state": "VIC",
    "rating": 5,
    "reviews": 3,
    "lat": -37.5768772,
    "lng": 143.8440428,
    "place_id": "ChIJ2X8IS6dF0WoRfg_ivpJl0KA",
    "maps_url": "https://www.google.com/maps/place/?q=place_id:ChIJ2X8IS6dF0WoRfg_ivpJl0KA"
  },
  {
    "name": "Pilates Fit Plus",
    "address": "8/40 Grant St, Sebastopol VIC 3356, Australia",
    "suburb": "Sebastopol VIC 3356",
    "state": "VIC",
    "rating": 5,
    "reviews": 1,
    "lat": -37.5890613,
    "lng": 143.8298305,
    "place_id": "ChIJoz8BZlNb0WoR40tawZj2mEM",
    "maps_url": "https://www.google.com/maps/place/?q=place_id:ChIJoz8BZlNb0WoR40tawZj2mEM"
  },
  {
    "name": "bodyBEgood",
    "address": "7 and 17 College St, Wendouree VIC 3355, Australia",
    "suburb": "Wendouree VIC 3355",
    "state": "VIC",
    "rating": 5,
    "reviews": 3,
    "lat": -37.53798320000001,
    "lng": 143.836431,
    "place_id": "ChIJSTAoxG1E0WoRqDdxpbSsNVs",
    "maps_url": "https://www.google.com/maps/place/?q=place_id:ChIJSTAoxG1E0WoRqDdxpbSsNVs"
  },
  {
    "name": "Hot Temple – Ballarat",
    "address": "1039 Howitt Street, Lake Wendouree VIC 3350, Australia",
    "suburb": "Lake Wendouree VIC 3350",
    "state": "VIC",
    "rating": 5,
    "reviews": 15,
    "lat": -37.541089,
    "lng": 143.8360172,
    "place_id": "ChIJB08aYwhF0WoRYTRvWNVBl0E",
    "maps_url": "https://www.google.com/maps/place/?q=place_id:ChIJB08aYwhF0WoRYTRvWNVBl0E"
  },
  {
    "name": "Eureka Health",
    "address": "1120 Howitt Street, Wendouree VIC 3355, Australia",
    "suburb": "Wendouree VIC 3355",
    "state": "VIC",
    "rating": 5,
    "reviews": 40,
    "lat": -37.5400299,
    "lng": 143.8324585,
    "place_id": "ChIJ0aPAf5RE0WoRDSO8SeVGJcI",
    "maps_url": "https://www.google.com/maps/place/?q=place_id:ChIJ0aPAf5RE0WoRDSO8SeVGJcI"
  },
  {
    "name": "Renu Social Wellness",
    "address": "35 Mair St, Ballarat Central VIC 3350, Australia",
    "suburb": "Ballarat Central VIC 3350",
    "state": "VIC",
    "rating": 4.9,
    "reviews": 68,
    "lat": -37.5601766,
    "lng": 143.8595052,
    "place_id": "ChIJJ3xoP1ZF0WoRaJyXVuinmMA",
    "maps_url": "https://www.google.com/maps/place/?q=place_id:ChIJJ3xoP1ZF0WoRaJyXVuinmMA"
  },
  {
    "name": "Fernwood Fitness",
    "address": "110-114 Creswick Rd, Ballarat Central VIC 3350, Australia",
    "suburb": "Ballarat Central VIC 3350",
    "state": "VIC",
    "rating": 4.9,
    "reviews": 190,
    "lat": -37.5553803,
    "lng": 143.8548076,
    "place_id": "ChIJwwtFRvhE0WoRnDp2Xlgrqvo",
    "maps_url": "https://www.google.com/maps/place/?q=place_id:ChIJwwtFRvhE0WoRnDp2Xlgrqvo"
  },
  {
    "name": "Hot Temple – Ballarat CBD",
    "address": "122 Armstrong St S, Ballarat Central VIC 3350, Australia",
    "suburb": "Ballarat Central VIC 3350",
    "state": "VIC",
    "rating": 5,
    "reviews": 8,
    "lat": -37.5651106,
    "lng": 143.8551766,
    "place_id": "ChIJNxKMFYlF0WoRPZk8jZNb7zk",
    "maps_url": "https://www.google.com/maps/place/?q=place_id:ChIJNxKMFYlF0WoRPZk8jZNb7zk"
  },
  {
    "name": "Amplify Pilates",
    "address": "402 Rodier St, Canadian VIC 3350, Australia",
    "suburb": "Canadian VIC 3350",
    "state": "VIC",
    "rating": null,
    "reviews": 0,
    "lat": -37.57718,
    "lng": 143.8796726,
    "place_id": "ChIJfeZvXLRp1moR5erh6Z8VIqQ",
    "maps_url": "https://www.google.com/maps/place/?q=place_id:ChIJfeZvXLRp1moR5erh6Z8VIqQ"
  },
  {
    "name": "Konditioned",
    "address": "307 Learmonth St, Buninyong VIC 3357, Australia",
    "suburb": "Buninyong VIC 3357",
    "state": "VIC",
    "rating": 5,
    "reviews": 15,
    "lat": -37.6509341,
    "lng": 143.8852149,
    "place_id": "ChIJq0mfpQpb0WoR8hiEmA9djEg",
    "maps_url": "https://www.google.com/maps/place/?q=place_id:ChIJq0mfpQpb0WoR8hiEmA9djEg"
  },
  {
    "name": "Equipoise Pilates",
    "address": "122 Armstrong St S, Ballarat Central VIC 3350, Australia",
    "suburb": "Ballarat Central VIC 3350",
    "state": "VIC",
    "rating": null,
    "reviews": 0,
    "lat": -37.5651427,
    "lng": 143.8554693,
    "place_id": "ChIJUXqau_BE0WoRWnLyvnSTz_o",
    "maps_url": "https://www.google.com/maps/place/?q=place_id:ChIJUXqau_BE0WoRWnLyvnSTz_o"
  },
  {
    "name": "Just Mat Pilates",
    "address": "31 Young St, Golden Point VIC 3350, Australia",
    "suburb": "Golden Point VIC 3350",
    "state": "VIC",
    "rating": null,
    "reviews": 0,
    "lat": -37.5701145,
    "lng": 143.8654467,
    "place_id": "ChIJX6bMBpNF0WoRNkX75ltnZpM",
    "maps_url": "https://www.google.com/maps/place/?q=place_id:ChIJX6bMBpNF0WoRNkX75ltnZpM"
  },
  {
    "name": "Equipoise Pilates",
    "address": "1046 Howitt Street, Wendouree VIC 3355, Australia",
    "suburb": "Wendouree VIC 3355",
    "state": "VIC",
    "rating": null,
    "reviews": 0,
    "lat": -37.5402086,
    "lng": 143.8352347,
    "place_id": "ChIJVVXlL25E0WoRWk7hcOsxAKc",
    "maps_url": "https://www.google.com/maps/place/?q=place_id:ChIJVVXlL25E0WoRWk7hcOsxAKc"
  },
  {
    "name": "Myo Studio",
    "address": "88 Albert St, Creswick VIC 3363, Australia",
    "suburb": "Creswick VIC 3363",
    "state": "VIC",
    "rating": 5,
    "reviews": 2,
    "lat": -37.424793,
    "lng": 143.8945878,
    "place_id": "ChIJDzGZUwA50WoR3b9sIMaTP18",
    "maps_url": "https://www.google.com/maps/place/?q=place_id:ChIJDzGZUwA50WoR3b9sIMaTP18"
  },
  {
    "name": "Ballarat Bodysmart",
    "address": "15 Valley View Ct, Sebastopol VIC 3356, Australia",
    "suburb": "Sebastopol VIC 3356",
    "state": "VIC",
    "rating": null,
    "reviews": 0,
    "lat": -37.6083702,
    "lng": 143.8427399,
    "place_id": "ChIJg5C3KABb0WoRRFQJmoDIps4",
    "maps_url": "https://www.google.com/maps/place/?q=place_id:ChIJg5C3KABb0WoRRFQJmoDIps4"
  },
  {
    "name": "@Pilates Bendigo",
    "address": "159a McCrae St, Bendigo VIC 3550, Australia",
    "suburb": "Bendigo VIC 3550",
    "state": "VIC",
    "rating": 5,
    "reviews": 27,
    "lat": -36.7555106,
    "lng": 144.2837564,
    "place_id": "ChIJpZ6aWA9Z12oRPhgHcr2p-e8",
    "maps_url": "https://www.google.com/maps/place/?q=place_id:ChIJpZ6aWA9Z12oRPhgHcr2p-e8"
  },
  {
    "name": "Reformer Republic Pilates Bendigo",
    "address": "2/2 Abel St, Golden Square VIC 3550, Australia",
    "suburb": "Golden Square VIC 3550",
    "state": "VIC",
    "rating": 5,
    "reviews": 15,
    "lat": -36.7718374,
    "lng": 144.2744768,
    "place_id": "ChIJy-mZaclb12oRfcoHDy-TzSQ",
    "maps_url": "https://www.google.com/maps/place/?q=place_id:ChIJy-mZaclb12oRfcoHDy-TzSQ"
  },
  {
    "name": "Pilates + Bendigo | Reformer Pilates | Mat | Yoga | Barre & More!",
    "address": "58 Queen St, Bendigo VIC 3550, Australia",
    "suburb": "Bendigo VIC 3550",
    "state": "VIC",
    "rating": 4.9,
    "reviews": 42,
    "lat": -36.7617406,
    "lng": 144.2789778,
    "place_id": "ChIJBWJZPxxZ12oRNRBGREDqFjA",
    "maps_url": "https://www.google.com/maps/place/?q=place_id:ChIJBWJZPxxZ12oRNRBGREDqFjA"
  },
  {
    "name": "Reform Bendigo Pilates",
    "address": "3 Bath Ln, Bendigo VIC 3550, Australia",
    "suburb": "Bendigo VIC 3550",
    "state": "VIC",
    "rating": 5,
    "reviews": 14,
    "lat": -36.76044340000001,
    "lng": 144.2788962,
    "place_id": "ChIJbz6H8QhZ12oRR3vdp1adPw4",
    "maps_url": "https://www.google.com/maps/place/?q=place_id:ChIJbz6H8QhZ12oRR3vdp1adPw4"
  },
  {
    "name": "Bisous Pilates",
    "address": "14/20 High St, Bendigo VIC 3550, Australia",
    "suburb": "Bendigo VIC 3550",
    "state": "VIC",
    "rating": 5,
    "reviews": 7,
    "lat": -36.7604596,
    "lng": 144.2763663,
    "place_id": "ChIJwYhDOABZ12oR0iH55Y-A-Wk",
    "maps_url": "https://www.google.com/maps/place/?q=place_id:ChIJwYhDOABZ12oR0iH55Y-A-Wk"
  },
  {
    "name": "Oh, Hey! Pilates & Cafe",
    "address": "156 Lyttleton Terrace, Bendigo VIC 3550, Australia",
    "suburb": "Bendigo VIC 3550",
    "state": "VIC",
    "rating": 5,
    "reviews": 101,
    "lat": -36.7582291,
    "lng": 144.2866388,
    "place_id": "ChIJAelRjFdZ12oRfK5JWItgy5s",
    "maps_url": "https://www.google.com/maps/place/?q=place_id:ChIJAelRjFdZ12oRfK5JWItgy5s"
  },
  {
    "name": "Back to Life Studio Pilates",
    "address": "Unit 4/64 Murphy St, East Bendigo VIC 3550, Australia",
    "suburb": "East Bendigo VIC 3550",
    "state": "VIC",
    "rating": 5,
    "reviews": 15,
    "lat": -36.75502880000001,
    "lng": 144.3007679,
    "place_id": "ChIJi0K-fWdb12oRlE0mjndOySs",
    "maps_url": "https://www.google.com/maps/place/?q=place_id:ChIJi0K-fWdb12oRlE0mjndOySs"
  },
  {
    "name": "Barre Society Bendigo - Pilates, Barre & Yoga",
    "address": "281A Hargreaves St, Bendigo VIC 3550, Australia",
    "suburb": "Bendigo VIC 3550",
    "state": "VIC",
    "rating": 4.8,
    "reviews": 129,
    "lat": -36.7599297,
    "lng": 144.2807523,
    "place_id": "ChIJ5Vj7Du1Z12oRzYAo6vwYc14",
    "maps_url": "https://www.google.com/maps/place/?q=place_id:ChIJ5Vj7Du1Z12oRzYAo6vwYc14"
  },
  {
    "name": "Barre Tender Pilates Studio Bendigo",
    "address": "Shop 2/619 Midland Hwy, Huntly VIC 3551, Australia",
    "suburb": "Huntly VIC 3551",
    "state": "VIC",
    "rating": 5,
    "reviews": 26,
    "lat": -36.6657027,
    "lng": 144.3317286,
    "place_id": "ChIJV0kZ0y7j2WoRwz2JSI6wqLI",
    "maps_url": "https://www.google.com/maps/place/?q=place_id:ChIJV0kZ0y7j2WoRwz2JSI6wqLI"
  },
  {
    "name": "Bodyline Pilates",
    "address": "15 Bakewell St, East Bendigo VIC 3550, Australia",
    "suburb": "East Bendigo VIC 3550",
    "state": "VIC",
    "rating": null,
    "reviews": 0,
    "lat": -36.7443024,
    "lng": 144.2869138,
    "place_id": "ChIJq6razbBZ12oRTrX6_SgASgg",
    "maps_url": "https://www.google.com/maps/place/?q=place_id:ChIJq6razbBZ12oRTrX6_SgASgg"
  },
  {
    "name": "Studio Pilates International Brisbane City",
    "address": "300 Ann St, Brisbane City QLD 4000, Australia",
    "suburb": "Brisbane City QLD 4000",
    "state": "QLD",
    "rating": 5,
    "reviews": 291,
    "lat": -27.4651187,
    "lng": 153.0272691,
    "place_id": "ChIJY7qARR1akWsR-GkFz51J24E",
    "maps_url": "https://www.google.com/maps/place/?q=place_id:ChIJY7qARR1akWsR-GkFz51J24E"
  },
  {
    "name": "Studio Pilates International East Brisbane (Kangaroo Point)",
    "address": "67 Lytton Rd, East Brisbane QLD 4169, Australia",
    "suburb": "East Brisbane QLD 4169",
    "state": "QLD",
    "rating": 5,
    "reviews": 148,
    "lat": -27.479697,
    "lng": 153.04475,
    "place_id": "ChIJSS36JBxbkWsRYDaPVEZj1rw",
    "maps_url": "https://www.google.com/maps/place/?q=place_id:ChIJSS36JBxbkWsRYDaPVEZj1rw"
  },
  {
    "name": "Power Moves West End - Pilates Yoga Reformer",
    "address": "324 Montague Road, Entrance/off Beattie St, West End QLD 4101, Australia",
    "suburb": "Entrance/off Beattie St",
    "state": "QLD",
    "rating": 5,
    "reviews": 653,
    "lat": -27.4818463,
    "lng": 153.0045943,
    "place_id": "ChIJP5r9TQ5RkWsRhI1JnwE3SD0",
    "maps_url": "https://www.google.com/maps/place/?q=place_id:ChIJP5r9TQ5RkWsRhI1JnwE3SD0"
  },
  {
    "name": "Pilates 26",
    "address": "26 Mowbray Terrace, East Brisbane QLD 4169, Australia",
    "suburb": "East Brisbane QLD 4169",
    "state": "QLD",
    "rating": 5,
    "reviews": 110,
    "lat": -27.4832677,
    "lng": 153.04282,
    "place_id": "ChIJNfahHUhbkWsR_aA9M8bfI70",
    "maps_url": "https://www.google.com/maps/place/?q=place_id:ChIJNfahHUhbkWsR_aA9M8bfI70"
  },
  {
    "name": "Power Moves Newstead - Pilates Yoga Reformer",
    "address": "22 Helen St, Teneriffe QLD 4005, Australia",
    "suburb": "Teneriffe QLD 4005",
    "state": "QLD",
    "rating": 5,
    "reviews": 440,
    "lat": -27.4529141,
    "lng": 153.0462366,
    "place_id": "ChIJ0ShR4_pZkWsRRs7XQpki_Io",
    "maps_url": "https://www.google.com/maps/place/?q=place_id:ChIJ0ShR4_pZkWsRRs7XQpki_Io"
  },
  {
    "name": "STRONG Pilates Fortitude Valley",
    "address": "128 Brookes St, Fortitude Valley QLD 4006, Australia",
    "suburb": "Fortitude Valley QLD 4006",
    "state": "QLD",
    "rating": 4.9,
    "reviews": 61,
    "lat": -27.4539598,
    "lng": 153.0391798,
    "place_id": "ChIJ5dMJqq5ZkWsR2bRRprcM7as",
    "maps_url": "https://www.google.com/maps/place/?q=place_id:ChIJ5dMJqq5ZkWsR2bRRprcM7as"
  },
  {
    "name": "MOMOQ PILATES",
    "address": "Level 2/35 Adelaide St, Brisbane City QLD 4000, Australia",
    "suburb": "Brisbane City QLD 4000",
    "state": "QLD",
    "rating": 5,
    "reviews": 19,
    "lat": -27.469749,
    "lng": 153.0235788,
    "place_id": "ChIJSS7cNtNbkWsR-2Qn6qrVCVI",
    "maps_url": "https://www.google.com/maps/place/?q=place_id:ChIJSS7cNtNbkWsR-2Qn6qrVCVI"
  },
  {
    "name": "Studio Pilates International West End",
    "address": "4 O'Connell St, West End QLD 4101, Australia",
    "suburb": "West End QLD 4101",
    "state": "QLD",
    "rating": 5,
    "reviews": 335,
    "lat": -27.4798118,
    "lng": 153.0133895,
    "place_id": "ChIJ63WwjaBQkWsRWqfAIINyFY8",
    "maps_url": "https://www.google.com/maps/place/?q=place_id:ChIJ63WwjaBQkWsRWqfAIINyFY8"
  },
  {
    "name": "Upstate West End",
    "address": "suite 7/391 Montague Rd, West End QLD 4101, Australia",
    "suburb": "West End QLD 4101",
    "state": "QLD",
    "rating": 4.8,
    "reviews": 35,
    "lat": -27.4848494,
    "lng": 153.001927,
    "place_id": "ChIJgTBVdZBRkWsR1vQt9My0flQ",
    "maps_url": "https://www.google.com/maps/place/?q=place_id:ChIJgTBVdZBRkWsR1vQt9My0flQ"
  },
  {
    "name": "Core Pilates Brisbane",
    "address": "1 St Pauls Ter, Spring Hill QLD 4000, Australia",
    "suburb": "Spring Hill QLD 4000",
    "state": "QLD",
    "rating": 5,
    "reviews": 22,
    "lat": -27.4611343,
    "lng": 153.0268452,
    "place_id": "ChIJBxXeO_dZkWsRzApn4vifORw",
    "maps_url": "https://www.google.com/maps/place/?q=place_id:ChIJBxXeO_dZkWsRzApn4vifORw"
  },
  {
    "name": "Studio Pilates International Newstead",
    "address": "Haven, 5A/63 Skyring Terrace, Newstead QLD 4006, Australia",
    "suburb": "5A/63 Skyring Terrace",
    "state": "QLD",
    "rating": 4.9,
    "reviews": 268,
    "lat": -27.4497525,
    "lng": 153.0436654,
    "place_id": "ChIJfTS-IpRZkWsRRy_AmmLqrKQ",
    "maps_url": "https://www.google.com/maps/place/?q=place_id:ChIJfTS-IpRZkWsRRy_AmmLqrKQ"
  },
  {
    "name": "luluto Pilates South Brisbane",
    "address": "32 Hope St, South Brisbane QLD 4101, Australia",
    "suburb": "South Brisbane QLD 4101",
    "state": "QLD",
    "rating": 5,
    "reviews": 62,
    "lat": -27.4723137,
    "lng": 153.0156968,
    "place_id": "ChIJnbRjkHNbkWsReME22ZrSvvA",
    "maps_url": "https://www.google.com/maps/place/?q=place_id:ChIJnbRjkHNbkWsReME22ZrSvvA"
  },
  {
    "name": "@Pilates",
    "address": "51 Ross St, Newstead QLD 4006, Australia",
    "suburb": "Newstead QLD 4006",
    "state": "QLD",
    "rating": 5,
    "reviews": 25,
    "lat": -27.4419644,
    "lng": 153.0438714,
    "place_id": "ChIJUwPkeRFZkWsRn4BPjWydpxo",
    "maps_url": "https://www.google.com/maps/place/?q=place_id:ChIJUwPkeRFZkWsRn4BPjWydpxo"
  },
  {
    "name": "homeroom lagree studio",
    "address": "11 Logan Rd, Woolloongabba QLD 4102, Australia",
    "suburb": "Woolloongabba QLD 4102",
    "state": "QLD",
    "rating": 5,
    "reviews": 23,
    "lat": -27.4871617,
    "lng": 153.0364159,
    "place_id": "ChIJzwS3l4RbkWsRHb-jOmlhyAc",
    "maps_url": "https://www.google.com/maps/place/?q=place_id:ChIJzwS3l4RbkWsRHb-jOmlhyAc"
  },
  {
    "name": "Reform Studios - Reformer Pilates",
    "address": "Level 1/40 Blackwood St, Mitchelton QLD 4053, Australia",
    "suburb": "Mitchelton QLD 4053",
    "state": "QLD",
    "rating": 4.9,
    "reviews": 106,
    "lat": -27.4114451,
    "lng": 152.9742322,
    "place_id": "ChIJte4I1QZXkWsRZbWvq0f310I",
    "maps_url": "https://www.google.com/maps/place/?q=place_id:ChIJte4I1QZXkWsRZbWvq0f310I"
  },
  {
    "name": "FORA Pilates",
    "address": "Shop 8/158 Moray St, New Farm QLD 4005, Australia",
    "suburb": "New Farm QLD 4005",
    "state": "QLD",
    "rating": 5,
    "reviews": 9,
    "lat": -27.4698142,
    "lng": 153.0431584,
    "place_id": "ChIJz8s2A_NbkWsRoS7Jh4uphJY",
    "maps_url": "https://www.google.com/maps/place/?q=place_id:ChIJz8s2A_NbkWsRoS7Jh4uphJY"
  },
  {
    "name": "Club Pilates",
    "address": "Level 1/19 McDougall St, Milton QLD 4064, Australia",
    "suburb": "Milton QLD 4064",
    "state": "QLD",
    "rating": 5,
    "reviews": 70,
    "lat": -27.4700142,
    "lng": 153.0071613,
    "place_id": "ChIJ72Ekt01RkWsRK2mQuAsu3hw",
    "maps_url": "https://www.google.com/maps/place/?q=place_id:ChIJ72Ekt01RkWsRK2mQuAsu3hw"
  },
  {
    "name": "Strong Pilates West End",
    "address": "1/196 Montague Rd, West End QLD 4101, Australia",
    "suburb": "West End QLD 4101",
    "state": "QLD",
    "rating": 5,
    "reviews": 110,
    "lat": -27.4762819,
    "lng": 153.0093021,
    "place_id": "ChIJ47kMl8lRkWsR6qyAks5iWi4",
    "maps_url": "https://www.google.com/maps/place/?q=place_id:ChIJ47kMl8lRkWsR6qyAks5iWi4"
  },
  {
    "name": "Studio Pilates International Grange",
    "address": "4/15 Grange Rd, Grange QLD 4051, Australia",
    "suburb": "Grange QLD 4051",
    "state": "QLD",
    "rating": 5,
    "reviews": 148,
    "lat": -27.4254353,
    "lng": 153.0147465,
    "place_id": "ChIJ4bX8p8NXkWsRSBIhiU7Qp1k",
    "maps_url": "https://www.google.com/maps/place/?q=place_id:ChIJ4bX8p8NXkWsRSBIhiU7Qp1k"
  },
  {
    "name": "Boutique Pilates Method",
    "address": "Colwill Place, Level 1/180 Albion Rd, Windsor QLD 4030, Australia",
    "suburb": "Level 1/180 Albion Rd",
    "state": "QLD",
    "rating": 4.9,
    "reviews": 66,
    "lat": -27.429141,
    "lng": 153.0334762,
    "place_id": "ChIJY85tbvBZkWsR-P9T1dc12mU",
    "maps_url": "https://www.google.com/maps/place/?q=place_id:ChIJY85tbvBZkWsR-P9T1dc12mU"
  },
  {
    "name": "Pilates & Co. - Burleigh Pilates Reformer Studio",
    "address": "75 W Burleigh Rd, Burleigh Heads QLD 4220, Australia",
    "suburb": "Burleigh Heads QLD 4220",
    "state": "QLD",
    "rating": 4.9,
    "reviews": 261,
    "lat": -28.0918981,
    "lng": 153.4442091,
    "place_id": "ChIJjSaN1IADkWsRaQNrvRVZaIs",
    "maps_url": "https://www.google.com/maps/place/?q=place_id:ChIJjSaN1IADkWsRaQNrvRVZaIs"
  },
  {
    "name": "Pilates & Co. - Bundall Pilates Reformer Studio",
    "address": "unit 8/10 25 Upton St, Bundall QLD 4217, Australia",
    "suburb": "Bundall QLD 4217",
    "state": "QLD",
    "rating": 5,
    "reviews": 447,
    "lat": -28.0088291,
    "lng": 153.4112243,
    "place_id": "ChIJByzHd6QFkWsRq_zsgvIfYxU",
    "maps_url": "https://www.google.com/maps/place/?q=place_id:ChIJByzHd6QFkWsRq_zsgvIfYxU"
  },
  {
    "name": "@pilates 24/7 Southport",
    "address": "12 Village Bvd, Southport QLD 4215, Australia",
    "suburb": "Southport QLD 4215",
    "state": "QLD",
    "rating": 4.9,
    "reviews": 28,
    "lat": -27.9617882,
    "lng": 153.3880143,
    "place_id": "ChIJYaaFFfkRkWsRro9UuKoYeok",
    "maps_url": "https://www.google.com/maps/place/?q=place_id:ChIJYaaFFfkRkWsRro9UuKoYeok"
  },
  {
    "name": "om pilates Southport",
    "address": "2/17 Harvest Ct, Southport QLD 4215, Australia",
    "suburb": "Southport QLD 4215",
    "state": "QLD",
    "rating": 5,
    "reviews": 62,
    "lat": -27.9782891,
    "lng": 153.408991,
    "place_id": "ChIJ3Y9nZy4FkWsROcFo1Osjrg0",
    "maps_url": "https://www.google.com/maps/place/?q=place_id:ChIJ3Y9nZy4FkWsROcFo1Osjrg0"
  },
  {
    "name": "HUSTLE REFORMER PILATES CO ROBINA GOLDCOAST",
    "address": "Camberwell Cct, Robina QLD 4226, Australia",
    "suburb": "Robina QLD 4226",
    "state": "QLD",
    "rating": 5,
    "reviews": 60,
    "lat": -28.0605367,
    "lng": 153.4003739,
    "place_id": "ChIJc4DferoFkWsRmFJau4tMEgA",
    "maps_url": "https://www.google.com/maps/place/?q=place_id:ChIJc4DferoFkWsRmFJau4tMEgA"
  },
  {
    "name": "Pilates On Point Gold Coast",
    "address": "Shop 1B/1638 Gold Coast Hwy, Burleigh Heads QLD 4220, Australia",
    "suburb": "Burleigh Heads QLD 4220",
    "state": "QLD",
    "rating": 5,
    "reviews": 75,
    "lat": -28.0910495,
    "lng": 153.4530687,
    "place_id": "ChIJ4bNGJs0DkWsRVw1DXTriN78",
    "maps_url": "https://www.google.com/maps/place/?q=place_id:ChIJ4bNGJs0DkWsRVw1DXTriN78"
  },
  {
    "name": "Club Pilates Southport",
    "address": "Alcove, 9/15 Pinter Dr, Southport QLD 4215, Australia",
    "suburb": "9/15 Pinter Dr",
    "state": "QLD",
    "rating": 5,
    "reviews": 26,
    "lat": -27.973876,
    "lng": 153.40885,
    "place_id": "ChIJWTCynocPkWsRV4HlQtvEjao",
    "maps_url": "https://www.google.com/maps/place/?q=place_id:ChIJWTCynocPkWsRV4HlQtvEjao"
  },
  {
    "name": "Studio Pilates International Burleigh Heads",
    "address": "Stockland Shopping Centre, Shop 34B/149 W Burleigh Rd, Burleigh Heads QLD 4220, Australia",
    "suburb": "Shop 34B/149 W Burleigh Rd",
    "state": "QLD",
    "rating": 5,
    "reviews": 182,
    "lat": -28.0968153,
    "lng": 153.4419227,
    "place_id": "ChIJnwfNBxoDkWsRekPDWwEx23U",
    "maps_url": "https://www.google.com/maps/place/?q=place_id:ChIJnwfNBxoDkWsRekPDWwEx23U"
  },
  {
    "name": "@Pilates 24/7 Miami",
    "address": "7&8/110 Mountain View Ave, Miami QLD 4220, Australia",
    "suburb": "Miami QLD 4220",
    "state": "QLD",
    "rating": 5,
    "reviews": 88,
    "lat": -28.0737792,
    "lng": 153.4336454,
    "place_id": "ChIJ51X6l5gDkWsR33jqZAFArjk",
    "maps_url": "https://www.google.com/maps/place/?q=place_id:ChIJ51X6l5gDkWsR33jqZAFArjk"
  },
  {
    "name": "The Pilates Pad",
    "address": "Level 1/2249 Gold Coast Hwy, Mermaid Beach QLD 4218, Australia",
    "suburb": "Mermaid Beach QLD 4218",
    "state": "QLD",
    "rating": 5,
    "reviews": 47,
    "lat": -28.0578809,
    "lng": 153.4384844,
    "place_id": "ChIJ_6P2I4gEkWsR2I8GtsEn0BA",
    "maps_url": "https://www.google.com/maps/place/?q=place_id:ChIJ_6P2I4gEkWsR2I8GtsEn0BA"
  },
  {
    "name": "Studio Pilates International Palm Beach",
    "address": "Shop T4, Pavilions Shopping Centre, 10 Fifth Ave, Palm Beach QLD 4221, Australia",
    "suburb": "Pavilions Shopping Centre",
    "state": "QLD",
    "rating": 5,
    "reviews": 401,
    "lat": -28.1222029,
    "lng": 153.4722911,
    "place_id": "ChIJPdUchMQDkWsR3PAL8PBh5E0",
    "maps_url": "https://www.google.com/maps/place/?q=place_id:ChIJPdUchMQDkWsR3PAL8PBh5E0"
  },
  {
    "name": "Pilates Lane Mermaid Waters | Reformer | Barre | Wunda Chair | Mat Pilates | Yoga",
    "address": "Shop B1C, Q Super Centre, Cnr Bermuda &, Markeri St, Mermaid Waters QLD 4218, Australia",
    "suburb": "Q Super Centre",
    "state": "QLD",
    "rating": 5,
    "reviews": 46,
    "lat": -28.0441949,
    "lng": 153.408318,
    "place_id": "ChIJ4aozsOUFkWsRWiR3VUwjaxY",
    "maps_url": "https://www.google.com/maps/place/?q=place_id:ChIJ4aozsOUFkWsRWiR3VUwjaxY"
  },
  {
    "name": "STRONG Pilates Burleigh",
    "address": "5 Kortum Dr, Burleigh Heads QLD 4220, Australia",
    "suburb": "Burleigh Heads QLD 4220",
    "state": "QLD",
    "rating": 5,
    "reviews": 136,
    "lat": -28.1015936,
    "lng": 153.4417878,
    "place_id": "ChIJGyVHGPUDkWsRz7KcrwCjZlQ",
    "maps_url": "https://www.google.com/maps/place/?q=place_id:ChIJGyVHGPUDkWsRz7KcrwCjZlQ"
  },
  {
    "name": "Essentials Studio Miami",
    "address": "2158 Gold Coast Hwy, Miami QLD 4220, Australia",
    "suburb": "Miami QLD 4220",
    "state": "QLD",
    "rating": 5,
    "reviews": 361,
    "lat": -28.0632683,
    "lng": 153.4375108,
    "place_id": "ChIJXSce-JUDkWsR5eSaDvvhtGA",
    "maps_url": "https://www.google.com/maps/place/?q=place_id:ChIJXSce-JUDkWsR5eSaDvvhtGA"
  },
  {
    "name": "BBB Pilates Studio",
    "address": "2 Andrea Ave, Broadbeach Waters QLD 4218, Australia",
    "suburb": "Broadbeach Waters QLD 4218",
    "state": "QLD",
    "rating": 5,
    "reviews": 9,
    "lat": -28.0266591,
    "lng": 153.4211961,
    "place_id": "ChIJpWJkbb4FkWsRcW_zTl8RtHU",
    "maps_url": "https://www.google.com/maps/place/?q=place_id:ChIJpWJkbb4FkWsRcW_zTl8RtHU"
  },
  {
    "name": "Studio Pace Pilates",
    "address": "Shop4/1837 Gold Coast Hwy, Burleigh Heads QLD 4220, Australia",
    "suburb": "Burleigh Heads QLD 4220",
    "state": "QLD",
    "rating": 5,
    "reviews": 62,
    "lat": -28.0882034,
    "lng": 153.4508016,
    "place_id": "ChIJU5Q1qTIDkWsRdu3UX2dv9m4",
    "maps_url": "https://www.google.com/maps/place/?q=place_id:ChIJU5Q1qTIDkWsRdu3UX2dv9m4"
  },
  {
    "name": "Pleasant Pilates Gold Coast",
    "address": "17 Celtic Way, Helensvale QLD 4212, Australia",
    "suburb": "Helensvale QLD 4212",
    "state": "QLD",
    "rating": 5,
    "reviews": 30,
    "lat": -27.9345798,
    "lng": 153.343951,
    "place_id": "ChIJq0u8HocbkWsRUx2Pm6beh18",
    "maps_url": "https://www.google.com/maps/place/?q=place_id:ChIJq0u8HocbkWsRUx2Pm6beh18"
  },
  {
    "name": "Pure Living Pilates",
    "address": "10/2 Executive Dr, Burleigh Waters QLD 4220, Australia",
    "suburb": "Burleigh Waters QLD 4220",
    "state": "QLD",
    "rating": 5,
    "reviews": 56,
    "lat": -28.1000632,
    "lng": 153.4227534,
    "place_id": "ChIJkx9XAjQDkWsRxxVS39xolIo",
    "maps_url": "https://www.google.com/maps/place/?q=place_id:ChIJkx9XAjQDkWsRxxVS39xolIo"
  },
  {
    "name": "Essentials Studio Southport",
    "address": "24 Musgrave Ave, Southport QLD 4215, Australia",
    "suburb": "Southport QLD 4215",
    "state": "QLD",
    "rating": 5,
    "reviews": 146,
    "lat": -27.9567412,
    "lng": 153.4018615,
    "place_id": "ChIJw63DChwPkWsRx3HdoSDBwfg",
    "maps_url": "https://www.google.com/maps/place/?q=place_id:ChIJw63DChwPkWsRx3HdoSDBwfg"
  },
  {
    "name": "Studio Pilates International Broadbeach",
    "address": "The Oasis Shopping Centre, Level 1/75 Surf Parade, Broadbeach QLD 4218, Australia",
    "suburb": "Level 1/75 Surf Parade",
    "state": "QLD",
    "rating": 4.8,
    "reviews": 59,
    "lat": -28.0296636,
    "lng": 153.4326749,
    "place_id": "ChIJo480ksEFkWsRG7N07Qu3WSI",
    "maps_url": "https://www.google.com/maps/place/?q=place_id:ChIJo480ksEFkWsRG7N07Qu3WSI"
  },
  {
    "name": "@pilates 24/7 Maroochydore",
    "address": "39 Aerodrome Rd, Maroochydore QLD 4558, Australia",
    "suburb": "Maroochydore QLD 4558",
    "state": "QLD",
    "rating": 5,
    "reviews": 102,
    "lat": -26.6607475,
    "lng": 153.1016503,
    "place_id": "ChIJX6w_6GV3k2sRNTHAU01b89M",
    "maps_url": "https://www.google.com/maps/place/?q=place_id:ChIJX6w_6GV3k2sRNTHAU01b89M"
  },
  {
    "name": "ORA Pilates",
    "address": "Unit 5/64 Sugar Rd, Maroochydore QLD 4558, Australia",
    "suburb": "Maroochydore QLD 4558",
    "state": "QLD",
    "rating": 5,
    "reviews": 53,
    "lat": -26.6673157,
    "lng": 153.0928896,
    "place_id": "ChIJZfcSJql3k2sR6x8qfZaQl9w",
    "maps_url": "https://www.google.com/maps/place/?q=place_id:ChIJZfcSJql3k2sR6x8qfZaQl9w"
  },
  {
    "name": "@pilates Sippy Downs",
    "address": "Unit 5/5 Ochre Way, Sippy Downs QLD 4556, Australia",
    "suburb": "Sippy Downs QLD 4556",
    "state": "QLD",
    "rating": 4.9,
    "reviews": 27,
    "lat": -26.713083,
    "lng": 153.0652792,
    "place_id": "ChIJFQ0vnQOdk2sRlYcZ5049tls",
    "maps_url": "https://www.google.com/maps/place/?q=place_id:ChIJFQ0vnQOdk2sRlYcZ5049tls"
  },
  {
    "name": "Strong Pilates Maroochydore",
    "address": "98 Aerodrome Rd, Maroochydore QLD 4558, Australia",
    "suburb": "Maroochydore QLD 4558",
    "state": "QLD",
    "rating": 5,
    "reviews": 243,
    "lat": -26.6586102,
    "lng": 153.0957309,
    "place_id": "ChIJX4lZOLh3k2sRf-zqvy-T0Bg",
    "maps_url": "https://www.google.com/maps/place/?q=place_id:ChIJX4lZOLh3k2sRf-zqvy-T0Bg"
  },
  {
    "name": "Redefine Reformer Pilates",
    "address": "Middy's, Shop 6/29 Main St, Buderim QLD 4556, Australia",
    "suburb": "Shop 6/29 Main St",
    "state": "QLD",
    "rating": 5,
    "reviews": 97,
    "lat": -26.6855523,
    "lng": 153.0520818,
    "place_id": "ChIJSWMTgat3k2sRxDRsaUYwNGE",
    "maps_url": "https://www.google.com/maps/place/?q=place_id:ChIJSWMTgat3k2sRxDRsaUYwNGE"
  },
  {
    "name": "The Station Pilates",
    "address": "11 Beach Rd, Maroochydore QLD 4558, Australia",
    "suburb": "Maroochydore QLD 4558",
    "state": "QLD",
    "rating": 4.9,
    "reviews": 34,
    "lat": -26.6513069,
    "lng": 153.089039,
    "place_id": "ChIJGT3Zt4l3k2sRrNLw7C0UVfY",
    "maps_url": "https://www.google.com/maps/place/?q=place_id:ChIJGT3Zt4l3k2sRrNLw7C0UVfY"
  },
  {
    "name": "CGM Pilates, Yoga, & Wellness",
    "address": "Kon-Tiki Business Centre Tower 1 T1, Suite 101/55 Plaza Parade, Maroochydore QLD 4558, Australia",
    "suburb": "Suite 101/55 Plaza Parade",
    "state": "QLD",
    "rating": 4.9,
    "reviews": 128,
    "lat": -26.6574741,
    "lng": 153.0841143,
    "place_id": "ChIJnxbBnF12k2sRs9_j4wjz7BI",
    "maps_url": "https://www.google.com/maps/place/?q=place_id:ChIJnxbBnF12k2sRs9_j4wjz7BI"
  },
  {
    "name": "@Pilates 24/7 Kawana",
    "address": "4 Waterview St, Warana QLD 4575, Australia",
    "suburb": "Warana QLD 4575",
    "state": "QLD",
    "rating": 5,
    "reviews": 68,
    "lat": -26.725105,
    "lng": 153.127974,
    "place_id": "ChIJd-Qk02-fk2sR7B8H7V0j3fY",
    "maps_url": "https://www.google.com/maps/place/?q=place_id:ChIJd-Qk02-fk2sR7B8H7V0j3fY"
  },
  {
    "name": "Redefine Reformer and Mat Studio",
    "address": "10 Denna St, Maroochydore QLD 4558, Australia",
    "suburb": "Maroochydore QLD 4558",
    "state": "QLD",
    "rating": 5,
    "reviews": 27,
    "lat": -26.6437407,
    "lng": 153.0685017,
    "place_id": "ChIJ9Z6xIUR3k2sRzC1hLubPoSc",
    "maps_url": "https://www.google.com/maps/place/?q=place_id:ChIJ9Z6xIUR3k2sRzC1hLubPoSc"
  },
  {
    "name": "Morning Light Studio",
    "address": "26 Main Dr, Bokarina QLD 4575, Australia",
    "suburb": "Bokarina QLD 4575",
    "state": "QLD",
    "rating": 5,
    "reviews": 241,
    "lat": -26.7311959,
    "lng": 153.1245333,
    "place_id": "ChIJscKi7t2fk2sRq0trFaXhgyc",
    "maps_url": "https://www.google.com/maps/place/?q=place_id:ChIJscKi7t2fk2sRq0trFaXhgyc"
  },
  {
    "name": "Pilates Wellness Centre, formally Pointe Pilates Studio",
    "address": "1/10 Pikki St, Maroochydore QLD 4558, Australia",
    "suburb": "Maroochydore QLD 4558",
    "state": "QLD",
    "rating": 4.9,
    "reviews": 46,
    "lat": -26.6534731,
    "lng": 153.086077,
    "place_id": "ChIJs2KXv2R2k2sRRJVIlQzOh6U",
    "maps_url": "https://www.google.com/maps/place/?q=place_id:ChIJs2KXv2R2k2sRRJVIlQzOh6U"
  },
  {
    "name": "Pronto Pilates - Maroochydore",
    "address": "102, A1 SunCentral, Centre, 41 First Ave, Maroochydore QLD 4558, Australia",
    "suburb": "A1 SunCentral",
    "state": "QLD",
    "rating": 5,
    "reviews": 1,
    "lat": -26.6577823,
    "lng": 153.0928843,
    "place_id": "ChIJ5Zyu_uZ3k2sRzRBUrboEc1c",
    "maps_url": "https://www.google.com/maps/place/?q=place_id:ChIJ5Zyu_uZ3k2sRzRBUrboEc1c"
  },
  {
    "name": "Pronto Pilates - Mooloolaba",
    "address": "100 Brisbane Rd, Mooloolaba QLD 4557, Australia",
    "suburb": "Mooloolaba QLD 4557",
    "state": "QLD",
    "rating": 5,
    "reviews": 4,
    "lat": -26.6860992,
    "lng": 153.1162693,
    "place_id": "ChIJ0_nhUAB1k2sRVxzkYz5mi30",
    "maps_url": "https://www.google.com/maps/place/?q=place_id:ChIJ0_nhUAB1k2sRVxzkYz5mi30"
  },
  {
    "name": "Club Pilates",
    "address": "123 Sippy Downs Dr, Sippy Downs QLD 4556, Australia",
    "suburb": "Sippy Downs QLD 4556",
    "state": "QLD",
    "rating": 5,
    "reviews": 265,
    "lat": -26.7132813,
    "lng": 153.0616404,
    "place_id": "ChIJ95VvoD2dk2sRJKrR6pP7HMY",
    "maps_url": "https://www.google.com/maps/place/?q=place_id:ChIJ95VvoD2dk2sRJKrR6pP7HMY"
  },
  {
    "name": "Studio Pilates International Buddina",
    "address": "Unit 8/140 Point Cartwright Dr, Buddina QLD 4575, Australia",
    "suburb": "Buddina QLD 4575",
    "state": "QLD",
    "rating": 5,
    "reviews": 294,
    "lat": -26.7021484,
    "lng": 153.1288016,
    "place_id": "ChIJERoH8sCfk2sR5-qjHeOc6t4",
    "maps_url": "https://www.google.com/maps/place/?q=place_id:ChIJERoH8sCfk2sR5-qjHeOc6t4"
  },
  {
    "name": "The Buderim Pilates Studio",
    "address": "34 Ballinger Rd, Buderim QLD 4556, Australia",
    "suburb": "Buderim QLD 4556",
    "state": "QLD",
    "rating": 5,
    "reviews": 26,
    "lat": -26.6887335,
    "lng": 153.0509582,
    "place_id": "ChIJA9_4In2dk2sRr3csB3wGV3A",
    "maps_url": "https://www.google.com/maps/place/?q=place_id:ChIJA9_4In2dk2sRr3csB3wGV3A"
  },
  {
    "name": "Sunshine Coast Studio Fitness",
    "address": "23 Hardwood Ct, Buderim QLD 4556, Australia",
    "suburb": "Buderim QLD 4556",
    "state": "QLD",
    "rating": 5,
    "reviews": 18,
    "lat": -26.6870387,
    "lng": 153.0805199,
    "place_id": "ChIJu0meWCF2k2sRJOTD3CjNw0M",
    "maps_url": "https://www.google.com/maps/place/?q=place_id:ChIJu0meWCF2k2sRJOTD3CjNw0M"
  },
  {
    "name": "@pilates 24/7 Caloundra",
    "address": "5 Tay Ave, Caloundra QLD 4551, Australia",
    "suburb": "Caloundra QLD 4551",
    "state": "QLD",
    "rating": 5,
    "reviews": 1,
    "lat": -26.8048854,
    "lng": 153.128355,
    "place_id": "ChIJ_5lKC1qZk2sRmJ04O6HuDmA",
    "maps_url": "https://www.google.com/maps/place/?q=place_id:ChIJ_5lKC1qZk2sRmJ04O6HuDmA"
  },
  {
    "name": "Performax Pilates Bokarina",
    "address": "42 Bokarina Bvd, Bokarina QLD 4575, Australia",
    "suburb": "Bokarina QLD 4575",
    "state": "QLD",
    "rating": 5,
    "reviews": 54,
    "lat": -26.7440593,
    "lng": 153.1323179,
    "place_id": "ChIJr7P5odqfk2sRy-0GzfnyXQI",
    "maps_url": "https://www.google.com/maps/place/?q=place_id:ChIJr7P5odqfk2sRy-0GzfnyXQI"
  },
  {
    "name": "Ocean Studio Pilates",
    "address": "Unit 1/30 Ulm St S, Moffat Beach QLD 4551, Australia",
    "suburb": "Moffat Beach QLD 4551",
    "state": "QLD",
    "rating": 5,
    "reviews": 73,
    "lat": -26.7903093,
    "lng": 153.1319697,
    "place_id": "ChIJ-RxeM-uZk2sRxOs-VI641cA",
    "maps_url": "https://www.google.com/maps/place/?q=place_id:ChIJ-RxeM-uZk2sRxOs-VI641cA"
  },
  {
    "name": "@pilates 24/7 Townsville",
    "address": "1a/141 Ingham Rd, West End QLD 4810, Australia",
    "suburb": "West End QLD 4810",
    "state": "QLD",
    "rating": 4.9,
    "reviews": 28,
    "lat": -19.2670624,
    "lng": 146.792778,
    "place_id": "ChIJ6eLLHQD51WsRBgKrTU5jeqE",
    "maps_url": "https://www.google.com/maps/place/?q=place_id:ChIJ6eLLHQD51WsRBgKrTU5jeqE"
  },
  {
    "name": "Studio Pilates International Castletown",
    "address": "207B Woolcock St &, Kings Rd, Hyde Park QLD 4812, Australia",
    "suburb": "Kings Rd",
    "state": "QLD",
    "rating": 4.9,
    "reviews": 61,
    "lat": -19.2720443,
    "lng": 146.7909428,
    "place_id": "ChIJV1EtB6L51WsRCXYJxCN2D0E",
    "maps_url": "https://www.google.com/maps/place/?q=place_id:ChIJV1EtB6L51WsRCXYJxCN2D0E"
  },
  {
    "name": "Studio Pilates International North Shore",
    "address": "16-38 Main St T2 Northshore, Market St, Burdell QLD 4818, Australia",
    "suburb": "Market St",
    "state": "QLD",
    "rating": 5,
    "reviews": 88,
    "lat": -19.2535277,
    "lng": 146.7000533,
    "place_id": "ChIJV3kinqX31WsRLC02fKkwKZ4",
    "maps_url": "https://www.google.com/maps/place/?q=place_id:ChIJV3kinqX31WsRLC02fKkwKZ4"
  },
  {
    "name": "Explore the Movement Pilates",
    "address": "Fairfield & Co, 4/5 Darcy Dr, Idalia QLD 4811, Australia",
    "suburb": "4/5 Darcy Dr",
    "state": "QLD",
    "rating": 5,
    "reviews": 47,
    "lat": -19.3139077,
    "lng": 146.8208393,
    "place_id": "ChIJdeED24X51WsRMt8Xt0iFT9s",
    "maps_url": "https://www.google.com/maps/place/?q=place_id:ChIJdeED24X51WsRMt8Xt0iFT9s"
  },
  {
    "name": "KX Pilates Idalia",
    "address": "Shop 21, The Precinct, 12/18 Village Dr, Idalia QLD 4811, Australia",
    "suburb": "The Precinct",
    "state": "QLD",
    "rating": 5,
    "reviews": 93,
    "lat": -19.3073299,
    "lng": 146.8058496,
    "place_id": "ChIJBaoRvvr71WsRamQewhCZDsQ",
    "maps_url": "https://www.google.com/maps/place/?q=place_id:ChIJBaoRvvr71WsRamQewhCZDsQ"
  },
  {
    "name": "KX Pilates Kirwan",
    "address": "Eastbrooke Health Hub, 86 Thuringowa Dr, Thuringowa Central QLD 4817, Australia",
    "suburb": "86 Thuringowa Dr",
    "state": "QLD",
    "rating": 5,
    "reviews": 48,
    "lat": -19.3085108,
    "lng": 146.731291,
    "place_id": "ChIJMQiiqvLx1WsR9vetlA9hGc8",
    "maps_url": "https://www.google.com/maps/place/?q=place_id:ChIJMQiiqvLx1WsR9vetlA9hGc8"
  },
  {
    "name": "The Core Wellness Studio",
    "address": "The Queens Hotel, 12 The Strand, Townsville City QLD 4810, Australia",
    "suburb": "12 The Strand",
    "state": "QLD",
    "rating": 5,
    "reviews": 3,
    "lat": -19.2557084,
    "lng": 146.822405,
    "place_id": "ChIJm3sZg2751WsRjmtwnmzydIY",
    "maps_url": "https://www.google.com/maps/place/?q=place_id:ChIJm3sZg2751WsRjmtwnmzydIY"
  },
  {
    "name": "Lighten Up | Yoga. Pilates. Wellness.",
    "address": "509 Flinders St, Townsville City QLD 4810, Australia",
    "suburb": "Townsville City QLD 4810",
    "state": "QLD",
    "rating": 4.9,
    "reviews": 106,
    "lat": -19.2631622,
    "lng": 146.8138127,
    "place_id": "ChIJF61q49v41WsRqLuQkso82s0",
    "maps_url": "https://www.google.com/maps/place/?q=place_id:ChIJF61q49v41WsRqLuQkso82s0"
  },
  {
    "name": "Studio Sculpt PILATES & CO",
    "address": "Shop 2/679 Flinders St, Townsville City QLD 4810, Australia",
    "suburb": "Townsville City QLD 4810",
    "state": "QLD",
    "rating": 4,
    "reviews": 4,
    "lat": -19.2662683,
    "lng": 146.8101866,
    "place_id": "ChIJp1UW2B751WsRD4zRGhfHuQE",
    "maps_url": "https://www.google.com/maps/place/?q=place_id:ChIJp1UW2B751WsRD4zRGhfHuQE"
  },
  {
    "name": "MADE pilates studio",
    "address": "6/34/36 Primrose St, Belgian Gardens QLD 4810, Australia",
    "suburb": "Belgian Gardens QLD 4810",
    "state": "QLD",
    "rating": null,
    "reviews": 0,
    "lat": -19.2445183,
    "lng": 146.7982609,
    "place_id": "ChIJ_8RuV-n51WsR0GGMeGj6doE",
    "maps_url": "https://www.google.com/maps/place/?q=place_id:ChIJ_8RuV-n51WsR0GGMeGj6doE"
  },
  {
    "name": "NQ Pilates and Fitness",
    "address": "Hubert St, South Townsville QLD 4810, Australia",
    "suburb": "South Townsville QLD 4810",
    "state": "QLD",
    "rating": 5,
    "reviews": 12,
    "lat": -19.262058,
    "lng": 146.832454,
    "place_id": "ChIJS5HosdT41WsRTORZ7xlddqo",
    "maps_url": "https://www.google.com/maps/place/?q=place_id:ChIJS5HosdT41WsRTORZ7xlddqo"
  },
  {
    "name": "@pilates 24/7 Annandale",
    "address": "67 MacArthur Dr, Annandale QLD 4814, Australia",
    "suburb": "Annandale QLD 4814",
    "state": "QLD",
    "rating": null,
    "reviews": 0,
    "lat": -19.3164275,
    "lng": 146.7908019,
    "place_id": "ChIJ7TgKFM_71WsRqlK4zZdj7EQ",
    "maps_url": "https://www.google.com/maps/place/?q=place_id:ChIJ7TgKFM_71WsRqlK4zZdj7EQ"
  },
  {
    "name": "Studio Pilates International Cairns",
    "address": "16-22 Village Lane, 20 Lake St, Cairns City QLD 4870, Australia",
    "suburb": "20 Lake St",
    "state": "QLD",
    "rating": 5,
    "reviews": 465,
    "lat": -16.9246507,
    "lng": 145.7783037,
    "place_id": "ChIJtViaapNmeGkRgmrHQpNT7as",
    "maps_url": "https://www.google.com/maps/place/?q=place_id:ChIJtViaapNmeGkRgmrHQpNT7as"
  },
  {
    "name": "Vitality Vibe Pilates",
    "address": "5/47 Shields St, Cairns City QLD 4870, Australia",
    "suburb": "Cairns City QLD 4870",
    "state": "QLD",
    "rating": 4.9,
    "reviews": 27,
    "lat": -16.9244372,
    "lng": 145.7735374,
    "place_id": "ChIJ4dn9rSNneGkRET6g5_tyddU",
    "maps_url": "https://www.google.com/maps/place/?q=place_id:ChIJ4dn9rSNneGkRET6g5_tyddU"
  },
  {
    "name": "Tropic State Pilates",
    "address": "120 Anderson St, Manunda QLD 4870, Australia",
    "suburb": "Manunda QLD 4870",
    "state": "QLD",
    "rating": 5,
    "reviews": 118,
    "lat": -16.9156473,
    "lng": 145.7447723,
    "place_id": "ChIJEap87I1leGkRB6lX-Lf61n4",
    "maps_url": "https://www.google.com/maps/place/?q=place_id:ChIJEap87I1leGkRB6lX-Lf61n4"
  },
  {
    "name": "Kaia Pilates",
    "address": "356 Sheridan St, Cairns North QLD 4870, Australia",
    "suburb": "Cairns North QLD 4870",
    "state": "QLD",
    "rating": 5,
    "reviews": 26,
    "lat": -16.9033537,
    "lng": 145.758451,
    "place_id": "ChIJowO69FxneGkRLPPk82oBlDE",
    "maps_url": "https://www.google.com/maps/place/?q=place_id:ChIJowO69FxneGkRLPPk82oBlDE"
  },
  {
    "name": "PWR Pilates Studio",
    "address": "117/125 Toogood Rd, Woree QLD 4868, Australia",
    "suburb": "Woree QLD 4868",
    "state": "QLD",
    "rating": 5,
    "reviews": 41,
    "lat": -16.9579964,
    "lng": 145.7364673,
    "place_id": "ChIJhUeTyl9jeGkR-reVm2pqhbk",
    "maps_url": "https://www.google.com/maps/place/?q=place_id:ChIJhUeTyl9jeGkR-reVm2pqhbk"
  },
  {
    "name": "Balance Pilates Centre",
    "address": "Shop 2/90 Lake St, Cairns City QLD 4870, Australia",
    "suburb": "Cairns City QLD 4870",
    "state": "QLD",
    "rating": 5,
    "reviews": 36,
    "lat": -16.9220129,
    "lng": 145.7761507,
    "place_id": "ChIJg62ZGfBneGkR37lY2Mt8WzM",
    "maps_url": "https://www.google.com/maps/place/?q=place_id:ChIJg62ZGfBneGkR37lY2Mt8WzM"
  },
  {
    "name": "Kynd Studios [Stratford]",
    "address": "96 Magazine St, Stratford QLD 4870, Australia",
    "suburb": "Stratford QLD 4870",
    "state": "QLD",
    "rating": 5,
    "reviews": 78,
    "lat": -16.8746375,
    "lng": 145.7335285,
    "place_id": "ChIJAyaBzspleGkRDeglwjv5EAc",
    "maps_url": "https://www.google.com/maps/place/?q=place_id:ChIJAyaBzspleGkRDeglwjv5EAc"
  },