[
  {
    "name": "Auto Hero Roadside Assistance 24/7 Sydney Wide",
    "address": "203/54 Foveaux St, Surry Hills NSW 2010, Australia",
    "suburb": "Surry Hills NSW 2010",
    "state": "NSW",
    "rating": 4.6,
    "reviews": 512,
    "lat": -33.8842353,
    "lng": 151.2109241,
    "place_id": "ChIJrbfirRiuEmsR3GfrJR5jANQ",
    "maps_url": "https://www.google.com/maps/place/?q=place_id:ChIJrbfirRiuEmsR3GfrJR5jANQ"
  },
  {
    "name": "East West Mobile Tyres | Mobile Tyre Service Sydney",
    "address": "Lang Rd, Centennial Park NSW 2021, Australia",
    "suburb": "Centennial Park NSW 2021",
    "state": "NSW",
    "rating": 5,
    "reviews": 100,
    "lat": -33.893442,
    "lng": 151.2349972,
    "place_id": "ChIJjeZ-qravEmsR9iTJGw-RZpE",
    "maps_url": "https://www.google.com/maps/place/?q=place_id:ChIJjeZ-qravEmsR9iTJGw-RZpE"
  },
  {
    "name": "Sydney Tyres 4U Mobile Tyres Eastern Suburbs",
    "address": "Oxford St, Bondi Junction NSW 2022, Australia",
    "suburb": "Bondi Junction NSW 2022",
    "state": "NSW",
    "rating": 5,
    "reviews": 40,
    "lat": -33.8917318,
    "lng": 151.2469138,
    "place_id": "ChIJ4UdZDROtEmsR3bDBlPoxWjs",
    "maps_url": "https://www.google.com/maps/place/?q=place_id:ChIJ4UdZDROtEmsR3bDBlPoxWjs"
  },
  {
    "name": "AJ Mobile Tyres | Roadside Assistance",
    "address": "43 Wilson St, Botany NSW 2019, Australia",
    "suburb": "Botany NSW 2019",
    "state": "NSW",
    "rating": 4.9,
    "reviews": 149,
    "lat": -33.9526166,
    "lng": 151.2043249,
    "place_id": "ChIJUyPgluyxEmsRGz623K_KTzI",
    "maps_url": "https://www.google.com/maps/place/?q=place_id:ChIJUyPgluyxEmsRGz623K_KTzI"
  },
  {
    "name": "Tyres Central",
    "address": "112/410 Elizabeth St, Surry Hills NSW 2010, Australia",
    "suburb": "Surry Hills NSW 2010",
    "state": "NSW",
    "rating": 3.7,
    "reviews": 6,
    "lat": -33.8860386,
    "lng": 151.208524,
    "place_id": "ChIJbVJIEnuvEmsRUj0rTqmlw-4",
    "maps_url": "https://www.google.com/maps/place/?q=place_id:ChIJbVJIEnuvEmsRUj0rTqmlw-4"
  },
  {
    "name": "Sydney Tyres For U Mobile Tyres",
    "address": "Bridge Rd, Pyrmont NSW 2009, Australia",
    "suburb": "Pyrmont NSW 2009",
    "state": "NSW",
    "rating": 5,
    "reviews": 53,
    "lat": -33.8757625,
    "lng": 151.1897135,
    "place_id": "ChIJ8y35c4CvEmsRVSu3XVJlhRs",
    "maps_url": "https://www.google.com/maps/place/?q=place_id:ChIJ8y35c4CvEmsRVSu3XVJlhRs"
  },
  {
    "name": "Sydney Tyres For U Mobile Tyres",
    "address": "Ridge St, North Sydney NSW 2060, Australia",
    "suburb": "North Sydney NSW 2060",
    "state": "NSW",
    "rating": 4.9,
    "reviews": 17,
    "lat": -33.8328818,
    "lng": 151.2109167,
    "place_id": "ChIJn81SCEOvEmsRBPrkhQQJwtI",
    "maps_url": "https://www.google.com/maps/place/?q=place_id:ChIJn81SCEOvEmsRBPrkhQQJwtI"
  },
  {
    "name": "Tyroola",
    "address": "477 Pitt St, Haymarket NSW 2000, Australia",
    "suburb": "Haymarket NSW 2000",
    "state": "NSW",
    "rating": 4.5,
    "reviews": 2163,
    "lat": -33.8807129,
    "lng": 151.2060876,
    "place_id": "ChIJS4jYMuSvEmsRj1AhItNrfd4",
    "maps_url": "https://www.google.com/maps/place/?q=place_id:ChIJS4jYMuSvEmsRj1AhItNrfd4"
  },
  {
    "name": "Sydney Tyres For U Mobile Tyres",
    "address": "Victoria Rd, Gladesville NSW 2111, Australia",
    "suburb": "Gladesville NSW 2111",
    "state": "NSW",
    "rating": 5,
    "reviews": 19,
    "lat": -33.824258,
    "lng": 151.123009,
    "place_id": "ChIJV31SxtOlEmsRGxvWc5EGbqE",
    "maps_url": "https://www.google.com/maps/place/?q=place_id:ChIJV31SxtOlEmsRGxvWc5EGbqE"
  },
  {
    "name": "St George Tyres",
    "address": "218 Princes Hwy, Arncliffe NSW 2205, Australia",
    "suburb": "Arncliffe NSW 2205",
    "state": "NSW",
    "rating": 4.7,
    "reviews": 1276,
    "lat": -33.9421464,
    "lng": 151.144787,
    "place_id": "ChIJvT0LiaawEmsR_5pCEkVXM-g",
    "maps_url": "https://www.google.com/maps/place/?q=place_id:ChIJvT0LiaawEmsR_5pCEkVXM-g"
  },
  {
    "name": "Tempe Tyres",
    "address": "868 Princes Hwy, Tempe NSW 2044, Australia",
    "suburb": "Tempe NSW 2044",
    "state": "NSW",
    "rating": 4.6,
    "reviews": 3855,
    "lat": -33.92522200000001,
    "lng": 151.1606935,
    "place_id": "ChIJp5fhVIywEmsRuI_Ky0ccmBw",
    "maps_url": "https://www.google.com/maps/place/?q=place_id:ChIJp5fhVIywEmsRuI_Ky0ccmBw"
  },
  {
    "name": "Ozzy Tyres Hoxton Park",
    "address": "200 Hoxton Park Rd, Hoxton Park NSW 2170, Australia",
    "suburb": "Hoxton Park NSW 2170",
    "state": "NSW",
    "rating": 4.8,
    "reviews": 3105,
    "lat": -33.927104,
    "lng": 150.8956343,
    "place_id": "ChIJnaROF36TEmsROMbvbvO0kuc",
    "maps_url": "https://www.google.com/maps/place/?q=place_id:ChIJnaROF36TEmsROMbvbvO0kuc"
  },
  {
    "name": "Sydney City Tyres",
    "address": "16/18 Bourke Rd, Alexandria NSW 2015, Australia",
    "suburb": "Alexandria NSW 2015",
    "state": "NSW",
    "rating": 4.7,
    "reviews": 98,
    "lat": -33.9061852,
    "lng": 151.2004634,
    "place_id": "ChIJBdjP6sexEmsReQ7ptEzH1oQ",
    "maps_url": "https://www.google.com/maps/place/?q=place_id:ChIJBdjP6sexEmsReQ7ptEzH1oQ"
  },
  {
    "name": "mycar Tyre & Auto Broadway",
    "address": "Francis St, Glebe NSW 2007, Australia",
    "suburb": "Glebe NSW 2007",
    "state": "NSW",
    "rating": 4.8,
    "reviews": 3303,
    "lat": -33.8833834,
    "lng": 151.1942003,
    "place_id": "ChIJmdfIvCmuEmsR6ZC7fAYOA84",
    "maps_url": "https://www.google.com/maps/place/?q=place_id:ChIJmdfIvCmuEmsR6ZC7fAYOA84"
  },
  {
    "name": "Tyres Central",
    "address": "SE 3 LVL 27 Governor Macquarie Tower, 1 Farrer Pl, Sydney NSW 2000, Australia",
    "suburb": "1 Farrer Pl",
    "state": "NSW",
    "rating": null,
    "reviews": 0,
    "lat": -33.8641821,
    "lng": 151.2113799,
    "place_id": "ChIJ97C1RqevEmsRBG5lxrgxvPc",
    "maps_url": "https://www.google.com/maps/place/?q=place_id:ChIJ97C1RqevEmsRBG5lxrgxvPc"
  },
  {
    "name": "Eagle Tyres",
    "address": "85 Cowper St, Granville NSW 2142, Australia",
    "suburb": "Granville NSW 2142",
    "state": "NSW",
    "rating": 4.7,
    "reviews": 424,
    "lat": -33.8303295,
    "lng": 151.0095789,
    "place_id": "ChIJy4W9rC-jEmsRghPMAhqIPrk",
    "maps_url": "https://www.google.com/maps/place/?q=place_id:ChIJy4W9rC-jEmsRghPMAhqIPrk"
  },
  {
    "name": "5 Star Tyres",
    "address": "18 Spencer St, Five Dock NSW 2046, Australia",
    "suburb": "Five Dock NSW 2046",
    "state": "NSW",
    "rating": 4.9,
    "reviews": 628,
    "lat": -33.8695438,
    "lng": 151.1176584,
    "place_id": "ChIJX8QtIfq7EmsRFzNDddQs5Gs",
    "maps_url": "https://www.google.com/maps/place/?q=place_id:ChIJX8QtIfq7EmsRFzNDddQs5Gs"
  },
  {
    "name": "ABC Tyrepower and Mechanical",
    "address": "577 Botany Rd, Rosebery NSW 2018, Australia",
    "suburb": "Rosebery NSW 2018",
    "state": "NSW",
    "rating": 4.8,
    "reviews": 1312,
    "lat": -33.9105729,
    "lng": 151.2024764,
    "place_id": "ChIJx-ic4rixEmsRjfISaieMG2I",
    "maps_url": "https://www.google.com/maps/place/?q=place_id:ChIJx-ic4rixEmsRjfISaieMG2I"
  },
  {
    "name": "Tyres Central",
    "address": "302/93 Pacific Hwy, North Sydney NSW 2060, Australia",
    "suburb": "North Sydney NSW 2060",
    "state": "NSW",
    "rating": null,
    "reviews": 0,
    "lat": -33.8407053,
    "lng": 151.2090162,
    "place_id": "ChIJE6kNGoavEmsRc0mk7l02FxE",
    "maps_url": "https://www.google.com/maps/place/?q=place_id:ChIJE6kNGoavEmsRc0mk7l02FxE"
  },
  {
    "name": "Tyres Central",
    "address": "906/908 Military Rd, Mosman NSW 2088, Australia",
    "suburb": "Mosman NSW 2088",
    "state": "NSW",
    "rating": 3.7,
    "reviews": 3,
    "lat": -33.8306567,
    "lng": 151.2446066,
    "place_id": "ChIJvVe2f5KtEmsRNDJak12G6SY",
    "maps_url": "https://www.google.com/maps/place/?q=place_id:ChIJvVe2f5KtEmsRNDJak12G6SY"
  },
  {
    "name": "Bob Jane T-Marts Newcastle",
    "address": "214/218 Parry St, Newcastle West NSW 2302, Australia",
    "suburb": "Newcastle West NSW 2302",
    "state": "NSW",
    "rating": 4.6,
    "reviews": 288,
    "lat": -32.924597,
    "lng": 151.7553504,
    "place_id": "ChIJu_AodEEUc2sRTf2rWJyHQnE",
    "maps_url": "https://www.google.com/maps/place/?q=place_id:ChIJu_AodEEUc2sRTf2rWJyHQnE"
  },
  {
    "name": "24/7 Tyre Shop Newcastle & Roadside Assistance",
    "address": "Newcastle Rd, Wallsend NSW 2287, Australia",
    "suburb": "Wallsend NSW 2287",
    "state": "NSW",
    "rating": 4.9,
    "reviews": 92,
    "lat": -32.9039969,
    "lng": 151.6850369,
    "place_id": "ChIJr2uOr8o_c2sRtuU8Q00N5to",
    "maps_url": "https://www.google.com/maps/place/?q=place_id:ChIJr2uOr8o_c2sRtuU8Q00N5to"
  },
  {
    "name": "Newcastle Tyrepower",
    "address": "Cnr Railway &, Throsby St, Wickham NSW 2293, Australia",
    "suburb": "Throsby St",
    "state": "NSW",
    "rating": 4.7,
    "reviews": 208,
    "lat": -32.9203898,
    "lng": 151.7567994,
    "place_id": "ChIJHZW45FAUc2sRZqlfwiSetCU",
    "maps_url": "https://www.google.com/maps/place/?q=place_id:ChIJHZW45FAUc2sRZqlfwiSetCU"
  },
  {
    "name": "JAX Tyres & Auto Newcastle",
    "address": "22 National Park St, Newcastle West NSW 2302, Australia",
    "suburb": "Newcastle West NSW 2302",
    "state": "NSW",
    "rating": 4.7,
    "reviews": 478,
    "lat": -32.9278693,
    "lng": 151.7600297,
    "place_id": "ChIJI7txnEUUc2sRrZ6Uzhw-3UY",
    "maps_url": "https://www.google.com/maps/place/?q=place_id:ChIJI7txnEUUc2sRrZ6Uzhw-3UY"
  },
  {
    "name": "O'Neills Tyre & Autocare Broadmeadow (Formerly Broadmeadow Tyres Newcastle)",
    "address": "4 Newton St, Broadmeadow NSW 2292, Australia",
    "suburb": "Broadmeadow NSW 2292",
    "state": "NSW",
    "rating": 4.8,
    "reviews": 844,
    "lat": -32.9247144,
    "lng": 151.725303,
    "place_id": "ChIJe1NrzL8Vc2sR_i-Q3Sa9Tv0",
    "maps_url": "https://www.google.com/maps/place/?q=place_id:ChIJe1NrzL8Vc2sR_i-Q3Sa9Tv0"
  },
  {
    "name": "Roadside assistance tyre battery and lockout assistance 24/7",
    "address": "University Dr, Waratah West NSW 2298, Australia",
    "suburb": "Waratah West NSW 2298",
    "state": "NSW",
    "rating": 3.8,
    "reviews": 16,
    "lat": -32.8969602,
    "lng": 151.7074377,
    "place_id": "ChIJXRBLbygVc2sRRqoPHcaJrrM",
    "maps_url": "https://www.google.com/maps/place/?q=place_id:ChIJXRBLbygVc2sRRqoPHcaJrrM"
  },
  {
    "name": "RG TYRE & WHEELS",
    "address": "180 Broadmeadow Rd, Broadmeadow NSW 2292, Australia",
    "suburb": "Broadmeadow NSW 2292",
    "state": "NSW",
    "rating": 4.6,
    "reviews": 159,
    "lat": -32.9241051,
    "lng": 151.7364372,
    "place_id": "ChIJhSJbwukVc2sRsf_Pd9kIHmM",
    "maps_url": "https://www.google.com/maps/place/?q=place_id:ChIJhSJbwukVc2sRsf_Pd9kIHmM"
  },
  {
    "name": "Bridgestone Select Tyre & Auto Newcastle (Mayfield)",
    "address": "Cnr Baker Street &, 11/286 Maitland Rd, Mayfield NSW 2304, Australia",
    "suburb": "11/286 Maitland Rd",
    "state": "NSW",
    "rating": 4.6,
    "reviews": 354,
    "lat": -32.8966101,
    "lng": 151.7352159,
    "place_id": "ChIJu1WAnRoVc2sROHDYt6riKRg",
    "maps_url": "https://www.google.com/maps/place/?q=place_id:ChIJu1WAnRoVc2sROHDYt6riKRg"
  },
  {
    "name": "Dunlop",
    "address": "Mayfield East NSW 2304, Australia",
    "suburb": "Australia",
    "state": "NSW",
    "rating": 5,
    "reviews": 3,
    "lat": -32.9051877,
    "lng": 151.7466815,
    "place_id": "ChIJF8TuDQIVc2sRqa2hn4LIPSM",
    "maps_url": "https://www.google.com/maps/place/?q=place_id:ChIJF8TuDQIVc2sRqa2hn4LIPSM"
  },
  {
    "name": "Tyrepower Gateshead",
    "address": "7/18 Oakdale Rd, Gateshead NSW 2290, Australia",
    "suburb": "Gateshead NSW 2290",
    "state": "NSW",
    "rating": 4.9,
    "reviews": 591,
    "lat": -32.9896389,
    "lng": 151.694809,
    "place_id": "ChIJfes9gnw9c2sRORhR_YdkCws",
    "maps_url": "https://www.google.com/maps/place/?q=place_id:ChIJfes9gnw9c2sRORhR_YdkCws"
  },
  {
    "name": "RoadSmart Fleet - Steel River",
    "address": "15 Spit Island Cl, Mayfield West NSW 2304, Australia",
    "suburb": "Mayfield West NSW 2304",
    "state": "NSW",
    "rating": 4.7,
    "reviews": 129,
    "lat": -32.879656,
    "lng": 151.7256082,
    "place_id": "ChIJyyk3wzgVc2sRBXEvG9-PkiU",
    "maps_url": "https://www.google.com/maps/place/?q=place_id:ChIJyyk3wzgVc2sRBXEvG9-PkiU"
  },
  {
    "name": "Richards & Deal Discount Tyres",
    "address": "7/11 Maitland Rd, Mayfield NSW 2304, Australia",
    "suburb": "Mayfield NSW 2304",
    "state": "NSW",
    "rating": 4.9,
    "reviews": 129,
    "lat": -32.9051821,
    "lng": 151.7466854,
    "place_id": "ChIJjWUKDgIVc2sReCXE2rhqSOk",
    "maps_url": "https://www.google.com/maps/place/?q=place_id:ChIJjWUKDgIVc2sReCXE2rhqSOk"
  },
  {
    "name": "CSA",
    "address": "5 Ranton St, Cardiff NSW 2285, Australia",
    "suburb": "Cardiff NSW 2285",
    "state": "NSW",
    "rating": 4.3,
    "reviews": 58,
    "lat": -32.9454805,
    "lng": 151.647303,
    "place_id": "ChIJHS6oXywVc2sRxcopR0YJPH8",
    "maps_url": "https://www.google.com/maps/place/?q=place_id:ChIJHS6oXywVc2sRxcopR0YJPH8"
  },
  {
    "name": "Bob Jane T-Marts Kotara",
    "address": "49 Northcott Dr, Kotara NSW 2289, Australia",
    "suburb": "Kotara NSW 2289",
    "state": "NSW",
    "rating": 4.6,
    "reviews": 322,
    "lat": -32.9393543,
    "lng": 151.7126374,
    "place_id": "ChIJgYnDVeMVc2sRedxjndqZ8HQ",
    "maps_url": "https://www.google.com/maps/place/?q=place_id:ChIJgYnDVeMVc2sRedxjndqZ8HQ"
  },
  {
    "name": "Tyrepower Sandgate",
    "address": "29 Wallsend Rd, Sandgate NSW 2304, Australia",
    "suburb": "Sandgate NSW 2304",
    "state": "NSW",
    "rating": 4.9,
    "reviews": 308,
    "lat": -32.871946,
    "lng": 151.707719,
    "place_id": "ChIJnUWVb1oVc2sRGxukaiDF2fg",
    "maps_url": "https://www.google.com/maps/place/?q=place_id:ChIJnUWVb1oVc2sRGxukaiDF2fg"
  },
  {
    "name": "JAX Tyres & Auto Warners Bay",
    "address": "62 Medcalf St, Warners Bay NSW 2282, Australia",
    "suburb": "Warners Bay NSW 2282",
    "state": "NSW",
    "rating": 4.6,
    "reviews": 477,
    "lat": -32.9660891,
    "lng": 151.6464227,
    "place_id": "ChIJHwBb61Y8c2sREiAPuvsT2vA",
    "maps_url": "https://www.google.com/maps/place/?q=place_id:ChIJHwBb61Y8c2sREiAPuvsT2vA"
  },
  {
    "name": "mycar Tyre & Auto Kotara",
    "address": "Cynthia Street, Northcott Dr, Kotara NSW 2289, Australia",
    "suburb": "Northcott Dr",
    "state": "NSW",
    "rating": 4.9,
    "reviews": 831,
    "lat": -32.9421757,
    "lng": 151.7121703,
    "place_id": "ChIJla-A0-IVc2sRETPU2hYdlFc",
    "maps_url": "https://www.google.com/maps/place/?q=place_id:ChIJla-A0-IVc2sRETPU2hYdlFc"
  },
  {
    "name": "Newcastle Motorcycle Tyres",
    "address": "4 Cameron St, Broadmeadow NSW 2292, Australia",
    "suburb": "Broadmeadow NSW 2292",
    "state": "NSW",
    "rating": 4.8,
    "reviews": 127,
    "lat": -32.9243388,
    "lng": 151.725733,
    "place_id": "ChIJD17ta7oVc2sRQRbYY-uDIdU",
    "maps_url": "https://www.google.com/maps/place/?q=place_id:ChIJD17ta7oVc2sRQRbYY-uDIdU"
  },
  {
    "name": "mycar Tyre & Auto Waratah",
    "address": "Coolamin Rd, Waratah NSW 2298, Australia",
    "suburb": "Waratah NSW 2298",
    "state": "NSW",
    "rating": 4.7,
    "reviews": 1374,
    "lat": -32.9067041,
    "lng": 151.7263007,
    "place_id": "ChIJ42k0gaAVc2sRIg_4qtpNi0Y",
    "maps_url": "https://www.google.com/maps/place/?q=place_id:ChIJ42k0gaAVc2sRIg_4qtpNi0Y"
  },
  {
    "name": "Greg Stone Tyre Service",
    "address": "105 St James Rd, New Lambton NSW 2305, Australia",
    "suburb": "New Lambton NSW 2305",
    "state": "NSW",
    "rating": 4.2,
    "reviews": 155,
    "lat": -32.9292063,
    "lng": 151.7155013,
    "place_id": "ChIJsaMnLuwVc2sR74BRSUL9TCI",
    "maps_url": "https://www.google.com/maps/place/?q=place_id:ChIJsaMnLuwVc2sR74BRSUL9TCI"
  },
  {
    "name": "Wollongong Tyres And Mechanical",
    "address": "32 Kenny St, Wollongong NSW 2500, Australia",
    "suburb": "Wollongong NSW 2500",
    "state": "NSW",
    "rating": 5,
    "reviews": 169,
    "lat": -34.4283121,
    "lng": 150.8913503,
    "place_id": "ChIJTzhsQsIZE2sRpjCr7UomErk",
    "maps_url": "https://www.google.com/maps/place/?q=place_id:ChIJTzhsQsIZE2sRpjCr7UomErk"
  },
  {
    "name": "Bob Jane T-Marts Wollongong",
    "address": "236 Swan Street, Corrimal St, Wollongong NSW 2500, Australia",
    "suburb": "Corrimal St",
    "state": "NSW",
    "rating": 4.5,
    "reviews": 300,
    "lat": -34.43581229999999,
    "lng": 150.897433,
    "place_id": "ChIJ3-8JQKhXImsR5EqozAirAkU",
    "maps_url": "https://www.google.com/maps/place/?q=place_id:ChIJ3-8JQKhXImsR5EqozAirAkU"
  },
  {
    "name": "Tyrepower",
    "address": "59 Five Islands Rd, Cringila NSW 2502, Australia",
    "suburb": "Cringila NSW 2502",
    "state": "NSW",
    "rating": 4.7,
    "reviews": 240,
    "lat": -34.4662491,
    "lng": 150.8739199,
    "place_id": "ChIJ9Rt3OEUXE2sREdapuYazKbs",
    "maps_url": "https://www.google.com/maps/place/?q=place_id:ChIJ9Rt3OEUXE2sREdapuYazKbs"
  },
  {
    "name": "Goodyear Autocare Wollongong",
    "address": "306-310 Keira St, Wollongong NSW 2500, Australia",
    "suburb": "Wollongong NSW 2500",
    "state": "NSW",
    "rating": 4.4,
    "reviews": 83,
    "lat": -34.4310936,
    "lng": 150.89212,
    "place_id": "ChIJrfV_ELsZE2sR8s1mQh_OK10",
    "maps_url": "https://www.google.com/maps/place/?q=place_id:ChIJrfV_ELsZE2sR8s1mQh_OK10"
  },
  {
    "name": "JAX Tyres & Auto Fairy Meadow",
    "address": "487 Princes Hwy, Fairy Meadow NSW 2519, Australia",
    "suburb": "Fairy Meadow NSW 2519",
    "state": "NSW",
    "rating": 4.5,
    "reviews": 393,
    "lat": -34.3859474,
    "lng": 150.8940024,
    "place_id": "ChIJ0wpAxzEZE2sRXqi0Nk9p6SA",
    "maps_url": "https://www.google.com/maps/place/?q=place_id:ChIJ0wpAxzEZE2sRXqi0Nk9p6SA"
  },
  {
    "name": "crown workshop & tyre services",
    "address": "2/425 Crown St, Wollongong NSW 2500, Australia",
    "suburb": "Wollongong NSW 2500",
    "state": "NSW",
    "rating": 4.8,
    "reviews": 75,
    "lat": -34.4264537,
    "lng": 150.8798818,
    "place_id": "ChIJdyZy8WgZE2sR7nXI6dMi7Kg",
    "maps_url": "https://www.google.com/maps/place/?q=place_id:ChIJdyZy8WgZE2sR7nXI6dMi7Kg"
  },
  {
    "name": "mycar Tyre & Auto Wollongong",
    "address": "Campbell St, Wollongong NSW 2500, Australia",
    "suburb": "Wollongong NSW 2500",
    "state": "NSW",
    "rating": 4.8,
    "reviews": 630,
    "lat": -34.419235,
    "lng": 150.893136,
    "place_id": "ChIJ3-8JQKhXImsR7xoBFQ7bVMY",
    "maps_url": "https://www.google.com/maps/place/?q=place_id:ChIJ3-8JQKhXImsR7xoBFQ7bVMY"
  },
  {
    "name": "Bridgestone Select Tyre & Auto Wollongong",
    "address": "218 Corrimal St, Wollongong NSW 2500, Australia",
    "suburb": "Wollongong NSW 2500",
    "state": "NSW",
    "rating": 4.5,
    "reviews": 166,
    "lat": -34.4346155,
    "lng": 150.8975525,
    "place_id": "ChIJzVOG6LAZE2sRsMEfot_bYDU",
    "maps_url": "https://www.google.com/maps/place/?q=place_id:ChIJzVOG6LAZE2sRsMEfot_bYDU"
  },
  {
    "name": "Tyrepower Fairy Meadow",
    "address": "484 Princes Hwy, Towradgi NSW 2518, Australia",
    "suburb": "Towradgi NSW 2518",
    "state": "NSW",
    "rating": 4.7,
    "reviews": 88,
    "lat": -34.3857982,
    "lng": 150.8948085,
    "place_id": "ChIJy9NBxzEZE2sR8TTQsM0m18I",
    "maps_url": "https://www.google.com/maps/place/?q=place_id:ChIJy9NBxzEZE2sR8TTQsM0m18I"
  },
  {
    "name": "JAX Tyres & Auto Warilla",
    "address": "260 Shellharbour Rd, Warilla NSW 2528, Australia",
    "suburb": "Warilla NSW 2528",
    "state": "NSW",
    "rating": 4.7,
    "reviews": 459,
    "lat": -34.5597549,
    "lng": 150.8593911,
    "place_id": "ChIJ64_Bx4kTE2sRBYCbiFsTr4E",
    "maps_url": "https://www.google.com/maps/place/?q=place_id:ChIJ64_Bx4kTE2sRBYCbiFsTr4E"
  },
  {
    "name": "Bridgestone Select Tyre & Auto Fairy Meadow",
    "address": "2-3/135 Princes Hwy, Fairy Meadow NSW 2519, Australia",
    "suburb": "Fairy Meadow NSW 2519",
    "state": "NSW",
    "rating": 4.8,
    "reviews": 114,
    "lat": -34.4040014,
    "lng": 150.8900955,
    "place_id": "ChIJk5IiIOEZE2sR8ekDgCM_HWQ",
    "maps_url": "https://www.google.com/maps/place/?q=place_id:ChIJk5IiIOEZE2sR8ekDgCM_HWQ"
  },
  {
    "name": "Figtree Tyrepower",
    "address": "110 Princes Hwy, Figtree NSW 2525, Australia",
    "suburb": "Figtree NSW 2525",
    "state": "NSW",
    "rating": 4.7,
    "reviews": 104,
    "lat": -34.4396893,
    "lng": 150.8564761,
    "place_id": "ChIJ8aYOxBwaE2sRixjBKZ5qjO4",
    "maps_url": "https://www.google.com/maps/place/?q=place_id:ChIJ8aYOxBwaE2sRixjBKZ5qjO4"
  },
  {
    "name": "Resolution Tyres",
    "address": "15 Resolution Dr, Unanderra NSW 2526, Australia",
    "suburb": "Unanderra NSW 2526",
    "state": "NSW",
    "rating": 4.7,
    "reviews": 112,
    "lat": -34.4560368,
    "lng": 150.8530703,
    "place_id": "ChIJtfXa6a4QE2sR3FidFLRvurk",
    "maps_url": "https://www.google.com/maps/place/?q=place_id:ChIJtfXa6a4QE2sR3FidFLRvurk"
  },
  {
    "name": "Wollongong Tyres Automotive Centre",
    "address": "Unit 306/310 Keira St, Coniston NSW 2500, Australia",
    "suburb": "Coniston NSW 2500",
    "state": "NSW",
    "rating": null,
    "reviews": 0,
    "lat": -34.4309925,
    "lng": 150.8922705,
    "place_id": "ChIJ1T-KELsZE2sR33rlCo3lwHA",
    "maps_url": "https://www.google.com/maps/place/?q=place_id:ChIJ1T-KELsZE2sR33rlCo3lwHA"
  },
  {
    "name": "Bridgestone Select Tyre & Auto Wollongong Central",
    "address": "277 Keira St, Wollongong NSW 2500, Australia",
    "suburb": "Wollongong NSW 2500",
    "state": "NSW",
    "rating": 4.3,
    "reviews": 12,
    "lat": -34.42845310000001,
    "lng": 150.893116,
    "place_id": "ChIJWSixCdcZE2sRcJLbPs9Vmok",
    "maps_url": "https://www.google.com/maps/place/?q=place_id:ChIJWSixCdcZE2sRcJLbPs9Vmok"
  },
  {
    "name": "Matthews Tyres & Mechanical Repairs",
    "address": "2/19 Denison St, Wollongong NSW 2500, Australia",
    "suburb": "Wollongong NSW 2500",
    "state": "NSW",
    "rating": 4.6,
    "reviews": 97,
    "lat": -34.4224193,
    "lng": 150.888821,
    "place_id": "ChIJO2gskZAZE2sR9g3xuKhoo1o",
    "maps_url": "https://www.google.com/maps/place/?q=place_id:ChIJO2gskZAZE2sR9g3xuKhoo1o"
  },
  {
    "name": "JAX Tyres & Auto Warrawong",
    "address": "Top Carpark, Level/2 Cowper St, Warrawong NSW 2502, Australia",
    "suburb": "Level/2 Cowper St",
    "state": "NSW",
    "rating": 4.6,
    "reviews": 399,
    "lat": -34.4869544,
    "lng": 150.890981,
    "place_id": "ChIJJY5O6xYXE2sRHQBTbGcVi7w",
    "maps_url": "https://www.google.com/maps/place/?q=place_id:ChIJJY5O6xYXE2sRHQBTbGcVi7w"
  },
  {
    "name": "Unanderra Tyres & Mechanical - Tyres & More",
    "address": "3/235 Princes Hwy, Unanderra NSW 2526, Australia",
    "suburb": "Unanderra NSW 2526",
    "state": "NSW",
    "rating": 4.7,
    "reviews": 83,
    "lat": -34.4623346,
    "lng": 150.838383,
    "place_id": "ChIJLTh87xwaE2sRU4qetgpU1_8",
    "maps_url": "https://www.google.com/maps/place/?q=place_id:ChIJLTh87xwaE2sRU4qetgpU1_8"
  },
  {
    "name": "Dapto Tyrepower",
    "address": "192 Princes Hwy, Dapto NSW 2530, Australia",
    "suburb": "Dapto NSW 2530",
    "state": "NSW",
    "rating": 4.8,
    "reviews": 118,
    "lat": -34.4986147,
    "lng": 150.7906562,
    "place_id": "ChIJrUsNTusRE2sRUDZGLSBaZXI",
    "maps_url": "https://www.google.com/maps/place/?q=place_id:ChIJrUsNTusRE2sRUDZGLSBaZXI"
  },
  {
    "name": "MP TYRES PTY LTD (Formerly known as Cremers Tyre Discount)",
    "address": "5/243 Nolan St, Unanderra NSW 2526, Australia",
    "suburb": "Unanderra NSW 2526",
    "state": "NSW",
    "rating": 4.9,
    "reviews": 85,
    "lat": -34.4626506,
    "lng": 150.8418434,
    "place_id": "ChIJj9GXvr4QE2sRyxmBSSsXUwA",
    "maps_url": "https://www.google.com/maps/place/?q=place_id:ChIJj9GXvr4QE2sRyxmBSSsXUwA"
  },
  {
    "name": "Tumbi Tyres & More",
    "address": "5 Mingara Dr, Tumbi Umbi NSW 2261, Australia",
    "suburb": "Tumbi Umbi NSW 2261",
    "state": "NSW",
    "rating": 4.6,
    "reviews": 368,
    "lat": -33.3633013,
    "lng": 151.4443557,
    "place_id": "ChIJ00eaAbjOcmsR4iwj6pLoAgw",
    "maps_url": "https://www.google.com/maps/place/?q=place_id:ChIJ00eaAbjOcmsR4iwj6pLoAgw"
  },
  {
    "name": "Bob Jane T-Marts Erina",
    "address": "155/161 The Entrance Rd, Erina NSW 2250, Australia",
    "suburb": "Erina NSW 2250",
    "state": "NSW",
    "rating": 4.6,
    "reviews": 422,
    "lat": -33.4377807,
    "lng": 151.3802271,
    "place_id": "ChIJGbmDxXjKcmsRWXlmpOdx6VM",
    "maps_url": "https://www.google.com/maps/place/?q=place_id:ChIJGbmDxXjKcmsRWXlmpOdx6VM"
  },
  {
    "name": "Tyrepower Erina",
    "address": "22/24 Aston Rd, Erina NSW 2250, Australia",
    "suburb": "Erina NSW 2250",
    "state": "NSW",
    "rating": 4.9,
    "reviews": 570,
    "lat": -33.4341686,
    "lng": 151.3845796,
    "place_id": "ChIJ28S1cXrKcmsR_iEaiPlY2R0",
    "maps_url": "https://www.google.com/maps/place/?q=place_id:ChIJ28S1cXrKcmsR_iEaiPlY2R0"
  },
  {
    "name": "supa cheap tyres",
    "address": "15 Apprentice Dr, Berkeley Vale NSW 2261, Australia",
    "suburb": "Berkeley Vale NSW 2261",
    "state": "NSW",
    "rating": 4.7,
    "reviews": 28,
    "lat": -33.3287256,
    "lng": 151.4203569,
    "place_id": "ChIJcxEFCTnPcmsRuj_PkXYN7D8",
    "maps_url": "https://www.google.com/maps/place/?q=place_id:ChIJcxEFCTnPcmsRuj_PkXYN7D8"
  },
  {
    "name": "Budget Tyre Shed",
    "address": "7/20 Arizona Rd, Charmhaven NSW 2263, Australia",
    "suburb": "Charmhaven NSW 2263",
    "state": "NSW",
    "rating": 4.6,
    "reviews": 46,
    "lat": -33.2413823,
    "lng": 151.4924122,
    "place_id": "ChIJY09yhz7RcmsRuaIc6oITLdQ",
    "maps_url": "https://www.google.com/maps/place/?q=place_id:ChIJY09yhz7RcmsRuaIc6oITLdQ"
  },
  {
    "name": "Ocean Beach Tyrepower",
    "address": "55 Ocean Beach Rd, Woy Woy NSW 2256, Australia",
    "suburb": "Woy Woy NSW 2256",
    "state": "NSW",
    "rating": 4.9,
    "reviews": 1949,
    "lat": -33.493253,
    "lng": 151.320184,
    "place_id": "ChIJK5DEmU5LDWsRnrOqDOAiB9c",
    "maps_url": "https://www.google.com/maps/place/?q=place_id:ChIJK5DEmU5LDWsRnrOqDOAiB9c"
  },
  {
    "name": "Tyrepower Gosford",
    "address": "3/411 Manns Road West, West Gosford NSW 2250, Australia",
    "suburb": "West Gosford NSW 2250",
    "state": "NSW",
    "rating": 4.7,
    "reviews": 315,
    "lat": -33.4249403,
    "lng": 151.3185605,
    "place_id": "ChIJHTvw0KlKDWsRmPHXhxd5V1E",
    "maps_url": "https://www.google.com/maps/place/?q=place_id:ChIJHTvw0KlKDWsRmPHXhxd5V1E"
  },
  {
    "name": "Treads Tyrepower",
    "address": "1/34 Avoca Dr, Kincumber NSW 2251, Australia",
    "suburb": "Kincumber NSW 2251",
    "state": "NSW",
    "rating": 4.8,
    "reviews": 726,
    "lat": -33.4680604,
    "lng": 151.3815949,
    "place_id": "ChIJdw9kV6S1cmsRFoU76oL6AAU",
    "maps_url": "https://www.google.com/maps/place/?q=place_id:ChIJdw9kV6S1cmsRFoU76oL6AAU"
  },
  {
    "name": "Tyrepower Wyong",
    "address": "3 Dulmison Ave, Wyong NSW 2259, Australia",
    "suburb": "Wyong NSW 2259",
    "state": "NSW",
    "rating": 5,
    "reviews": 915,
    "lat": -33.26875030000001,
    "lng": 151.4401527,
    "place_id": "ChIJj5klLX7RcmsRoYSviNTRfmk",
    "maps_url": "https://www.google.com/maps/place/?q=place_id:ChIJj5klLX7RcmsRoYSviNTRfmk"
  },
  {
    "name": "Central Coast Rubber Repairs",
    "address": "Lot 2 David St, Doyalson NSW 2262, Australia",
    "suburb": "Doyalson NSW 2262",
    "state": "NSW",
    "rating": 4.9,
    "reviews": 97,
    "lat": -33.2028485,
    "lng": 151.523796,
    "place_id": "ChIJWY9BX9vZcmsRKDC-UpxKW74",
    "maps_url": "https://www.google.com/maps/place/?q=place_id:ChIJWY9BX9vZcmsRKDC-UpxKW74"
  },
  {
    "name": "JAX Tyres & Auto Erina",
    "address": "Erina Fair Shopping Centre CP002, North South Rd, Erina NSW 2250, Australia",
    "suburb": "North South Rd",
    "state": "NSW",
    "rating": 4.5,
    "reviews": 273,
    "lat": -33.437739,
    "lng": 151.393609,
    "place_id": "ChIJy1v7DnTKcmsR9wsXUndQ9Ek",
    "maps_url": "https://www.google.com/maps/place/?q=place_id:ChIJy1v7DnTKcmsR9wsXUndQ9Ek"
  },
  {
    "name": "Tyrepower Lisarow",
    "address": "880 Pacific Hwy, Lisarow NSW 2250, Australia",
    "suburb": "Lisarow NSW 2250",
    "state": "NSW",
    "rating": 4.9,
    "reviews": 478,
    "lat": -33.3845012,
    "lng": 151.3613112,
    "place_id": "ChIJO9kD1D3LcmsR1T-jIY1BKfc",
    "maps_url": "https://www.google.com/maps/place/?q=place_id:ChIJO9kD1D3LcmsR1T-jIY1BKfc"
  },
  {
    "name": "Tyrepower Toukley",
    "address": "310 Main Rd, Toukley NSW 2263, Australia",
    "suburb": "Toukley NSW 2263",
    "state": "NSW",
    "rating": 4.8,
    "reviews": 726,
    "lat": -33.2641917,
    "lng": 151.5455786,
    "place_id": "ChIJD3342ETacmsRzX8VSVX2WJ4",
    "maps_url": "https://www.google.com/maps/place/?q=place_id:ChIJD3342ETacmsRzX8VSVX2WJ4"
  },
  {
    "name": "JAX Tyres & Auto Charmhaven",
    "address": "Unit 7 & 8/6 Botham Cl, Charmhaven NSW 2263, Australia",
    "suburb": "Charmhaven NSW 2263",
    "state": "NSW",
    "rating": 4.8,
    "reviews": 166,
    "lat": -33.2377773,
    "lng": 151.4991441,
    "place_id": "ChIJ4XnSiZfRcmsRnFW0JFAU384",
    "maps_url": "https://www.google.com/maps/place/?q=place_id:ChIJ4XnSiZfRcmsRnFW0JFAU384"
  },
  {
    "name": "Rite Price Tyres",
    "address": "1 Journeyman Cl, Berkeley Vale NSW 2261, Australia",
    "suburb": "Berkeley Vale NSW 2261",
    "state": "NSW",
    "rating": 4.3,
    "reviews": 315,
    "lat": -33.324114,
    "lng": 151.423937,
    "place_id": "ChIJ_70Og8fOcmsRqZ_zMSN85rg",
    "maps_url": "https://www.google.com/maps/place/?q=place_id:ChIJ_70Og8fOcmsRqZ_zMSN85rg"
  },
  {
    "name": "Charmhaven Tyres",
    "address": "20/14-16 Arizona Rd, Charmhaven NSW 2263, Australia",
    "suburb": "Charmhaven NSW 2263",
    "state": "NSW",
    "rating": 4.5,
    "reviews": 36,
    "lat": -33.2419691,
    "lng": 151.4920218,
    "place_id": "ChIJfRgJiWHRcmsRMXY79s7MHqg",
    "maps_url": "https://www.google.com/maps/place/?q=place_id:ChIJfRgJiWHRcmsRMXY79s7MHqg"
  },
  {
    "name": "Goodyear Autocare Erina",
    "address": "249 The Entrance Rd, Erina NSW 2250, Australia",
    "suburb": "Erina NSW 2250",
    "state": "NSW",
    "rating": 4.6,
    "reviews": 147,
    "lat": -33.4340386,
    "lng": 151.3879083,
    "place_id": "ChIJI1nqAHHKcmsRM9vxkMUs5Oc",
    "maps_url": "https://www.google.com/maps/place/?q=place_id:ChIJI1nqAHHKcmsRM9vxkMUs5Oc"
  },
  {
    "name": "Central Coast Tyre & Mechanical Gosford",
    "address": "10 Lindsey St, North Gosford NSW 2250, Australia",
    "suburb": "North Gosford NSW 2250",
    "state": "NSW",
    "rating": 4.8,
    "reviews": 46,
    "lat": -33.416733,
    "lng": 151.3445074,
    "place_id": "ChIJOW7eRRHLcmsRgJHyGduyUgI",
    "maps_url": "https://www.google.com/maps/place/?q=place_id:ChIJOW7eRRHLcmsRgJHyGduyUgI"
  },
  {
    "name": "mycar Tyre & Auto Erina",
    "address": "Glen Avenue, Terrigal Dr, Erina NSW 2250, Australia",
    "suburb": "Terrigal Dr",
    "state": "NSW",
    "rating": 4.9,
    "reviews": 1595,
    "lat": -33.4366142,
    "lng": 151.3941822,
    "place_id": "ChIJs5l7jXPKcmsRt4EFNrI5b8U",
    "maps_url": "https://www.google.com/maps/place/?q=place_id:ChIJs5l7jXPKcmsRt4EFNrI5b8U"
  },
  {
    "name": "Roadsmart Fleet - Gosford (Dunlop Super Dealer)",
    "address": "334 Mann St, Gosford NSW 2250, Australia",
    "suburb": "Gosford NSW 2250",
    "state": "NSW",
    "rating": 4.5,
    "reviews": 128,
    "lat": -33.418699,
    "lng": 151.3431218,
    "place_id": "ChIJb9poabvKcmsRT_bcKC1vzCw",
    "maps_url": "https://www.google.com/maps/place/?q=place_id:ChIJb9poabvKcmsRT_bcKC1vzCw"
  },
  {
    "name": "Khalsa car & truck Mobile Tyres Parramatta",
    "address": "1 Dixon St, Parramatta NSW 2150, Australia",
    "suburb": "Parramatta NSW 2150",
    "state": "NSW",
    "rating": 4.8,
    "reviews": 88,
    "lat": -33.8235848,
    "lng": 151.0012686,
    "place_id": "ChIJf9Cc_wKjEmsR6RgIcYD7FFY",
    "maps_url": "https://www.google.com/maps/place/?q=place_id:ChIJf9Cc_wKjEmsR6RgIcYD7FFY"
  },
  {
    "name": "Tyres & More Parramatta",
    "address": "187 George St, Parramatta NSW 2150, Australia",
    "suburb": "Parramatta NSW 2150",
    "state": "NSW",
    "rating": 4.7,
    "reviews": 218,
    "lat": -33.817945,
    "lng": 151.016895,
    "place_id": "ChIJSbgoaRajEmsRC_bvRU9HVQ4",
    "maps_url": "https://www.google.com/maps/place/?q=place_id:ChIJSbgoaRajEmsRC_bvRU9HVQ4"
  },
  {
    "name": "Tempe Tyres Parramatta",
    "address": "15-21 Parramatta Rd, Clyde NSW 2142, Australia",
    "suburb": "Clyde NSW 2142",
    "state": "NSW",
    "rating": 3.9,
    "reviews": 700,
    "lat": -33.8343637,
    "lng": 151.0214626,
    "place_id": "ChIJD3oJWzajEmsRZnR2RzwE3bQ",
    "maps_url": "https://www.google.com/maps/place/?q=place_id:ChIJD3oJWzajEmsRZnR2RzwE3bQ"
  },
  {
    "name": "Direct Tyre Sales And Mechanical Repairs",
    "address": "130 Victoria Rd, Parramatta NSW 2150, Australia",
    "suburb": "Parramatta NSW 2150",
    "state": "NSW",
    "rating": 4.7,
    "reviews": 364,
    "lat": -33.8082681,
    "lng": 151.0172888,
    "place_id": "ChIJrzB01g-jEmsRlLTS4lYefHg",
    "maps_url": "https://www.google.com/maps/place/?q=place_id:ChIJrzB01g-jEmsRlLTS4lYefHg"
  },
  {
    "name": "Tyre Kingdom",
    "address": "635 Church St, North Parramatta NSW 2151, Australia",
    "suburb": "North Parramatta NSW 2151",
    "state": "NSW",
    "rating": 4,
    "reviews": 267,
    "lat": -33.7943408,
    "lng": 151.0000391,
    "place_id": "ChIJXX0tUFWiEmsRG-p_Kv7yE-k",
    "maps_url": "https://www.google.com/maps/place/?q=place_id:ChIJXX0tUFWiEmsRG-p_Kv7yE-k"
  },
  {
    "name": "mycar Tyre & Auto Parramatta",
    "address": "9A Aird St, Parramatta NSW 2150, Australia",
    "suburb": "Parramatta NSW 2150",
    "state": "NSW",
    "rating": 4.7,
    "reviews": 1082,
    "lat": -33.8174701,
    "lng": 150.9995941,
    "place_id": "ChIJd26Tm9-iEmsRVJsdbvPyMcQ",
    "maps_url": "https://www.google.com/maps/place/?q=place_id:ChIJd26Tm9-iEmsRVJsdbvPyMcQ"
  },
  {
    "name": "Tyrepower Parramatta",
    "address": "1/552-560 Church St, North Parramatta NSW 2151, Australia",
    "suburb": "North Parramatta NSW 2151",
    "state": "NSW",
    "rating": 4.9,
    "reviews": 121,
    "lat": -33.7986593,
    "lng": 151.0034691,
    "place_id": "ChIJbzF9VQCjEmsRrLY4Fwvj2zQ",
    "maps_url": "https://www.google.com/maps/place/?q=place_id:ChIJbzF9VQCjEmsRrLY4Fwvj2zQ"
  },
  {
    "name": "Bridgestone Select Tyre & Auto Parramatta",
    "address": "Corner of Aird and, O'Connell St, Parramatta NSW 2150, Australia",
    "suburb": "O'Connell St",
    "state": "NSW",
    "rating": 4.4,
    "reviews": 188,
    "lat": -33.816992,
    "lng": 150.999044,
    "place_id": "ChIJ95qHPwCjEmsRoYH-i3URpH4",
    "maps_url": "https://www.google.com/maps/place/?q=place_id:ChIJ95qHPwCjEmsRoYH-i3URpH4"
  },
  {
    "name": "Bob Jane T-Marts Granville",
    "address": "280 Parramatta Rd, Granville NSW 2142, Australia",
    "suburb": "Granville NSW 2142",
    "state": "NSW",
    "rating": 4.6,
    "reviews": 1325,
    "lat": -33.8282135,
    "lng": 151.0055948,
    "place_id": "ChIJiwECuCijEmsR9_LtuXbAXYM",
    "maps_url": "https://www.google.com/maps/place/?q=place_id:ChIJiwECuCijEmsR9_LtuXbAXYM"
  },
  {
    "name": "AJ Tyres Road side assistance",
    "address": "Boundary Rd, Northmead NSW 2152, Australia",
    "suburb": "Northmead NSW 2152",
    "state": "NSW",
    "rating": 5,
    "reviews": 2,
    "lat": -33.7950398,
    "lng": 150.9982868,
    "place_id": "ChIJPagHVlSjEmsRIQMVzXkEnG4",
    "maps_url": "https://www.google.com/maps/place/?q=place_id:ChIJPagHVlSjEmsRIQMVzXkEnG4"
  },
  {
    "name": "Amart Tyres",
    "address": "86 Parramatta Rd, Granville NSW 2142, Australia",
    "suburb": "Granville NSW 2142",
    "state": "NSW",
    "rating": 5,
    "reviews": 2123,
    "lat": -33.8321416,
    "lng": 151.0147752,
    "place_id": "ChIJBes_IuajEmsRs5icXMCB5Nk",
    "maps_url": "https://www.google.com/maps/place/?q=place_id:ChIJBes_IuajEmsRs5icXMCB5Nk"
  },
  {
    "name": "Aussie Mobile Tyre Services",
    "address": "83 Abbott Rd, Blacktown NSW 2148, Australia",
    "suburb": "Blacktown NSW 2148",
    "state": "NSW",
    "rating": 4.9,
    "reviews": 131,
    "lat": -33.7664349,
    "lng": 150.9527572,
    "place_id": "ChIJYy5mf_mZEmsRsaepNBHGpbw",
    "maps_url": "https://www.google.com/maps/place/?q=place_id:ChIJYy5mf_mZEmsRsaepNBHGpbw"
  },
  {
    "name": "Tyre Express",
    "address": "60 Wellington Rd, South Granville NSW 2142, Australia",
    "suburb": "South Granville NSW 2142",
    "state": "NSW",
    "rating": 4.4,
    "reviews": 324,
    "lat": -33.8629023,
    "lng": 151.0099384,
    "place_id": "ChIJJyBRZ-a8EmsR8zksj8cBozU",
    "maps_url": "https://www.google.com/maps/place/?q=place_id:ChIJJyBRZ-a8EmsR8zksj8cBozU"
  },
  {
    "name": "JAX Tyres & Auto Merrylands",
    "address": "1 Hilltop Rd, Merrylands NSW 2160, Australia",
    "suburb": "Merrylands NSW 2160",
    "state": "NSW",
    "rating": 4.8,
    "reviews": 385,
    "lat": -33.826559,
    "lng": 150.9838114,
    "place_id": "ChIJHwsKiFSjEmsRQqlWoC4Ipa8",
    "maps_url": "https://www.google.com/maps/place/?q=place_id:ChIJHwsKiFSjEmsRQqlWoC4Ipa8"
  },
  {
    "name": "AAA Tyre Factory",
    "address": "9/2 Donald St, Guildford NSW 2161, Australia",
    "suburb": "Guildford NSW 2161",
    "state": "NSW",
    "rating": 4.3,
    "reviews": 458,
    "lat": -33.8694364,
    "lng": 150.9805503,
    "place_id": "ChIJudRNTQq9EmsR0GJ8Yggjmyw",
    "maps_url": "https://www.google.com/maps/place/?q=place_id:ChIJudRNTQq9EmsR0GJ8Yggjmyw"
  },
  {
    "name": "Nova Tyres Parramatta",
    "address": "Railway Parade, Westmead NSW 2145, Australia",
    "suburb": "Westmead NSW 2145",
    "state": "NSW",
    "rating": null,
    "reviews": 0,
    "lat": -33.8105798,
    "lng": 150.9931295,
    "place_id": "ChIJbTWvQBSjEmsRcomzPoHN2ow",
    "maps_url": "https://www.google.com/maps/place/?q=place_id:ChIJbTWvQBSjEmsRcomzPoHN2ow"
  },
  {
    "name": "Leader Tyre & Auto",
    "address": "163 Adderley St, West Melbourne VIC 3003, Australia",
    "suburb": "West Melbourne VIC 3003",
    "state": "VIC",
    "rating": 4.7,
    "reviews": 146,
    "lat": -37.8095744,
    "lng": 144.9464156,
    "place_id": "ChIJAy6tU3Bd1moR9Ndi5rSoxcc",
    "maps_url": "https://www.google.com/maps/place/?q=place_id:ChIJAy6tU3Bd1moR9Ndi5rSoxcc"
  },
  {
    "name": "Jim's Mobile Tyres",
    "address": "702 Footscray Rd, West Melbourne VIC 3003, Australia",
    "suburb": "West Melbourne VIC 3003",
    "state": "VIC",
    "rating": 4.4,
    "reviews": 111,
    "lat": -37.8061402,
    "lng": 144.9091438,
    "place_id": "ChIJ-yq9-IRd1moR9nEqn4yBNfA",
    "maps_url": "https://www.google.com/maps/place/?q=place_id:ChIJ-yq9-IRd1moR9nEqn4yBNfA"
  },
  {
    "name": "Bob Jane T-Marts Melbourne",
    "address": "697 Elizabeth St, Melbourne VIC 3000, Australia",
    "suburb": "Melbourne VIC 3000",
    "state": "VIC",
    "rating": 4.6,
    "reviews": 568,
    "lat": -37.80219,
    "lng": 144.9570966,
    "place_id": "ChIJX7kwcTJd1moRl6vx0Gx3EBs",
    "maps_url": "https://www.google.com/maps/place/?q=place_id:ChIJX7kwcTJd1moRl6vx0Gx3EBs"
  },
  {
    "name": "Mobile Tyre Shop Melbourne",
    "address": "1/174 Atlantic Dr, Keysborough VIC 3173, Australia",
    "suburb": "Keysborough VIC 3173",
    "state": "VIC",
    "rating": 4.8,
    "reviews": 582,
    "lat": -38.0130358,
    "lng": 145.1839707,
    "place_id": "ChIJMdt1MItq1moRbcMjCnEPtgc",
    "maps_url": "https://www.google.com/maps/place/?q=place_id:ChIJMdt1MItq1moRbcMjCnEPtgc"
  },
  {
    "name": "mycar Tyre & Auto South Melbourne",
    "address": "248 Miles St, South Melbourne VIC 3205, Australia",
    "suburb": "South Melbourne VIC 3205",
    "state": "VIC",
    "rating": 4.8,
    "reviews": 1709,
    "lat": -37.8285874,
    "lng": 144.9655579,
    "place_id": "ChIJMek7bKpC1moRT00PnLiAYW0",
    "maps_url": "https://www.google.com/maps/place/?q=place_id:ChIJMek7bKpC1moRT00PnLiAYW0"
  },
  {
    "name": "Tyreplus South Melbourne",
    "address": "379 City Rd, South Melbourne VIC 3006, Australia",
    "suburb": "South Melbourne VIC 3006",
    "state": "VIC",
    "rating": 4.9,
    "reviews": 183,
    "lat": -37.8306,
    "lng": 144.9549,
    "place_id": "ChIJG8sNZcRn1moRyQcbxL0tBOg",
    "maps_url": "https://www.google.com/maps/place/?q=place_id:ChIJG8sNZcRn1moRyQcbxL0tBOg"
  },
  {
    "name": "Goodyear Autocare West Melbourne",
    "address": "702-714 Footscray Rd, West Melbourne VIC 3003, Australia",
    "suburb": "West Melbourne VIC 3003",
    "state": "VIC",
    "rating": 4.8,
    "reviews": 159,
    "lat": -37.8055654,
    "lng": 144.9092837,
    "place_id": "ChIJSa4GVoRd1moRsejJPwlXqOI",
    "maps_url": "https://www.google.com/maps/place/?q=place_id:ChIJSa4GVoRd1moRsejJPwlXqOI"
  },
  {
    "name": "Tyre Deals & EverTyres Sunshine",
    "address": "181 Fairbairn Rd, Sunshine West VIC 3020, Australia",
    "suburb": "Sunshine West VIC 3020",
    "state": "VIC",
    "rating": 4.7,
    "reviews": 205,
    "lat": -37.8123268,
    "lng": 144.8167992,
    "place_id": "ChIJnRjvNk5g1moRFViAO6_2tFY",
    "maps_url": "https://www.google.com/maps/place/?q=place_id:ChIJnRjvNk5g1moRFViAO6_2tFY"
  },
  {
    "name": "Bob Jane T-Marts Port Melbourne",
    "address": "1/473 Williamstown Rd, Port Melbourne VIC 3207, Australia",
    "suburb": "Port Melbourne VIC 3207",
    "state": "VIC",
    "rating": 4.8,
    "reviews": 919,
    "lat": -37.8318154,
    "lng": 144.937009,
    "place_id": "ChIJVzsBkZJn1moRPZJa7Wt2J1A",
    "maps_url": "https://www.google.com/maps/place/?q=place_id:ChIJVzsBkZJn1moRPZJa7Wt2J1A"
  },
  {
    "name": "Tyre Deals Dandenong & Auto Services",
    "address": "145 S Gippsland Hwy, Dandenong South VIC 3175, Australia",
    "suburb": "Dandenong South VIC 3175",
    "state": "VIC",
    "rating": 4.7,
    "reviews": 880,
    "lat": -38.013953,
    "lng": 145.232463,
    "place_id": "ChIJ2_zL1l0R1moRLQx8tr8COaM",
    "maps_url": "https://www.google.com/maps/place/?q=place_id:ChIJ2_zL1l0R1moRLQx8tr8COaM"
  },
  {
    "name": "Ozzy Tyres Laverton",
    "address": "Factory 1/37/39 Little Boundary Rd, Laverton North VIC 3026, Australia",
    "suburb": "Laverton North VIC 3026",
    "state": "VIC",
    "rating": 4.8,
    "reviews": 924,
    "lat": -37.8176334,
    "lng": 144.8175637,
    "place_id": "ChIJq6MIoFJg1moRu3DWHBh7KOA",
    "maps_url": "https://www.google.com/maps/place/?q=place_id:ChIJq6MIoFJg1moRu3DWHBh7KOA"
  },
  {
    "name": "Budget Tyres Sunshine",
    "address": "627 Ballarat Rd Service Rd, Albion VIC 3020, Australia",
    "suburb": "Albion VIC 3020",
    "state": "VIC",
    "rating": 4.9,
    "reviews": 375,
    "lat": -37.7753339,
    "lng": 144.81032,
    "place_id": "ChIJjxwWj95f1moRW4Gi37yrDvg",
    "maps_url": "https://www.google.com/maps/place/?q=place_id:ChIJjxwWj95f1moRW4Gi37yrDvg"
  },
  {
    "name": "Bob Jane T-Marts Prahran",
    "address": "694-696 High St, Prahran VIC 3181, Australia",
    "suburb": "Prahran VIC 3181",
    "state": "VIC",
    "rating": 4.7,
    "reviews": 520,
    "lat": -37.8544711,
    "lng": 145.011047,
    "place_id": "ChIJebUHfNFp1moR0IirYqryneI",
    "maps_url": "https://www.google.com/maps/place/?q=place_id:ChIJebUHfNFp1moR0IirYqryneI"
  },
  {
    "name": "JAX Tyres & Auto Prahran",
    "address": "386 High St, Prahran VIC 3181, Australia",
    "suburb": "Prahran VIC 3181",
    "state": "VIC",
    "rating": 4.8,
    "reviews": 453,
    "lat": -37.8531501,
    "lng": 145.0013828,
    "place_id": "ChIJb15N8y1o1moRonQLNhV8ajI",
    "maps_url": "https://www.google.com/maps/place/?q=place_id:ChIJb15N8y1o1moRonQLNhV8ajI"
  },
  {
    "name": "Goodyear Autocare Richmond Victoria",
    "address": "435 Bridge Rd, Richmond VIC 3121, Australia",
    "suburb": "Richmond VIC 3121",
    "state": "VIC",
    "rating": 4.6,
    "reviews": 122,
    "lat": -37.818893,
    "lng": 145.0053997,
    "place_id": "ChIJVaYO2PdC1moRoBdBW_QM-8M",
    "maps_url": "https://www.google.com/maps/place/?q=place_id:ChIJVaYO2PdC1moRoBdBW_QM-8M"
  },
  {
    "name": "JAX Tyres & Auto Hawthorn",
    "address": "468 Burwood Rd, Hawthorn VIC 3122, Australia",
    "suburb": "Hawthorn VIC 3122",
    "state": "VIC",
    "rating": 4.8,
    "reviews": 423,
    "lat": -37.8234982,
    "lng": 145.0407286,
    "place_id": "ChIJR0YetC1C1moRT5GR4X9K3fc",
    "maps_url": "https://www.google.com/maps/place/?q=place_id:ChIJR0YetC1C1moRT5GR4X9K3fc"
  },
  {
    "name": "Bridgestone Select Tyre & Auto Collingwood",
    "address": "124 Johnston St, Collingwood VIC 3066, Australia",
    "suburb": "Collingwood VIC 3066",
    "state": "VIC",
    "rating": 4.9,
    "reviews": 232,
    "lat": -37.7992628,
    "lng": 144.989228,
    "place_id": "ChIJl2XeIxxD1moRIZ16RCRoR6Y",
    "maps_url": "https://www.google.com/maps/place/?q=place_id:ChIJl2XeIxxD1moRIZ16RCRoR6Y"
  },
  {
    "name": "Sunshine Tyre Shop",
    "address": "35 Wright St, Sunshine VIC 3020, Australia",
    "suburb": "Sunshine VIC 3020",
    "state": "VIC",
    "rating": 4,
    "reviews": 299,
    "lat": -37.7968079,
    "lng": 144.8351624,
    "place_id": "ChIJxyg9PI5g1moRSdk9yK4kblE",
    "maps_url": "https://www.google.com/maps/place/?q=place_id:ChIJxyg9PI5g1moRSdk9yK4kblE"
  },
  {
    "name": "Prestige Tire Haus",
    "address": "5-7 Boundary St, Port Melbourne VIC 3207, Australia",
    "suburb": "Port Melbourne VIC 3207",
    "state": "VIC",
    "rating": 4.6,
    "reviews": 47,
    "lat": -37.8337157,
    "lng": 144.9491012,
    "place_id": "ChIJ13VhHUZn1moRIoXEPp7InBE",
    "maps_url": "https://www.google.com/maps/place/?q=place_id:ChIJ13VhHUZn1moRIoXEPp7InBE"
  },
  {
    "name": "JAX Tyres & Auto Bayswater North",
    "address": "583 Dorset Rd, Bayswater North VIC 3153, Australia",
    "suburb": "Bayswater North VIC 3153",
    "state": "VIC",
    "rating": 4.8,
    "reviews": 753,
    "lat": -37.8232199,
    "lng": 145.2880894,
    "place_id": "ChIJdSaTueY61moRco6rFQvoWHY",
    "maps_url": "https://www.google.com/maps/place/?q=place_id:ChIJdSaTueY61moRco6rFQvoWHY"
  },
  {
    "name": "Affordable Tyres And Servicing",
    "address": "161 Fyans St, South Geelong VIC 3220, Australia",
    "suburb": "South Geelong VIC 3220",
    "state": "VIC",
    "rating": 4.5,
    "reviews": 163,
    "lat": -38.1651907,
    "lng": 144.367514,
    "place_id": "ChIJC_niuXIU1GoRmV1viG4wu8E",
    "maps_url": "https://www.google.com/maps/place/?q=place_id:ChIJC_niuXIU1GoRmV1viG4wu8E"
  },
  {
    "name": "Geelong Tyre and Auto",
    "address": "37 Leather St, Breakwater VIC 3219, Australia",
    "suburb": "Breakwater VIC 3219",
    "state": "VIC",
    "rating": 4.9,
    "reviews": 156,
    "lat": -38.185717,
    "lng": 144.374109,
    "place_id": "ChIJNynIslgU1GoRcRz8SpJbmL4",
    "maps_url": "https://www.google.com/maps/place/?q=place_id:ChIJNynIslgU1GoRcRz8SpJbmL4"
  },
  {
    "name": "Geelong's Cheapest Tyres",
    "address": "50 Douro St, North Geelong VIC 3215, Australia",
    "suburb": "North Geelong VIC 3215",
    "state": "VIC",
    "rating": 4.7,
    "reviews": 194,
    "lat": -38.1186118,
    "lng": 144.3487862,
    "place_id": "ChIJ9do6RF8X1GoRkRjg04cI5DI",
    "maps_url": "https://www.google.com/maps/place/?q=place_id:ChIJ9do6RF8X1GoRkRjg04cI5DI"
  },
  {
    "name": "JAX Tyres & Auto Geelong",
    "address": "256 Moorabool St, Geelong VIC 3220, Australia",
    "suburb": "Geelong VIC 3220",
    "state": "VIC",
    "rating": 4.8,
    "reviews": 674,
    "lat": -38.1523373,
    "lng": 144.3578862,
    "place_id": "ChIJJTPKrRoU1GoR7JP9-kEzZbc",
    "maps_url": "https://www.google.com/maps/place/?q=place_id:ChIJJTPKrRoU1GoR7JP9-kEzZbc"
  },
  {
    "name": "Lewis Tyrepower Geelong",
    "address": "2 High St, Belmont VIC 3216, Australia",
    "suburb": "Belmont VIC 3216",
    "state": "VIC",
    "rating": 4.8,
    "reviews": 571,
    "lat": -38.16776710000001,
    "lng": 144.3500239,
    "place_id": "ChIJ50twcncU1GoRnHJmB9rPM1Y",
    "maps_url": "https://www.google.com/maps/place/?q=place_id:ChIJ50twcncU1GoRnHJmB9rPM1Y"
  },
  {
    "name": "Bob Jane T-Marts Geelong",
    "address": "470 Moorabool Street, Fyans St, Geelong VIC 3220, Australia",
    "suburb": "Fyans St",
    "state": "VIC",
    "rating": 4.7,
    "reviews": 661,
    "lat": -38.1613791,
    "lng": 144.3539937,
    "place_id": "ChIJO6vCOnMU1GoRdp7mtRtTEGk",
    "maps_url": "https://www.google.com/maps/place/?q=place_id:ChIJO6vCOnMU1GoRdp7mtRtTEGk"
  },
  {
    "name": "Ozzy Tyres Geelong",
    "address": "10 Gordon Ave, Geelong West VIC 3218, Australia",
    "suburb": "Geelong West VIC 3218",
    "state": "VIC",
    "rating": 5,
    "reviews": 332,
    "lat": -38.1440234,
    "lng": 144.3516922,
    "place_id": "ChIJ26qPb74V1GoRkoG4MOw9gP8",
    "maps_url": "https://www.google.com/maps/place/?q=place_id:ChIJ26qPb74V1GoRkoG4MOw9gP8"
  },
  {
    "name": "Global Tyres Geelong",
    "address": "246 Thompson Rd, North Geelong VIC 3215, Australia",
    "suburb": "North Geelong VIC 3215",
    "state": "VIC",
    "rating": 4.7,
    "reviews": 165,
    "lat": -38.1102425,
    "lng": 144.3436609,
    "place_id": "ChIJXcTOhkkR1GoRVCAf_Ae5w64",
    "maps_url": "https://www.google.com/maps/place/?q=place_id:ChIJXcTOhkkR1GoRVCAf_Ae5w64"
  },
  {
    "name": "Geelong Tyre Services (Formerly Beaurepaires Geelong)",
    "address": "295 Moorabool St, Geelong VIC 3220, Australia",
    "suburb": "Geelong VIC 3220",
    "state": "VIC",
    "rating": 4.7,
    "reviews": 102,
    "lat": -38.1538349,
    "lng": 144.3581407,
    "place_id": "ChIJQ0OCAxAU1GoRdQzf11U1wP4",
    "maps_url": "https://www.google.com/maps/place/?q=place_id:ChIJQ0OCAxAU1GoRdQzf11U1wP4"
  },
  {
    "name": "Tyrepower Geelong",
    "address": "324 Melbourne Rd, North Geelong VIC 3215, Australia",
    "suburb": "North Geelong VIC 3215",
    "state": "VIC",
    "rating": 4.4,
    "reviews": 47,
    "lat": -38.1090636,
    "lng": 144.3522665,
    "place_id": "ChIJQy0Hdi0R1GoR7xNma_7_g1U",
    "maps_url": "https://www.google.com/maps/place/?q=place_id:ChIJQy0Hdi0R1GoR7xNma_7_g1U"
  },
  {
    "name": "TYREPLUS Norlane",
    "address": "2/141/143 Victoria St, North Geelong VIC 3215, Australia",
    "suburb": "North Geelong VIC 3215",
    "state": "VIC",
    "rating": 4.9,
    "reviews": 146,
    "lat": -38.12217,
    "lng": 144.34601,
    "place_id": "ChIJL4Klww8X1GoRfidLZeWXmPU",
    "maps_url": "https://www.google.com/maps/place/?q=place_id:ChIJL4Klww8X1GoRfidLZeWXmPU"
  },
  {
    "name": "Bay City A1 Tyres",
    "address": "22 Thompson Rd, North Geelong VIC 3215, Australia",
    "suburb": "North Geelong VIC 3215",
    "state": "VIC",
    "rating": 4.9,
    "reviews": 404,
    "lat": -38.1229145,
    "lng": 144.3415948,
    "place_id": "ChIJvxu-30sR1GoR-8LJiQ9X2eg",
    "maps_url": "https://www.google.com/maps/place/?q=place_id:ChIJvxu-30sR1GoR-8LJiQ9X2eg"
  },
  {
    "name": "Goodyear Autocare Geelong",
    "address": "106 Fyans St, Geelong VIC 3220, Australia",
    "suburb": "Geelong VIC 3220",
    "state": "VIC",
    "rating": 4.9,
    "reviews": 101,
    "lat": -38.1628913,
    "lng": 144.3576812,
    "place_id": "ChIJ5aePYJkV1GoR5Nq3JCuI3M4",
    "maps_url": "https://www.google.com/maps/place/?q=place_id:ChIJ5aePYJkV1GoR5Nq3JCuI3M4"
  },
  {
    "name": "Nova Tyres Geelong - 4x4 off-road wheel and tyre PACKAGES",
    "address": "1/118 Bellarine Hwy, Newcomb VIC 3219, Australia",
    "suburb": "Newcomb VIC 3219",
    "state": "VIC",
    "rating": 4.7,
    "reviews": 469,
    "lat": -38.1725394,
    "lng": 144.3974686,
    "place_id": "ChIJ0Vhj1_UV1GoRyQveYLl8krw",
    "maps_url": "https://www.google.com/maps/place/?q=place_id:ChIJ0Vhj1_UV1GoRyQveYLl8krw"
  },
  {
    "name": "Goodyear Autocare North Geelong",
    "address": "357/359 Thompson Rd, Bell Park VIC 3215, Australia",
    "suburb": "Bell Park VIC 3215",
    "state": "VIC",
    "rating": 4.5,
    "reviews": 52,
    "lat": -38.1005516,
    "lng": 144.3449645,
    "place_id": "ChIJBRF6aywR1GoR47n-ukh5wNE",
    "maps_url": "https://www.google.com/maps/place/?q=place_id:ChIJBRF6aywR1GoR47n-ukh5wNE"
  },
  {
    "name": "Barwon Tyre & Auto Centre",
    "address": "1 Curtis St, Belmont VIC 3216, Australia",
    "suburb": "Belmont VIC 3216",
    "state": "VIC",
    "rating": 4.9,
    "reviews": 248,
    "lat": -38.1782938,
    "lng": 144.3530778,
    "place_id": "ChIJCZDYAX4U1GoRDvsz1ic9V2Y",
    "maps_url": "https://www.google.com/maps/place/?q=place_id:ChIJCZDYAX4U1GoRDvsz1ic9V2Y"
  },
  {
    "name": "Moolap Tyres",
    "address": "66 Moon St, Moolap VIC 3224, Australia",
    "suburb": "Moolap VIC 3224",
    "state": "VIC",
    "rating": 5,
    "reviews": 79,
    "lat": -38.1688095,
    "lng": 144.4127413,
    "place_id": "ChIJ0xXncXAV1GoRM8D9kYq6onM",
    "maps_url": "https://www.google.com/maps/place/?q=place_id:ChIJ0xXncXAV1GoRM8D9kYq6onM"
  },
  {
    "name": "Bridgestone Select Tyre & Auto Geelong South",
    "address": "90-96 Fyans St, South Geelong VIC 3220, Australia",
    "suburb": "South Geelong VIC 3220",
    "state": "VIC",
    "rating": 4.9,
    "reviews": 326,
    "lat": -38.1627174,
    "lng": 144.3568979,
    "place_id": "ChIJx2NISRUU1GoRs1vi2omu1Hg",
    "maps_url": "https://www.google.com/maps/place/?q=place_id:ChIJx2NISRUU1GoRs1vi2omu1Hg"
  },
  {
    "name": "Former Belmont Tyre and Auto Services",
    "address": "295 Moorabool St, Geelong VIC 3220, Australia",
    "suburb": "Geelong VIC 3220",
    "state": "VIC",
    "rating": 4.5,
    "reviews": 53,
    "lat": -38.1539022,
    "lng": 144.3580744,
    "place_id": "ChIJB5-5T4cT1GoRCerjmCb2FYg",
    "maps_url": "https://www.google.com/maps/place/?q=place_id:ChIJB5-5T4cT1GoRCerjmCb2FYg"
  },
  {
    "name": "Associated Cold Tread Tyres",
    "address": "82-88 Douro St, North Geelong VIC 3215, Australia",
    "suburb": "North Geelong VIC 3215",
    "state": "VIC",
    "rating": 4.7,
    "reviews": 123,
    "lat": -38.1163493,
    "lng": 144.3495147,
    "place_id": "ChIJ4YU38swW1GoR4FBpdKB-fos",
    "maps_url": "https://www.google.com/maps/place/?q=place_id:ChIJ4YU38swW1GoR4FBpdKB-fos"
  },
  {
    "name": "Ballarats Cheapest Tyres",
    "address": "1 Tait St, Sebastopol VIC 3356, Australia",
    "suburb": "Sebastopol VIC 3356",
    "state": "VIC",
    "rating": 4.8,
    "reviews": 157,
    "lat": -37.5881436,
    "lng": 143.8264516,
    "place_id": "ChIJ1SJUHVVb0WoRr-ODjopp2_4",
    "maps_url": "https://www.google.com/maps/place/?q=place_id:ChIJ1SJUHVVb0WoRr-ODjopp2_4"
  },
  {
    "name": "Tyrepower Ballarat",
    "address": "602 Skipton St, Redan VIC 3350, Australia",
    "suburb": "Redan VIC 3350",
    "state": "VIC",
    "rating": 4.9,
    "reviews": 285,
    "lat": -37.575638,
    "lng": 143.8441796,
    "place_id": "ChIJXefqlr9E0WoRJMx5bY6MBeg",
    "maps_url": "https://www.google.com/maps/place/?q=place_id:ChIJXefqlr9E0WoRJMx5bY6MBeg"
  },
  {
    "name": "Bob Jane T-Marts Ballarat",
    "address": "117 Doveton St N, Ballarat Central VIC 3350, Australia",
    "suburb": "Ballarat Central VIC 3350",
    "state": "VIC",
    "rating": 4.6,
    "reviews": 344,
    "lat": -37.5585604,
    "lng": 143.8550862,
    "place_id": "ChIJxSv5ElhE0WoR_HqVrTFzfbA",
    "maps_url": "https://www.google.com/maps/place/?q=place_id:ChIJxSv5ElhE0WoR_HqVrTFzfbA"
  },
  {
    "name": "JAX Tyres & Auto Ballarat",
    "address": "1045 Howitt Street, Wendouree VIC 3355, Australia",
    "suburb": "Wendouree VIC 3355",
    "state": "VIC",
    "rating": 4.8,
    "reviews": 521,
    "lat": -37.5413125,
    "lng": 143.835416,
    "place_id": "ChIJIWzzzm9E0WoRavw6PRVBXPM",
    "maps_url": "https://www.google.com/maps/place/?q=place_id:ChIJIWzzzm9E0WoRavw6PRVBXPM"
  },
  {
    "name": "Stamford Tyres",
    "address": "7 Dawson St S, Ballarat Central VIC 3350, Australia",
    "suburb": "Ballarat Central VIC 3350",
    "state": "VIC",
    "rating": 4.9,
    "reviews": 90,
    "lat": -37.562585,
    "lng": 143.853593,
    "place_id": "ChIJk7pZ3_ZE0WoRd7F_pkyQqqo",
    "maps_url": "https://www.google.com/maps/place/?q=place_id:ChIJk7pZ3_ZE0WoRd7F_pkyQqqo"
  },
  {
    "name": "ARB Budget Tyres",
    "address": "25 Wallis St, Delacombe VIC 3356, Australia",
    "suburb": "Delacombe VIC 3356",
    "state": "VIC",
    "rating": 4.9,
    "reviews": 74,
    "lat": -37.5750481,
    "lng": 143.8216601,
    "place_id": "ChIJ6cmOQrFD0WoRKwLTLiR69VQ",
    "maps_url": "https://www.google.com/maps/place/?q=place_id:ChIJ6cmOQrFD0WoRKwLTLiR69VQ"
  },
  {
    "name": "Goodyear Autocare Ballarat",
    "address": "930 La Trobe St, Delacombe VIC 3350, Australia",
    "suburb": "Delacombe VIC 3350",
    "state": "VIC",
    "rating": 4.7,
    "reviews": 124,
    "lat": -37.5706329,
    "lng": 143.8208465,
    "place_id": "ChIJgRktKFlD0WoRtHb5b2sfdLU",
    "maps_url": "https://www.google.com/maps/place/?q=place_id:ChIJgRktKFlD0WoRtHb5b2sfdLU"
  },
  {
    "name": "Wheels Australia",
    "address": "1009 Howitt Street, Wendouree VIC 3355, Australia",
    "suburb": "Wendouree VIC 3355",
    "state": "VIC",
    "rating": 4.8,
    "reviews": 235,
    "lat": -37.54153660000001,
    "lng": 143.8389558,
    "place_id": "ChIJffT13G5E0WoRd9_y97KEQjA",
    "maps_url": "https://www.google.com/maps/place/?q=place_id:ChIJffT13G5E0WoRd9_y97KEQjA"
  },
  {
    "name": "Doherty & Clark",
    "address": "25 Mair St, Ballarat Central VIC 3350, Australia",
    "suburb": "Ballarat Central VIC 3350",
    "state": "VIC",
    "rating": 4.5,
    "reviews": 91,
    "lat": -37.5600321,
    "lng": 143.8624692,
    "place_id": "ChIJmTG3z1VE0WoRa0F19YEDcV8",
    "maps_url": "https://www.google.com/maps/place/?q=place_id:ChIJmTG3z1VE0WoRa0F19YEDcV8"
  },
  {
    "name": "Northway Tyres & Auto",
    "address": "10 Old Creswick Rd, Wendouree VIC 3355, Australia",
    "suburb": "Wendouree VIC 3355",
    "state": "VIC",
    "rating": 4.8,
    "reviews": 36,
    "lat": -37.525367,
    "lng": 143.849805,
    "place_id": "ChIJ3UZr5CNE0WoRMyJuFgMdBAU",
    "maps_url": "https://www.google.com/maps/place/?q=place_id:ChIJ3UZr5CNE0WoRMyJuFgMdBAU"
  },
  {
    "name": "Bridgestone Service Centre Ballarat",
    "address": "25 Mair St, Ballarat Central VIC 3350, Australia",
    "suburb": "Ballarat Central VIC 3350",
    "state": "VIC",
    "rating": 4.2,
    "reviews": 45,
    "lat": -37.5600374,
    "lng": 143.862457,
    "place_id": "ChIJ1QmHxVVE0WoRgv8qbUxLLNA",
    "maps_url": "https://www.google.com/maps/place/?q=place_id:ChIJ1QmHxVVE0WoRgv8qbUxLLNA"
  },
  {
    "name": "Market Tyres & Mechanical",
    "address": "108 Market St, Ballarat Central VIC 3350, Australia",
    "suburb": "Ballarat Central VIC 3350",
    "state": "VIC",
    "rating": 4.3,
    "reviews": 61,
    "lat": -37.5574185,
    "lng": 143.8564281,
    "place_id": "ChIJha-Vf1dE0WoRbh89eubZbtw",
    "maps_url": "https://www.google.com/maps/place/?q=place_id:ChIJha-Vf1dE0WoRbh89eubZbtw"
  },
  {
    "name": "mycar Tyre & Auto Delacombe",
    "address": "315 Glenelg Hwy, Smythes Creek VIC 3351, Australia",
    "suburb": "Smythes Creek VIC 3351",
    "state": "VIC",
    "rating": 4.8,
    "reviews": 344,
    "lat": -37.5934926,
    "lng": 143.8055395,
    "place_id": "ChIJiV7GCblc0WoRQTwvSy6FK0k",
    "maps_url": "https://www.google.com/maps/place/?q=place_id:ChIJiV7GCblc0WoRQTwvSy6FK0k"
  },
  {
    "name": "COOTA Tyre & Battery",
    "address": "105 Mair St E, Ballarat Central VIC 3350, Australia",
    "suburb": "Ballarat Central VIC 3350",
    "state": "VIC",
    "rating": 5,
    "reviews": 1,
    "lat": -37.56075070000001,
    "lng": 143.8690886,
    "place_id": "ChIJPaT-srZF0WoRVkIe7_yyM0U",
    "maps_url": "https://www.google.com/maps/place/?q=place_id:ChIJPaT-srZF0WoRVkIe7_yyM0U"
  },
  {
    "name": "mycar Tyre & Auto Wendouree",
    "address": "Norman Street, Gillies St, Wendouree VIC 3355, Australia",
    "suburb": "Gillies St",
    "state": "VIC",
    "rating": 4.6,
    "reviews": 192,
    "lat": -37.5352868,
    "lng": 143.8254376,
    "place_id": "ChIJ-52L8XBE0WoR1PW-aL3KSkI",
    "maps_url": "https://www.google.com/maps/place/?q=place_id:ChIJ-52L8XBE0WoR1PW-aL3KSkI"
  },
  {
    "name": "Midas Ballarat Tyre & Auto Service",
    "address": "824 La Trobe St, Delacombe VIC 3356, Australia",
    "suburb": "Delacombe VIC 3356",
    "state": "VIC",
    "rating": 4.4,
    "reviews": 131,
    "lat": -37.5712066,
    "lng": 143.8259867,
    "place_id": "ChIJDZzKrVhD0WoRaA50bBo3g1E",
    "maps_url": "https://www.google.com/maps/place/?q=place_id:ChIJDZzKrVhD0WoRaA50bBo3g1E"
  },
  {
    "name": "Dougies Tyres",
    "address": "79 Marong Rd, Golden Square VIC 3555, Australia",
    "suburb": "Golden Square VIC 3555",
    "state": "VIC",
    "rating": 5,
    "reviews": 16,
    "lat": -36.7588628,
    "lng": 144.2559635,
    "place_id": "ChIJAQAcKFRX12oRdkrYDykm7tM",
    "maps_url": "https://www.google.com/maps/place/?q=place_id:ChIJAQAcKFRX12oRdkrYDykm7tM"
  },
  {
    "name": "Bendigo Tyre Centre",
    "address": "4A Wood St, Long Gully VIC 3550, Australia",
    "suburb": "Long Gully VIC 3550",
    "state": "VIC",
    "rating": 4.8,
    "reviews": 83,
    "lat": -36.739723,
    "lng": 144.266729,
    "place_id": "ChIJ_XZDe9pZ12oREEtqrFxCXTA",
    "maps_url": "https://www.google.com/maps/place/?q=place_id:ChIJ_XZDe9pZ12oREEtqrFxCXTA"
  },
  {
    "name": "Bendigo Tyre & Auto (Formerly Beaurepaires Bendigo)",
    "address": "178 Lyttleton Terrace, Bendigo VIC 3550, Australia",
    "suburb": "Bendigo VIC 3550",
    "state": "VIC",
    "rating": 4.7,
    "reviews": 122,
    "lat": -36.7583078,
    "lng": 144.2850364,
    "place_id": "ChIJxwlHaZRZ12oR0XuouIU3HX8",
    "maps_url": "https://www.google.com/maps/place/?q=place_id:ChIJxwlHaZRZ12oR0XuouIU3HX8"
  },
  {
    "name": "Tyreplus Bendigo",
    "address": "30 Garsed St, Bendigo VIC 3550, Australia",
    "suburb": "Bendigo VIC 3550",
    "state": "VIC",
    "rating": 4.9,
    "reviews": 92,
    "lat": -36.76382,
    "lng": 144.28087,
    "place_id": "ChIJ1Z78tfJZ12oRsmcjOezZny0",
    "maps_url": "https://www.google.com/maps/place/?q=place_id:ChIJ1Z78tfJZ12oRsmcjOezZny0"
  },
  {
    "name": "Tyrepower Bendigo",
    "address": "44 Chapel St, Bendigo VIC 3550, Australia",
    "suburb": "Bendigo VIC 3550",
    "state": "VIC",
    "rating": 4.8,
    "reviews": 154,
    "lat": -36.7566072,
    "lng": 144.2860384,
    "place_id": "ChIJiwI_25VZ12oRakoAHiH5EOo",
    "maps_url": "https://www.google.com/maps/place/?q=place_id:ChIJiwI_25VZ12oRakoAHiH5EOo"
  },
  {
    "name": "Bob Jane T-Marts Bendigo",
    "address": "163-165 High Street, Myrtle St, Bendigo VIC 3550, Australia",
    "suburb": "Myrtle St",
    "state": "VIC",
    "rating": 4.8,
    "reviews": 738,
    "lat": -36.7639131,
    "lng": 144.2706998,
    "place_id": "ChIJkZbokvBZ12oR1DsVjahlFeA",
    "maps_url": "https://www.google.com/maps/place/?q=place_id:ChIJkZbokvBZ12oR1DsVjahlFeA"
  },
  {
    "name": "JAX Tyres & Auto Bendigo",
    "address": "2/169 High St, Bendigo VIC 3550, Australia",
    "suburb": "Bendigo VIC 3550",
    "state": "VIC",
    "rating": 4.6,
    "reviews": 284,
    "lat": -36.7641305,
    "lng": 144.2704882,
    "place_id": "ChIJv-RuVPdZ12oR3e9QuDdWY4k",
    "maps_url": "https://www.google.com/maps/place/?q=place_id:ChIJv-RuVPdZ12oR3e9QuDdWY4k"
  },
  {
    "name": "Goodyear Autocare Bendigo",
    "address": "43 McIvor Hwy, East Bendigo VIC 3550, Australia",
    "suburb": "East Bendigo VIC 3550",
    "state": "VIC",
    "rating": 4.8,
    "reviews": 86,
    "lat": -36.7569425,
    "lng": 144.2925036,
    "place_id": "ChIJVVVVVYVZ12oRKXTeTaLp74k",
    "maps_url": "https://www.google.com/maps/place/?q=place_id:ChIJVVVVVYVZ12oRKXTeTaLp74k"
  },
  {
    "name": "Borough Tyre & Auto - Repco Authorised Car Service California Gully",
    "address": "328-330 Eaglehawk Rd, California Gully VIC 3556, Australia",
    "suburb": "California Gully VIC 3556",
    "state": "VIC",
    "rating": 4.9,
    "reviews": 1040,
    "lat": -36.730278,
    "lng": 144.2584954,
    "place_id": "ChIJp_DTIn5X12oRuVmIWeCkqcY",
    "maps_url": "https://www.google.com/maps/place/?q=place_id:ChIJp_DTIn5X12oRuVmIWeCkqcY"
  },
  {
    "name": "Bridgestone Select Tyre & Auto Bendigo",
    "address": "476-480 High St, Golden Square VIC 3555, Australia",
    "suburb": "Golden Square VIC 3555",
    "state": "VIC",
    "rating": 4.5,
    "reviews": 70,
    "lat": -36.7824788,
    "lng": 144.247817,
    "place_id": "ChIJKSu6ZJdQ12oRM7wqlE5qqTI",
    "maps_url": "https://www.google.com/maps/place/?q=place_id:ChIJKSu6ZJdQ12oRM7wqlE5qqTI"
  },
  {
    "name": "M & C Tyres",
    "address": "259 High St, Kangaroo Flat VIC 3555, Australia",
    "suburb": "Kangaroo Flat VIC 3555",
    "state": "VIC",
    "rating": 4.8,
    "reviews": 91,
    "lat": -36.807764,
    "lng": 144.24154,
    "place_id": "ChIJ85ql4GhQ12oRXOcBDLYVZak",
    "maps_url": "https://www.google.com/maps/place/?q=place_id:ChIJ85ql4GhQ12oRXOcBDLYVZak"
  },
  {
    "name": "Ultimate Tyres & Auto",
    "address": "151 High St, Kangaroo Flat VIC 3555, Australia",
    "suburb": "Kangaroo Flat VIC 3555",
    "state": "VIC",
    "rating": 4.8,
    "reviews": 105,
    "lat": -36.7967026,
    "lng": 144.2442797,
    "place_id": "ChIJNWhb3YlQ12oRcKHXaMnx11Q",
    "maps_url": "https://www.google.com/maps/place/?q=place_id:ChIJNWhb3YlQ12oRcKHXaMnx11Q"
  },
  {
    "name": "The Local Tyre Shop",
    "address": "30 Garsed St, Bendigo VIC 3550, Australia",
    "suburb": "Bendigo VIC 3550",
    "state": "VIC",
    "rating": 5,
    "reviews": 1,
    "lat": -36.7638604,
    "lng": 144.2808216,
    "place_id": "ChIJufk52bxZ12oRYYREL7enLCE",
    "maps_url": "https://www.google.com/maps/place/?q=place_id:ChIJufk52bxZ12oRYYREL7enLCE"
  },
  {
    "name": "mycar Tyre & Auto Bendigo",
    "address": "Calder Hwy, Kangaroo Flat VIC 3555, Australia",
    "suburb": "Kangaroo Flat VIC 3555",
    "state": "VIC",
    "rating": 4.7,
    "reviews": 281,
    "lat": -36.80994829999999,
    "lng": 144.2431927,
    "place_id": "ChIJRYxWYWlQ12oRMjzohsboQVY",
    "maps_url": "https://www.google.com/maps/place/?q=place_id:ChIJRYxWYWlQ12oRMjzohsboQVY"
  },
  {
    "name": "Bendigo Mobile Wheel Alignments",
    "address": "133 Breen St, Golden Square VIC 3555, Australia",
    "suburb": "Golden Square VIC 3555",
    "state": "VIC",
    "rating": 5,
    "reviews": 40,
    "lat": -36.770918,
    "lng": 144.2697068,
    "place_id": "ChIJVfgKIP5b12oRf2IL1oLHqWY",
    "maps_url": "https://www.google.com/maps/place/?q=place_id:ChIJVfgKIP5b12oRf2IL1oLHqWY"
  },
  {
    "name": "Bridgestone Service Centre Bendigo North",
    "address": "71 Havilah Rd, North Bendigo VIC 3550, Australia",
    "suburb": "North Bendigo VIC 3550",
    "state": "VIC",
    "rating": 4.8,
    "reviews": 107,
    "lat": -36.7400183,
    "lng": 144.2673833,
    "place_id": "ChIJtXhjkNpZ12oRCC90UWGe-30",
    "maps_url": "https://www.google.com/maps/place/?q=place_id:ChIJtXhjkNpZ12oRCC90UWGe-30"
  },
  {
    "name": "Hattam Street Tyre & Mechanical",
    "address": "96 Hattam St, Golden Square VIC 3555, Australia",
    "suburb": "Golden Square VIC 3555",
    "state": "VIC",
    "rating": 4.9,
    "reviews": 110,
    "lat": -36.7827947,
    "lng": 144.2657169,
    "place_id": "ChIJy9WUbgxa12oRPGiBW8v5f5o",
    "maps_url": "https://www.google.com/maps/place/?q=place_id:ChIJy9WUbgxa12oRPGiBW8v5f5o"
  },
  {
    "name": "mycar Tyre & Auto Bendigo City",
    "address": "Lilly Street, Reddy Express Service Station, High St, Bendigo VIC 3550, Australia",
    "suburb": "Reddy Express Service Station",
    "state": "VIC",
    "rating": 4.5,
    "reviews": 162,
    "lat": -36.7656749,
    "lng": 144.2673648,
    "place_id": "ChIJW7BGruBP12oR-mOXn1W89eQ",
    "maps_url": "https://www.google.com/maps/place/?q=place_id:ChIJW7BGruBP12oR-mOXn1W89eQ"
  },
  {
    "name": "The Tyre Hub",
    "address": "4A Wellsford Dr, East Bendigo VIC 3550, Australia",
    "suburb": "East Bendigo VIC 3550",
    "state": "VIC",
    "rating": 5,
    "reviews": 7,
    "lat": -36.7475543,
    "lng": 144.3198754,
    "place_id": "ChIJNb12jgxa12oROWJ4T5l8dJg",
    "maps_url": "https://www.google.com/maps/place/?q=place_id:ChIJNb12jgxa12oROWJ4T5l8dJg"
  },
  {
    "name": "Highway Tyres",
    "address": "7A Wellsford Dr, East Bendigo VIC 3550, Australia",
    "suburb": "East Bendigo VIC 3550",
    "state": "VIC",
    "rating": 3.3,
    "reviews": 3,
    "lat": -36.7470718,
    "lng": 144.3193334,
    "place_id": "ChIJrUvV9-FY12oRVXHj9MOIoO8",
    "maps_url": "https://www.google.com/maps/place/?q=place_id:ChIJrUvV9-FY12oRVXHj9MOIoO8"
  },
  {
    "name": "SOS Mobile Tyre Fitting Services",
    "address": "8/41 Lensworth St, Coopers Plains QLD 4108, Australia",
    "suburb": "Coopers Plains QLD 4108",
    "state": "QLD",
    "rating": 4.9,
    "reviews": 582,
    "lat": -27.5718154,
    "lng": 153.0352473,
    "place_id": "ChIJwQLOw5VbkWsRw1ScF-VlToM",
    "maps_url": "https://www.google.com/maps/place/?q=place_id:ChIJwQLOw5VbkWsRw1ScF-VlToM"
  },
  {
    "name": "Brisbane Cheap Tyres",
    "address": "13 Moss St, Slacks Creek QLD 4127, Australia",
    "suburb": "Slacks Creek QLD 4127",
    "state": "QLD",
    "rating": 4.3,
    "reviews": 187,
    "lat": -27.6246402,
    "lng": 153.1184684,
    "place_id": "ChIJ4f9EiY9DkWsRRCA3X2kL5z8",
    "maps_url": "https://www.google.com/maps/place/?q=place_id:ChIJ4f9EiY9DkWsRRCA3X2kL5z8"
  },
  {
    "name": "Cheap tyres Queensland",
    "address": "698 Beaudesert Rd, Rocklea QLD 4106, Australia",
    "suburb": "Rocklea QLD 4106",
    "state": "QLD",
    "rating": 4.3,
    "reviews": 1177,
    "lat": -27.5563771,
    "lng": 153.0210585,
    "place_id": "ChIJZalHL1xFkWsRN-oUlcl2evA",
    "maps_url": "https://www.google.com/maps/place/?q=place_id:ChIJZalHL1xFkWsRN-oUlcl2evA"
  },
  {
    "name": "Discount Tyres Brisbane | #1 Wheels | Tyres | 4x4 Suspensions",
    "address": "Shop 1/58 Pritchard Rd, Virginia QLD 4014, Australia",
    "suburb": "Virginia QLD 4014",
    "state": "QLD",
    "rating": 4.7,
    "reviews": 286,
    "lat": -27.3743836,
    "lng": 153.0586469,
    "place_id": "ChIJS9qeSYbik2sR327Rsp91V_4",
    "maps_url": "https://www.google.com/maps/place/?q=place_id:ChIJS9qeSYbik2sR327Rsp91V_4"
  },
  {
    "name": "JAX Tyres & Auto Bowen Hills",
    "address": "147 Abbotsford Rd, Bowen Hills QLD 4006, Australia",
    "suburb": "Bowen Hills QLD 4006",
    "state": "QLD",
    "rating": 4.7,
    "reviews": 1382,
    "lat": -27.439414,
    "lng": 153.0406969,
    "place_id": "ChIJGTI0CMBZkWsRECJ6h9OGlO8",
    "maps_url": "https://www.google.com/maps/place/?q=place_id:ChIJGTI0CMBZkWsRECJ6h9OGlO8"
  },
  {
    "name": "Brisbane Tyres",
    "address": "17 Robinson Rd E, Virginia QLD 4014, Australia",
    "suburb": "Virginia QLD 4014",
    "state": "QLD",
    "rating": 4,
    "reviews": 83,
    "lat": -27.3702631,
    "lng": 153.0611602,
    "place_id": "ChIJBcYFek_jk2sRgut5FJhTMJs",
    "maps_url": "https://www.google.com/maps/place/?q=place_id:ChIJBcYFek_jk2sRgut5FJhTMJs"
  },
  {
    "name": "Tyre Solutions- Tyres Brisbane",
    "address": "194 Montague Rd, West End QLD 4101, Australia",
    "suburb": "West End QLD 4101",
    "state": "QLD",
    "rating": 4.8,
    "reviews": 182,
    "lat": -27.4761455,
    "lng": 153.0092621,
    "place_id": "ChIJhd1r5GRRkWsRLndsibs44eI",
    "maps_url": "https://www.google.com/maps/place/?q=place_id:ChIJhd1r5GRRkWsRLndsibs44eI"
  },
  {
    "name": "BRISBANE MOBILE TYRES",
    "address": "1 Northgate Rd, Nundah QLD 4012, Australia",
    "suburb": "Nundah QLD 4012",
    "state": "QLD",
    "rating": 4.9,
    "reviews": 238,
    "lat": -27.3944385,
    "lng": 153.0597467,
    "place_id": "ChIJbYc0emFYkWsR9yz1SDidWZ0",
    "maps_url": "https://www.google.com/maps/place/?q=place_id:ChIJbYc0emFYkWsR9yz1SDidWZ0"
  },
  {
    "name": "Hackett's Discount Tyres",
    "address": "16 Boyland Ave, Coopers Plains QLD 4108, Australia",
    "suburb": "Coopers Plains QLD 4108",
    "state": "QLD",
    "rating": 4.8,
    "reviews": 436,
    "lat": -27.5634613,
    "lng": 153.0237579,
    "place_id": "ChIJCaEo_1pFkWsRdO8PGzZ9fr4",
    "maps_url": "https://www.google.com/maps/place/?q=place_id:ChIJCaEo_1pFkWsRdO8PGzZ9fr4"
  },
  {
    "name": "Quality Tyres and Wheels - Cheapest Tyres & Rims Brisbane",
    "address": "9 Moss St, Slacks Creek QLD 4127, Australia",
    "suburb": "Slacks Creek QLD 4127",
    "state": "QLD",
    "rating": 4.2,
    "reviews": 304,
    "lat": -27.6246908,
    "lng": 153.1183162,
    "place_id": "ChIJQ3p_m49DkWsR7hFstkAGiL8",
    "maps_url": "https://www.google.com/maps/place/?q=place_id:ChIJQ3p_m49DkWsR7hFstkAGiL8"
  },
  {
    "name": "ETyreStore Geebung",
    "address": "4/97 Delta St, Geebung QLD 4034, Australia",
    "suburb": "Geebung QLD 4034",
    "state": "QLD",
    "rating": 4.4,
    "reviews": 282,
    "lat": -27.366755,
    "lng": 153.051481,
    "place_id": "ChIJAUx1do7ik2sRzfKHBiuXAqM",
    "maps_url": "https://www.google.com/maps/place/?q=place_id:ChIJAUx1do7ik2sRzfKHBiuXAqM"
  },
  {
    "name": "Ozzy Tyres Kelvin Grove | Wheels, Tyres, 4X4 Accessories Brisbane",
    "address": "323 Kelvin Grove Rd, Kelvin Grove QLD 4059, Australia",
    "suburb": "Kelvin Grove QLD 4059",
    "state": "QLD",
    "rating": 4.7,
    "reviews": 242,
    "lat": -27.4445848,
    "lng": 153.0079895,
    "place_id": "ChIJkyb27PdXkWsROkXdXm2LayU",
    "maps_url": "https://www.google.com/maps/place/?q=place_id:ChIJkyb27PdXkWsROkXdXm2LayU"
  },
  {
    "name": "Tyre City",
    "address": "1/294 New Cleveland Rd, Tingalpa QLD 4173, Australia",
    "suburb": "Tingalpa QLD 4173",
    "state": "QLD",
    "rating": 5,
    "reviews": 145,
    "lat": -27.4795329,
    "lng": 153.1404239,
    "place_id": "ChIJM3yO1YFYkWsRXCjuNrKenDM",
    "maps_url": "https://www.google.com/maps/place/?q=place_id:ChIJM3yO1YFYkWsRXCjuNrKenDM"
  },
  {
    "name": "mycar Mobile Tyre Fitting Brisbane",
    "address": "2049 Logan Rd, Upper Mount Gravatt QLD 4122, Australia",
    "suburb": "Upper Mount Gravatt QLD 4122",
    "state": "QLD",
    "rating": 4.9,
    "reviews": 256,
    "lat": -27.5636189,
    "lng": 153.086169,
    "place_id": "ChIJ4Z3LzslbkWsRimmsrmdzFbc",
    "maps_url": "https://www.google.com/maps/place/?q=place_id:ChIJ4Z3LzslbkWsRimmsrmdzFbc"
  },
  {
    "name": "Brisbane Cheapest Tyres & Auto Service",
    "address": "638 Gympie Rd, Lawnton QLD 4501, Australia",
    "suburb": "Lawnton QLD 4501",
    "state": "QLD",
    "rating": 4.5,
    "reviews": 127,
    "lat": -27.2943137,
    "lng": 152.9852078,
    "place_id": "ChIJJyq-LiT9k2sRfVnl-fPYn8k",
    "maps_url": "https://www.google.com/maps/place/?q=place_id:ChIJJyq-LiT9k2sRfVnl-fPYn8k"
  },
  {
    "name": "Ozzy Tyres Brendale | Wheels and Tyres Brisbane | Mag wheels Brendale | 4x4 wheels Northside | Rims Brisbane | Tyres Brisbane",
    "address": "83 S Pine Rd, Brendale QLD 4500, Australia",
    "suburb": "Brendale QLD 4500",
    "state": "QLD",
    "rating": 4.8,
    "reviews": 1301,
    "lat": -27.3189452,
    "lng": 152.9876715,
    "place_id": "ChIJ62z4TmT9k2sR6b_ykgyh930",
    "maps_url": "https://www.google.com/maps/place/?q=place_id:ChIJ62z4TmT9k2sR6b_ykgyh930"
  },
  {
    "name": "JAX Tyres & Auto Woolloongabba",
    "address": "98 Logan Rd, Woolloongabba QLD 4102, Australia",
    "suburb": "Woolloongabba QLD 4102",
    "state": "QLD",
    "rating": 4.6,
    "reviews": 445,
    "lat": -27.4896267,
    "lng": 153.0391472,
    "place_id": "ChIJD9ciY15bkWsR_8Fc5a3fCDA",
    "maps_url": "https://www.google.com/maps/place/?q=place_id:ChIJD9ciY15bkWsR_8Fc5a3fCDA"
  },
  {
    "name": "Tyre Solutions - Tyres Brisbane",
    "address": "100 Deshon St, Woolloongabba QLD 4102, Australia",
    "suburb": "Woolloongabba QLD 4102",
    "state": "QLD",
    "rating": 5,
    "reviews": 61,
    "lat": -27.4926815,
    "lng": 153.0466956,
    "place_id": "ChIJ-3qn0FFbkWsRWGDXDbBFoMc",
    "maps_url": "https://www.google.com/maps/place/?q=place_id:ChIJ-3qn0FFbkWsRWGDXDbBFoMc"
  },
  {
    "name": "JAX Tyres & Auto North Lakes",
    "address": "1/59 Flinders Parade, North Lakes QLD 4509, Australia",
    "suburb": "North Lakes QLD 4509",
    "state": "QLD",
    "rating": 4.7,
    "reviews": 906,
    "lat": -27.2210176,
    "lng": 152.9991553,
    "place_id": "ChIJtRQc78X6k2sRAMh1FTSyKd8",
    "maps_url": "https://www.google.com/maps/place/?q=place_id:ChIJtRQc78X6k2sRAMh1FTSyKd8"
  },
  {
    "name": "Tyre Solutions Tyres Brisbane",
    "address": "51 Godwin St, Bulimba QLD 4171, Australia",
    "suburb": "Bulimba QLD 4171",
    "state": "QLD",
    "rating": 4.9,
    "reviews": 54,
    "lat": -27.4534929,
    "lng": 153.0556555,
    "place_id": "ChIJpx2TZ8dZkWsRin-LRPxd9ms",
    "maps_url": "https://www.google.com/maps/place/?q=place_id:ChIJpx2TZ8dZkWsRin-LRPxd9ms"
  },
  {
    "name": "Southport Budget Tyres & Auto",
    "address": "37 Egerton St, Southport QLD 4215, Australia",
    "suburb": "Southport QLD 4215",
    "state": "QLD",
    "rating": 4.9,
    "reviews": 2763,
    "lat": -27.978453,
    "lng": 153.4119885,
    "place_id": "ChIJT4syfl8FkWsRW4cwtlAVue0",
    "maps_url": "https://www.google.com/maps/place/?q=place_id:ChIJT4syfl8FkWsRW4cwtlAVue0"
  },
  {
    "name": "The Tyre Shop",
    "address": "54 Johnston St, Southport QLD 4215, Australia",
    "suburb": "Southport QLD 4215",
    "state": "QLD",
    "rating": 4.9,
    "reviews": 288,
    "lat": -27.965539,
    "lng": 153.404611,
    "place_id": "ChIJVRrE4-8PkWsRX1E5mkRo6to",
    "maps_url": "https://www.google.com/maps/place/?q=place_id:ChIJVRrE4-8PkWsRX1E5mkRo6to"
  },
  {
    "name": "Budget Tyre Outlet & Mechanical - Oxenford",
    "address": "1/142 Siganto Dr, Helensvale QLD 4212, Australia",
    "suburb": "Helensvale QLD 4212",
    "state": "QLD",
    "rating": 4.9,
    "reviews": 1398,
    "lat": -27.8932665,
    "lng": 153.3153902,
    "place_id": "ChIJ3VACszgRkWsRf5vSPPYzvpw",
    "maps_url": "https://www.google.com/maps/place/?q=place_id:ChIJ3VACszgRkWsRf5vSPPYzvpw"
  },
  {
    "name": "Bundall Tyres",
    "address": "47 Upton St, Bundall QLD 4217, Australia",
    "suburb": "Bundall QLD 4217",
    "state": "QLD",
    "rating": 4.8,
    "reviews": 375,
    "lat": -28.0067718,
    "lng": 153.4109211,
    "place_id": "ChIJI6W5aTwFkWsRe1xVea-ktRk",
    "maps_url": "https://www.google.com/maps/place/?q=place_id:ChIJI6W5aTwFkWsRe1xVea-ktRk"
  },
  {
    "name": "Action Tyres & More",
    "address": "12 Price St, Southport QLD 4215, Australia",
    "suburb": "Southport QLD 4215",
    "state": "QLD",
    "rating": 4.7,
    "reviews": 275,
    "lat": -27.9662978,
    "lng": 153.4041814,
    "place_id": "ChIJJ2OIBfAPkWsRqFggcKOZ3a8",
    "maps_url": "https://www.google.com/maps/place/?q=place_id:ChIJJ2OIBfAPkWsRqFggcKOZ3a8"
  },
  {
    "name": "Bob Jane T-Marts Southport",
    "address": "168 Marine Parade, Gold Coast Hwy, Southport QLD 4215, Australia",
    "suburb": "Gold Coast Hwy",
    "state": "QLD",
    "rating": 4.6,
    "reviews": 472,
    "lat": -27.9563903,
    "lng": 153.408927,
    "place_id": "ChIJE0kn-ukPkWsRzkOlugEGRlk",
    "maps_url": "https://www.google.com/maps/place/?q=place_id:ChIJE0kn-ukPkWsRzkOlugEGRlk"
  },
  {
    "name": "Gold Coast Mobile Tyres",
    "address": "27 MacKay Cl, Bundall QLD 4217, Australia",
    "suburb": "Bundall QLD 4217",
    "state": "QLD",
    "rating": 5,
    "reviews": 1,
    "lat": -28.0167831,
    "lng": 153.399664,
    "place_id": "ChIJTe-MBzoFkWsRmukySce3HNo",
    "maps_url": "https://www.google.com/maps/place/?q=place_id:ChIJTe-MBzoFkWsRmukySce3HNo"
  },
  {
    "name": "JAX Tyres & Auto Ashmore",
    "address": "Unit 12/357 Southport Nerang Rd, Ashmore QLD 4214, Australia",
    "suburb": "Ashmore QLD 4214",
    "state": "QLD",
    "rating": 4.7,
    "reviews": 565,
    "lat": -27.9793803,
    "lng": 153.3783682,
    "place_id": "ChIJH2WdOmAakWsRXfCK6wWxavY",
    "maps_url": "https://www.google.com/maps/place/?q=place_id:ChIJH2WdOmAakWsRXfCK6wWxavY"
  },
  {
    "name": "Gold Coast Tyre & Auto",
    "address": "1 Ramly Dr, Burleigh Heads QLD 4220, Australia",
    "suburb": "Burleigh Heads QLD 4220",
    "state": "QLD",
    "rating": 4.8,
    "reviews": 153,
    "lat": -28.1023306,
    "lng": 153.4339914,
    "place_id": "ChIJFyFWnegKL2oRXRfbIV8UZ0M",
    "maps_url": "https://www.google.com/maps/place/?q=place_id:ChIJFyFWnegKL2oRXRfbIV8UZ0M"
  },
  {
    "name": "Budget Tyre Outlet & Mechanical - Nerang",
    "address": "6/90 Spencer Rd, Nerang QLD 4211, Australia",
    "suburb": "Nerang QLD 4211",
    "state": "QLD",
    "rating": 4.9,
    "reviews": 1074,
    "lat": -28.0058872,
    "lng": 153.3440037,
    "place_id": "ChIJIW0UTDobkWsRoA4O8kIPEOU",
    "maps_url": "https://www.google.com/maps/place/?q=place_id:ChIJIW0UTDobkWsRoA4O8kIPEOU"
  },
  {
    "name": "Harbour Town Tyre & Battery",
    "address": "217 Brisbane Rd, Biggera Waters QLD 4216, Australia",
    "suburb": "Biggera Waters QLD 4216",
    "state": "QLD",
    "rating": 4.8,
    "reviews": 199,
    "lat": -27.9317999,
    "lng": 153.3798074,
    "place_id": "ChIJd8RHCzIQkWsRgPi4l3oS9Mo",
    "maps_url": "https://www.google.com/maps/place/?q=place_id:ChIJd8RHCzIQkWsRgPi4l3oS9Mo"
  },
  {
    "name": "Branigans Tyres Southport",
    "address": "1/277 Southport Nerang Rd, Southport QLD 4215, Australia",
    "suburb": "Southport QLD 4215",
    "state": "QLD",
    "rating": 4.6,
    "reviews": 251,
    "lat": -27.9760088,
    "lng": 153.389424,
    "place_id": "ChIJT4syfl8FkWsRu1VHD8d39n0",
    "maps_url": "https://www.google.com/maps/place/?q=place_id:ChIJT4syfl8FkWsRu1VHD8d39n0"
  },
  {
    "name": "Rubber Robs - UltraTune Ashmore",
    "address": "2 Central Park Ave, Ashmore QLD 4214, Australia",
    "suburb": "Ashmore QLD 4214",
    "state": "QLD",
    "rating": 4.7,
    "reviews": 167,
    "lat": -27.986353,
    "lng": 153.3632416,
    "place_id": "ChIJQ8Ah7pIakWsRFA78Oq9w6ak",
    "maps_url": "https://www.google.com/maps/place/?q=place_id:ChIJQ8Ah7pIakWsRFA78Oq9w6ak"
  },
  {
    "name": "Aligned Mobile Tyres Gold Coast",
    "address": "63-69 Hinde St, Ashmore QLD 4214, Australia",
    "suburb": "Ashmore QLD 4214",
    "state": "QLD",
    "rating": 5,
    "reviews": 163,
    "lat": -27.982186,
    "lng": 153.38665,
    "place_id": "ChIJI7GfITydkGsRRLOcupeoZqo",
    "maps_url": "https://www.google.com/maps/place/?q=place_id:ChIJI7GfITydkGsRRLOcupeoZqo"
  },
  {
    "name": "Brian's Auto Centre",
    "address": "2064 Gold Coast Hwy, Miami QLD 4220, Australia",
    "suburb": "Miami QLD 4220",
    "state": "QLD",
    "rating": 4.4,
    "reviews": 417,
    "lat": -28.0684755,
    "lng": 153.4411801,
    "place_id": "ChIJlUqNrX8EkWsRXuZRpOOpGUs",
    "maps_url": "https://www.google.com/maps/place/?q=place_id:ChIJlUqNrX8EkWsRXuZRpOOpGUs"
  },
  {
    "name": "Ozzy Tyres Arundel | Wheels and Tyres Gold Coast | 4x4 rims | Surfers paradise Tyres |",
    "address": "1/352 Brisbane Rd, Arundel QLD 4214, Australia",
    "suburb": "Arundel QLD 4214",
    "state": "QLD",
    "rating": 4.9,
    "reviews": 168,
    "lat": -27.9313793,
    "lng": 153.3732757,
    "place_id": "ChIJ40xXoroRkWsR6QEZiHu79fU",
    "maps_url": "https://www.google.com/maps/place/?q=place_id:ChIJ40xXoroRkWsR6QEZiHu79fU"
  },
  {
    "name": "Miami Tyre Service",
    "address": "2060 Gold Coast Hwy, Miami QLD 4220, Australia",
    "suburb": "Miami QLD 4220",
    "state": "QLD",
    "rating": 4.5,
    "reviews": 125,
    "lat": -28.0685654,
    "lng": 153.4411612,
    "place_id": "ChIJlUqNrX8EkWsRQuIMJf1v8vk",
    "maps_url": "https://www.google.com/maps/place/?q=place_id:ChIJlUqNrX8EkWsRQuIMJf1v8vk"
  },
  {
    "name": "Branigans Tyres Burleigh Heads",
    "address": "13 Flagstone Dr, Burleigh Heads QLD 4220, Australia",
    "suburb": "Burleigh Heads QLD 4220",
    "state": "QLD",
    "rating": 4.7,
    "reviews": 255,
    "lat": -28.1044579,
    "lng": 153.4322341,
    "place_id": "ChIJxQfFg60ckWsRMix0MF1wHNg",
    "maps_url": "https://www.google.com/maps/place/?q=place_id:ChIJxQfFg60ckWsRMix0MF1wHNg"
  },
  {
    "name": "JAX Tyres & Auto Biggera Waters",
    "address": "25 Gateway Dr, Biggera Waters QLD 4216, Australia",
    "suburb": "Biggera Waters QLD 4216",
    "state": "QLD",
    "rating": 4.7,
    "reviews": 613,
    "lat": -27.9325703,
    "lng": 153.3841619,
    "place_id": "ChIJF2TDXCwQkWsRIyhxkI944cw",
    "maps_url": "https://www.google.com/maps/place/?q=place_id:ChIJF2TDXCwQkWsRIyhxkI944cw"
  },
  {
    "name": "TRUSTED TYRES ON GOLD COAST",
    "address": "157 Old Pacific Hwy, Oxenford QLD 4210, Australia",
    "suburb": "Oxenford QLD 4210",
    "state": "QLD",
    "rating": 4.6,
    "reviews": 97,
    "lat": -27.887227,
    "lng": 153.3143464,
    "place_id": "ChIJiQyHVW0RkWsRNaBNw2wk1rM",
    "maps_url": "https://www.google.com/maps/place/?q=place_id:ChIJiQyHVW0RkWsRNaBNw2wk1rM"
  },
  {
    "name": "Tyre Busters",
    "address": "2 Killick St, Kunda Park QLD 4556, Australia",
    "suburb": "Kunda Park QLD 4556",
    "state": "QLD",
    "rating": 4.8,
    "reviews": 340,
    "lat": -26.6633333,
    "lng": 153.0377778,
    "place_id": "ChIJk8-Goup3k2sR9XHRJ2YtGuA",
    "maps_url": "https://www.google.com/maps/place/?q=place_id:ChIJk8-Goup3k2sR9XHRJ2YtGuA"
  },
  {
    "name": "JAX Tyres & Auto Maroochydore",
    "address": "96-98 Sugar Rd, Maroochydore QLD 4558, Australia",
    "suburb": "Maroochydore QLD 4558",
    "state": "QLD",
    "rating": 4.7,
    "reviews": 576,
    "lat": -26.6693671,
    "lng": 153.0947061,
    "place_id": "ChIJ41cHyW12k2sRGodmu2MW8Mw",
    "maps_url": "https://www.google.com/maps/place/?q=place_id:ChIJ41cHyW12k2sRGodmu2MW8Mw"
  },
  {
    "name": "Bob Jane T-Marts Maroochydore",
    "address": "138 Aerodrome Rd, Maroochydore QLD 4558, Australia",
    "suburb": "Maroochydore QLD 4558",
    "state": "QLD",
    "rating": 4.5,
    "reviews": 464,
    "lat": -26.6568885,
    "lng": 153.0921705,
    "place_id": "ChIJAYFqCGR2k2sRHt2ISNBToog",
    "maps_url": "https://www.google.com/maps/place/?q=place_id:ChIJAYFqCGR2k2sRHt2ISNBToog"
  },
  {
    "name": "Retyre Kunda Park",
    "address": "8 Avian St, Kunda Park QLD 4556, Australia",
    "suburb": "Kunda Park QLD 4556",
    "state": "QLD",
    "rating": 4.9,
    "reviews": 190,
    "lat": -26.6644264,
    "lng": 153.0380215,
    "place_id": "ChIJGw7yg-p3k2sRK3mtr5IUVIk",
    "maps_url": "https://www.google.com/maps/place/?q=place_id:ChIJGw7yg-p3k2sRK3mtr5IUVIk"
  },
  {
    "name": "Goodyear Autocare Maroochydore",
    "address": "71 Wises Rd, Maroochydore QLD 4558, Australia",
    "suburb": "Maroochydore QLD 4558",
    "state": "QLD",
    "rating": 4.8,
    "reviews": 243,
    "lat": -26.671427,
    "lng": 153.0875522,
    "place_id": "ChIJd81bxWp2k2sR36Mb_nSzdtw",
    "maps_url": "https://www.google.com/maps/place/?q=place_id:ChIJd81bxWp2k2sR36Mb_nSzdtw"
  },
  {
    "name": "All Coast Tyre Solutions",
    "address": "17 Pioneer Rd, Yandina QLD 4561, Australia",
    "suburb": "Yandina QLD 4561",
    "state": "QLD",
    "rating": 4.9,
    "reviews": 237,
    "lat": -26.5567633,
    "lng": 152.9606827,
    "place_id": "ChIJeaWpfLZ7k2sRFL-bVfz12AQ",
    "maps_url": "https://www.google.com/maps/place/?q=place_id:ChIJeaWpfLZ7k2sRFL-bVfz12AQ"
  },
  {
    "name": "Ozzy Tyres Caloundra | Wheels, Tyres, Rims & 4X4 Wheels Sunshine Coast 🚗",
    "address": "17 Packer Rd, Bells Creek QLD 4551, Australia",
    "suburb": "Bells Creek QLD 4551",
    "state": "QLD",
    "rating": 4.7,
    "reviews": 337,
    "lat": -26.8050346,
    "lng": 153.0684509,
    "place_id": "ChIJRbH8_Rmbk2sRGPLQokHmxXM",
    "maps_url": "https://www.google.com/maps/place/?q=place_id:ChIJRbH8_Rmbk2sRGPLQokHmxXM"
  },
  {
    "name": "Phat Wheels & Tyres",
    "address": "Unit 1/40 Kerryl St, Kunda Park QLD 4556, Australia",
    "suburb": "Kunda Park QLD 4556",
    "state": "QLD",
    "rating": 5,
    "reviews": 345,
    "lat": -26.659533,
    "lng": 153.0419596,
    "place_id": "ChIJq-8j-753k2sRaVVZgdUvl48",
    "maps_url": "https://www.google.com/maps/place/?q=place_id:ChIJq-8j-753k2sRaVVZgdUvl48"
  },
  {
    "name": "Bob Jane T-Marts Caloundra",
    "address": "66 Caloundra Rd, Caloundra QLD 4551, Australia",
    "suburb": "Caloundra QLD 4551",
    "state": "QLD",
    "rating": 4.7,
    "reviews": 490,
    "lat": -26.7949417,
    "lng": 153.1050343,
    "place_id": "ChIJN-8831mZk2sRtiehr3jhOU4",
    "maps_url": "https://www.google.com/maps/place/?q=place_id:ChIJN-8831mZk2sRtiehr3jhOU4"
  },
  {
    "name": "Tyrewise Warana",
    "address": "u4/22 Tandem Ave, Warana QLD 4575, Australia",
    "suburb": "Warana QLD 4575",
    "state": "QLD",
    "rating": 4.9,
    "reviews": 242,
    "lat": -26.7305483,
    "lng": 153.125208,
    "place_id": "ChIJIZcATW6ek2sRp9otq2RhF1s",
    "maps_url": "https://www.google.com/maps/place/?q=place_id:ChIJIZcATW6ek2sRp9otq2RhF1s"
  },
  {
    "name": "Caloundra Budget Tyres & Mechanical",
    "address": "15 Daniel St, Caloundra QLD 4551, Australia",
    "suburb": "Caloundra QLD 4551",
    "state": "QLD",
    "rating": 4.8,
    "reviews": 148,
    "lat": -26.7936177,
    "lng": 153.1094169,
    "place_id": "ChIJD8gh01eZk2sR3fr4VKrRhh4",
    "maps_url": "https://www.google.com/maps/place/?q=place_id:ChIJD8gh01eZk2sR3fr4VKrRhh4"
  },
  {
    "name": "JAX Tyres & Auto Caloundra",
    "address": "71A Bowman Rd, Caloundra QLD 4551, Australia",
    "suburb": "Caloundra QLD 4551",
    "state": "QLD",
    "rating": 4.7,
    "reviews": 441,
    "lat": -26.803831,
    "lng": 153.1225833,
    "place_id": "ChIJr3SPmUSZk2sRRnayebKE6jo",
    "maps_url": "https://www.google.com/maps/place/?q=place_id:ChIJr3SPmUSZk2sRRnayebKE6jo"
  },
  {
    "name": "Bob Jane T-Marts Noosaville",
    "address": "118 Eumundi Rd, Noosaville QLD 4566, Australia",
    "suburb": "Noosaville QLD 4566",
    "state": "QLD",
    "rating": 4.9,
    "reviews": 517,
    "lat": -26.408118,
    "lng": 153.0477402,
    "place_id": "ChIJ0cg4Z8Nok2sRXAi7PKMP938",
    "maps_url": "https://www.google.com/maps/place/?q=place_id:ChIJ0cg4Z8Nok2sRXAi7PKMP938"
  },
  {
    "name": "Bridgestone Select Tyre & Auto Maroochydore",
    "address": "17-19 Beach Rd, Maroochydore QLD 4558, Australia",
    "suburb": "Maroochydore QLD 4558",
    "state": "QLD",
    "rating": 4.6,
    "reviews": 212,
    "lat": -26.6508413,
    "lng": 153.0890693,
    "place_id": "ChIJeVWm2GF2k2sR3kr8AUa-AJ8",
    "maps_url": "https://www.google.com/maps/place/?q=place_id:ChIJeVWm2GF2k2sR3kr8AUa-AJ8"
  },
  {
    "name": "mycar Tyre & Auto Maroochydore",
    "address": "Plaza Parade, Maroochydore QLD 4558, Australia",
    "suburb": "Maroochydore QLD 4558",
    "state": "QLD",
    "rating": 4.8,
    "reviews": 977,
    "lat": -26.6546076,
    "lng": 153.0904692,
    "place_id": "ChIJo27SY2F2k2sRm9Gmd3e97-g",
    "maps_url": "https://www.google.com/maps/place/?q=place_id:ChIJo27SY2F2k2sRm9Gmd3e97-g"
  },
  {
    "name": "Bridgestone Select Tyre & Auto Kunda Park",
    "address": "12 Robert St, Kunda Park QLD 4556, Australia",
    "suburb": "Kunda Park QLD 4556",
    "state": "QLD",
    "rating": 4.8,
    "reviews": 195,
    "lat": -26.6638433,
    "lng": 153.0449372,
    "place_id": "ChIJxbIgV8d3k2sRmyMyAQKg1co",
    "maps_url": "https://www.google.com/maps/place/?q=place_id:ChIJxbIgV8d3k2sRmyMyAQKg1co"
  },
  {
    "name": "Tyrepower Noosa",
    "address": "138 Eumundi Rd, Noosaville QLD 4566, Australia",
    "suburb": "Noosaville QLD 4566",
    "state": "QLD",
    "rating": 4.5,
    "reviews": 165,
    "lat": -26.4098633,
    "lng": 153.0461118,
    "place_id": "ChIJnUzZ8Rtpk2sRmNUNtU3WAhA",
    "maps_url": "https://www.google.com/maps/place/?q=place_id:ChIJnUzZ8Rtpk2sRmNUNtU3WAhA"
  },
  {
    "name": "JAX Tyres & Auto Noosaville",
    "address": "139 Eumundi Noosa Rd, Noosaville QLD 4566, Australia",
    "suburb": "Noosaville QLD 4566",
    "state": "QLD",
    "rating": 4.8,
    "reviews": 422,
    "lat": -26.4101646,
    "lng": 153.0470295,
    "place_id": "ChIJ62Q9aMNok2sRhExC7TA0UMk",
    "maps_url": "https://www.google.com/maps/place/?q=place_id:ChIJ62Q9aMNok2sRhExC7TA0UMk"
  },
  {
    "name": "Tyreswheels2u",
    "address": "shed 3/5/7 Claude Boyd Parade, Corbould Park QLD 4551, Australia",
    "suburb": "Corbould Park QLD 4551",
    "state": "QLD",
    "rating": 4.8,
    "reviews": 16,
    "lat": -26.7876313,
    "lng": 153.064162,
    "place_id": "ChIJq6qmoRwalGsR2x00DzJ8iXw",
    "maps_url": "https://www.google.com/maps/place/?q=place_id:ChIJq6qmoRwalGsR2x00DzJ8iXw"
  },
  {
    "name": "Caloundra Tyrepower",
    "address": "Unit 3/17 Caloundra Rd, Caloundra West QLD 4551, Australia",
    "suburb": "Caloundra West QLD 4551",
    "state": "QLD",
    "rating": 4.6,
    "reviews": 111,
    "lat": -26.7973346,
    "lng": 153.1129302,
    "place_id": "ChIJ407nLFaZk2sRfcd2LXXQZmA",
    "maps_url": "https://www.google.com/maps/place/?q=place_id:ChIJ407nLFaZk2sRfcd2LXXQZmA"
  },
  {
    "name": "Tyrepower Townsville",
    "address": "7 Yarrowee St, Currajong QLD 4812, Australia",
    "suburb": "Currajong QLD 4812",
    "state": "QLD",
    "rating": 4.8,
    "reviews": 152,
    "lat": -19.273189,
    "lng": 146.773574,
    "place_id": "ChIJG97zX7v51WsRB_jRTROmh_k",
    "maps_url": "https://www.google.com/maps/place/?q=place_id:ChIJG97zX7v51WsRB_jRTROmh_k"
  },
  {
    "name": "TYREPLUS Townsville | JM TYRE",
    "address": "733 Sturt St, Townsville City QLD 4810, Australia",
    "suburb": "Townsville City QLD 4810",
    "state": "QLD",
    "rating": 4.9,
    "reviews": 578,
    "lat": -19.2677389,
    "lng": 146.8051821,
    "place_id": "ChIJUW9K5h751WsRq7-hrRLCJrc",
    "maps_url": "https://www.google.com/maps/place/?q=place_id:ChIJUW9K5h751WsRq7-hrRLCJrc"
  },
  {
    "name": "Bob Jane T-Marts Townsville",
    "address": "2 Ross River Road, Bowen Rd, Mundingburra QLD 4812, Australia",
    "suburb": "Bowen Rd",
    "state": "QLD",
    "rating": 4.3,
    "reviews": 452,
    "lat": -19.2916613,
    "lng": 146.7956228,
    "place_id": "ChIJ7V83SnD51WsRMCy8_lloFak",
    "maps_url": "https://www.google.com/maps/place/?q=place_id:ChIJ7V83SnD51WsRMCy8_lloFak"
  },
  {
    "name": "JAX Tyres & Auto Townsville",
    "address": "106 Hanran St, Townsville City QLD 4810, Australia",
    "suburb": "Townsville City QLD 4810",
    "state": "QLD",
    "rating": 4.4,
    "reviews": 484,
    "lat": -19.2626129,
    "lng": 146.8165317,
    "place_id": "ChIJK_DbE9n41WsRNVMGuKPNemk",
    "maps_url": "https://www.google.com/maps/place/?q=place_id:ChIJK_DbE9n41WsRNVMGuKPNemk"
  },
  {
    "name": "ETyreStore Townsville",
    "address": "36 Macrossan St, South Townsville QLD 4810, Australia",
    "suburb": "South Townsville QLD 4810",
    "state": "QLD",
    "rating": 4.6,
    "reviews": 160,
    "lat": -19.2630801,
    "lng": 146.8282038,
    "place_id": "ChIJVcUkgtP41WsRK_vuI_Jl-5c",
    "maps_url": "https://www.google.com/maps/place/?q=place_id:ChIJVcUkgtP41WsRK_vuI_Jl-5c"
  },
  {
    "name": "Tuff Tyres Townsville",
    "address": "25 Hammett St, Currajong QLD 4812, Australia",
    "suburb": "Currajong QLD 4812",
    "state": "QLD",
    "rating": 4.9,
    "reviews": 118,
    "lat": -19.2784899,
    "lng": 146.7791474,
    "place_id": "ChIJAQAAABD41WsRUwdFEhuZcfA",
    "maps_url": "https://www.google.com/maps/place/?q=place_id:ChIJAQAAABD41WsRUwdFEhuZcfA"
  },
  {
    "name": "Petersen's Secondhand & New Tyres",
    "address": "5 Keane St, Currajong QLD 4812, Australia",
    "suburb": "Currajong QLD 4812",
    "state": "QLD",
    "rating": 4.9,
    "reviews": 209,
    "lat": -19.2727578,
    "lng": 146.7813627,
    "place_id": "ChIJEwwyqgT51WsRI68TrsPjr18",
    "maps_url": "https://www.google.com/maps/place/?q=place_id:ChIJEwwyqgT51WsRI68TrsPjr18"
  },
  {
    "name": "Twin City Tyres",
    "address": "352 Ingham Rd, Garbutt QLD 4814, Australia",
    "suburb": "Garbutt QLD 4814",
    "state": "QLD",
    "rating": 4.6,
    "reviews": 116,
    "lat": -19.2646847,
    "lng": 146.7702578,
    "place_id": "ChIJ1ZvQILH51WsRtkcr89vUDCk",
    "maps_url": "https://www.google.com/maps/place/?q=place_id:ChIJ1ZvQILH51WsRtkcr89vUDCk"
  },
  {
    "name": "North 2 West Tyre & Wheels",
    "address": "277 Ingham Rd, Garbutt QLD 4814, Australia",
    "suburb": "Garbutt QLD 4814",
    "state": "QLD",
    "rating": 4.8,
    "reviews": 138,
    "lat": -19.2651748,
    "lng": 146.7758636,
    "place_id": "ChIJseZHOK751WsRNzWRh6LmPCY",
    "maps_url": "https://www.google.com/maps/place/?q=place_id:ChIJseZHOK751WsRNzWRh6LmPCY"
  },
  {
    "name": "Townsville",
    "address": "733 Sturt St, Townsville City QLD 4810, Australia",
    "suburb": "Townsville City QLD 4810",
    "state": "QLD",
    "rating": 4.7,
    "reviews": 86,
    "lat": -19.2677389,
    "lng": 146.8051821,
    "place_id": "ChIJUdEk5x751WsRQ8wEazfgMdE",
    "maps_url": "https://www.google.com/maps/place/?q=place_id:ChIJUdEk5x751WsRQ8wEazfgMdE"
  },
  {
    "name": "Kirwan Tyres & More",
    "address": "182 Thuringowa Dr, Thuringowa Central QLD 4817, Australia",
    "suburb": "Thuringowa Central QLD 4817",
    "state": "QLD",
    "rating": 4.8,
    "reviews": 250,
    "lat": -19.3003955,
    "lng": 146.7356364,
    "place_id": "ChIJHQqrNK_w1WsRi8p5ccQ7kWk",
    "maps_url": "https://www.google.com/maps/place/?q=place_id:ChIJHQqrNK_w1WsRi8p5ccQ7kWk"
  },
  {
    "name": "Bridgestone Select Tyre & Auto Townsville",
    "address": "Cnr Dalrymple & Bayswater Rds, Garbutt QLD 4810, Australia",
    "suburb": "Garbutt QLD 4810",
    "state": "QLD",
    "rating": 4.6,
    "reviews": 261,
    "lat": -19.2735675,
    "lng": 146.7684162,
    "place_id": "ChIJf6guI7z51WsRHunw9LPp2d4",
    "maps_url": "https://www.google.com/maps/place/?q=place_id:ChIJf6guI7z51WsRHunw9LPp2d4"
  },
  {
    "name": "Townsville Tyre Service",
    "address": "27 Everett St, Mount St John QLD 4818, Australia",
    "suburb": "Mount St John QLD 4818",
    "state": "QLD",
    "rating": 4.7,
    "reviews": 12,
    "lat": -19.2569497,
    "lng": 146.7255281,
    "place_id": "ChIJKcM96xj31WsRmiG2SUyLMkU",
    "maps_url": "https://www.google.com/maps/place/?q=place_id:ChIJKcM96xj31WsRmiG2SUyLMkU"
  },
  {
    "name": "Direct Wholesale Tyres",
    "address": "29-33 Curley Cct, Roseneath QLD 4811, Australia",
    "suburb": "Roseneath QLD 4811",
    "state": "QLD",
    "rating": 4.7,
    "reviews": 31,
    "lat": -19.3770628,
    "lng": 146.829735,
    "place_id": "ChIJcbnOMib31WsRrmJZG3-6BFg",
    "maps_url": "https://www.google.com/maps/place/?q=place_id:ChIJcbnOMib31WsRrmJZG3-6BFg"
  },
  {
    "name": "mycar Tyre & Auto Townsville",
    "address": "Raynor St, Cranbrook QLD 4814, Australia",
    "suburb": "Cranbrook QLD 4814",
    "state": "QLD",
    "rating": 4.7,
    "reviews": 1020,
    "lat": -19.2966818,
    "lng": 146.7611753,
    "place_id": "ChIJPaDnmR_61WsRDagtNXf6_VY",
    "maps_url": "https://www.google.com/maps/place/?q=place_id:ChIJPaDnmR_61WsRDagtNXf6_VY"
  },
  {
    "name": "Tyre Evolution Townsville",
    "address": "47 Crocodile Cres, Mount St John QLD 4818, Australia",
    "suburb": "Mount St John QLD 4818",
    "state": "QLD",
    "rating": 4.5,
    "reviews": 10,
    "lat": -19.2605759,
    "lng": 146.7307553,
    "place_id": "ChIJ9fs8a1P31WsRu2lKJPQZ6i8",
    "maps_url": "https://www.google.com/maps/place/?q=place_id:ChIJ9fs8a1P31WsRu2lKJPQZ6i8"
  },
  {
    "name": "mycar Tyre & Auto Fairfield Central",
    "address": "2, 30 Lakeside Dr, Idalia QLD 4811, Australia",
    "suburb": "30 Lakeside Dr",
    "state": "QLD",
    "rating": 4.8,
    "reviews": 365,
    "lat": -19.3152523,
    "lng": 146.8179756,
    "place_id": "ChIJ27wLJU_71WsRSPkPNr_kpw8",
    "maps_url": "https://www.google.com/maps/place/?q=place_id:ChIJ27wLJU_71WsRSPkPNr_kpw8"
  },